[{"id":"59642","lat":36.97636,"lon":14.59263,"name":"29927 COMISO","brand":"Agip Eni","address":"S.P. 4 COMISO/GRAMMICHELE KM 2 C/DA BILLONA,  SN, COMISO, RG","prices":[{"type":"petrol","price":1.829,"self":true,"updatedAt":"01/07/2026 00:08:29"},{"type":"diesel","price":1.889,"self":true,"updatedAt":"01/07/2026 00:08:29"},{"type":"lpg","price":0.787,"self":false,"updatedAt":"01/07/2026 00:08:29"}]},{"id":"57498","lat":36.93619303713987,"lon":14.584188255091973,"name":"AREA DI SERVIZIO SEPA - ESSO COMISO","brand":"Esso","address":"STRADA PROVINCIALE 20 COMISO/SANTA CROCE CAMERINA KM 1+100 SNC  97013, COMISO, RG","prices":[{"type":"petrol","price":1.799,"self":true,"updatedAt":"30/06/2026 13:32:14"},{"type":"diesel","price":1.889,"self":true,"updatedAt":"30/06/2026 13:32:14"}]},{"id":"19345","lat":36.93808008567802,"lon":14.588470458984375,"name":"ENI - S.P. Comiso - Santa Croce","brand":"Agip Eni","address":"VIA PIAVE SN 97013, COMISO, RG","prices":[{"type":"petrol","price":1.819,"self":true,"updatedAt":"01/07/2026 00:08:18"},{"type":"diesel","price":1.889,"self":true,"updatedAt":"01/07/2026 00:08:18"}]},{"id":"18960","lat":36.95920909069254,"lon":14.606991112232208,"name":"Eni - SP Comiso - Chiaramonte","brand":"Agip Eni","address":"S.P. Comiso - Chiaramonte  97013, COMISO, RG","prices":[{"type":"petrol","price":1.829,"self":true,"updatedAt":"01/07/2026 00:37:12"},{"type":"diesel","price":1.889,"self":true,"updatedAt":"01/07/2026 00:37:12"}]},{"id":"53827","lat":36.9508544444436,"lon":14.606282790117007,"name":"GENERALE GIRLANDO","brand":"Pompe Bianche","address":"GENERALE GIRLANDO 65 97013, COMISO, RG","prices":[{"type":"petrol","price":1.779,"self":true,"updatedAt":"30/06/2026 18:09:26"},{"type":"diesel","price":1.854,"self":true,"updatedAt":"30/06/2026 18:09:26"}]},{"id":"29340","lat":36.951400953108376,"lon":14.60433261691901,"name":"Idc Via G. Girlando - Comiso","brand":"Esso","address":"Via Generale Girlando  127 97013, COMISO, RG","prices":[{"type":"petrol","price":1.849,"self":true,"updatedAt":"30/06/2026 23:51:27"},{"type":"diesel","price":1.919,"self":true,"updatedAt":"30/06/2026 23:51:27"}]},{"id":"49783","lat":36.9491615646151,"lon":14.603264233135235,"name":"Idc Via Generale Amato","brand":"Sallemi Carburanti","address":"Via Generale Amato s.n.c.  97013, COMISO, RG","prices":[{"type":"petrol","price":1.849,"self":false,"updatedAt":"26/06/2026 22:54:54"},{"type":"diesel","price":1.919,"self":false,"updatedAt":"26/06/2026 22:54:54"}]},{"id":"14559","lat":36.968482394760564,"lon":14.615233540534973,"name":"MENDOLILLA","brand":"Lukoil","address":"CONTRADA MENDOLILLA REGIA TRAZZERA 337 97013, COMISO, RG","prices":[{"type":"petrol","price":1.799,"self":true,"updatedAt":"29/06/2026 17:48:09"},{"type":"diesel","price":1.889,"self":true,"updatedAt":"29/06/2026 17:48:09"}]},{"id":"21139","lat":36.951762626665925,"lon":14.602214097976685,"name":"Nannaro","brand":"Agip Eni","address":"VIA S. BIAGIO, 97013 sn 97013, COMISO, RG","prices":[{"type":"petrol","price":1.829,"self":true,"updatedAt":"01/07/2026 00:33:37"},{"type":"diesel","price":1.889,"self":true,"updatedAt":"01/07/2026 00:33:37"}]},{"id":"60300","lat":36.9490103,"lon":14.6122705,"name":"NOBILE (DI GIACOMO)","brand":"Nobile Oil","address":"VIA P. DI PIEMONTE   SN 97013, COMISO, RG","prices":[{"type":"petrol","price":1.784,"self":false,"updatedAt":"30/06/2026 15:17:51"},{"type":"diesel","price":1.864,"self":false,"updatedAt":"30/06/2026 15:17:51"}]},{"id":"4931","lat":36.94063122516729,"lon":14.595508575439453,"name":"PIAVE","brand":"Lukoil","address":"VIA PIAVE EX V. EMANUELE  97013, COMISO, RG","prices":[{"type":"petrol","price":1.799,"self":true,"updatedAt":"29/06/2026 17:50:41"},{"type":"diesel","price":1.889,"self":true,"updatedAt":"29/06/2026 17:50:41"},{"type":"lpg","price":0.768,"self":false,"updatedAt":"29/06/2026 17:50:41"}]},{"id":"12347","lat":36.946439114737096,"lon":14.611125085321191,"name":"VIA V.EMANUELE C","brand":"Giap","address":"VIA VITTORIO EMANUELE  97013, COMISO, RG","prices":[{"type":"petrol","price":1.778,"self":true,"updatedAt":"01/07/2026 06:00:47"},{"type":"diesel","price":1.858,"self":true,"updatedAt":"01/07/2026 06:00:47"}]},{"id":"50745","lat":36.961609977922365,"lon":14.601004847060443,"name":"VITAL CARBURANTI","brand":"Vital","address":"CONTRADA CROCILLA  97013, COMISO, RG","prices":[{"type":"petrol","price":1.789,"self":true,"updatedAt":"30/06/2026 07:53:40"},{"type":"diesel","price":1.869,"self":true,"updatedAt":"30/06/2026 07:53:40"}]},{"id":"37916","lat":36.869799962378586,"lon":14.746175779098508,"name":"BLANCO PETROLI - MODICA SP 126 KM 0+133","brand":"Blanco petroli","address":"VIA S.P. 126 KM. 0 +133 S.N. 97015, MODICA (RG)  97015, MODICA, RG","prices":[{"type":"petrol","price":1.789,"self":true,"updatedAt":"01/07/2026 00:08:36"},{"type":"diesel","price":1.879,"self":true,"updatedAt":"01/07/2026 00:08:36"},{"type":"lpg","price":0.789,"self":true,"updatedAt":"01/07/2026 00:08:36"}]},{"id":"22650","lat":36.86743274992708,"lon":14.747528991401623,"name":"C.DA S. ANTONIO MODICA","brand":"Agip Eni","address":"CONTRADA SANT' ANTONIO  97015, MODICA, RG","prices":[{"type":"petrol","price":1.789,"self":true,"updatedAt":"01/07/2026 06:00:44"},{"type":"diesel","price":1.879,"self":true,"updatedAt":"01/07/2026 06:00:44"},{"type":"lpg","price":0.789,"self":false,"updatedAt":"01/07/2026 06:00:44"}]},{"id":"7698","lat":36.85345784037247,"lon":14.748680858791317,"name":"SS 115 KM335+650","brand":"Esso","address":"Statale 115 Sud Occidentale Sicula, Km. 335+650, dir. MODICA - 97015, MODICA, RG","prices":[{"type":"petrol","price":1.789,"self":true,"updatedAt":"01/07/2026 06:00:39"},{"type":"diesel","price":1.879,"self":true,"updatedAt":"01/07/2026 06:00:39"}]},{"id":"7694","lat":36.85314895185081,"lon":14.749516776790642,"name":"SS 115 KM335+800","brand":"Agip Eni","address":"STRADA COM.LE INT. EX SS115 KM335 SNC 97015, MODICA, RG","prices":[{"type":"petrol","price":1.789,"self":true,"updatedAt":"01/07/2026 06:00:26"},{"type":"diesel","price":1.879,"self":true,"updatedAt":"01/07/2026 06:00:26"}]},{"id":"55018","lat":36.934126497058614,"lon":14.677256540277819,"name":"108200","brand":"Esso","address":"SS 115 KM316+861 SNC 97100, RAGUSA, RG","prices":[{"type":"petrol","price":1.889,"self":true,"updatedAt":"09/06/2026 16:05:28"},{"type":"diesel","price":2.029,"self":true,"updatedAt":"09/06/2026 16:05:28"}]},{"id":"58594","lat":36.925835,"lon":14.706251,"name":"19883 RAGUSA","brand":"Agip Eni","address":"VIA S. LUIGI, RAGUSA, RG","prices":[{"type":"petrol","price":1.829,"self":true,"updatedAt":"30/06/2026 23:43:54"},{"type":"diesel","price":1.889,"self":true,"updatedAt":"30/06/2026 23:43:54"}]},{"id":"58595","lat":36.910156,"lon":14.722973,"name":"19898  RAGUSA","brand":"Agip Eni","address":"VIA A. GRANDI - EX ZONA INDUSTRIALE,  SNC, RAGUSA, RG","prices":[{"type":"petrol","price":1.829,"self":true,"updatedAt":"01/07/2026 00:20:52"},{"type":"diesel","price":1.889,"self":true,"updatedAt":"01/07/2026 00:20:52"}]},{"id":"44146","lat":36.92330834016632,"lon":14.719931311962569,"name":"ARCHIMEDE","brand":"Pompe Bianche","address":"VIA ARCHIMEDE SN 97100, RAGUSA, RG","prices":[{"type":"petrol","price":1.809,"self":true,"updatedAt":"29/06/2026 18:03:12"},{"type":"diesel","price":1.889,"self":true,"updatedAt":"29/06/2026 18:03:12"}]},{"id":"42550","lat":36.887706000123,"lon":14.689986000123,"name":"BLANCO PETROLI - RAGUSA SP 25 KM 2+200","brand":"Blanco petroli","address":"VIA S.P. 25 KM 2+200 S.N. 97100, RAGUSA (RG)  97100, RAGUSA, RG","prices":[{"type":"petrol","price":1.789,"self":true,"updatedAt":"01/07/2026 00:08:47"},{"type":"diesel","price":1.879,"self":true,"updatedAt":"01/07/2026 00:08:47"},{"type":"methane","price":1.759,"self":true,"updatedAt":"01/07/2026 00:08:47"}]},{"id":"34754","lat":36.91949406541724,"lon":14.711862802505493,"name":"BLANCO PETROLI - RAGUSA VIA G. LA PIRA","brand":"Blanco petroli","address":"VIA VIA G. LA PIRA S.N. 97100, RAGUSA (RG)  97100, RAGUSA, RG","prices":[{"type":"petrol","price":1.789,"self":true,"updatedAt":"01/07/2026 00:08:23"},{"type":"diesel","price":1.879,"self":true,"updatedAt":"01/07/2026 00:08:23"},{"type":"lpg","price":0.789,"self":true,"updatedAt":"01/07/2026 00:08:23"}]},{"id":"42108","lat":36.793101817037275,"lon":14.552003145217896,"name":"DM PETROLI","brand":"Pompe Bianche","address":"CONTRADA NAVE  97100, RAGUSA, RG","prices":[{"type":"petrol","price":1.829,"self":true,"updatedAt":"29/06/2026 17:33:03"},{"type":"diesel","price":1.929,"self":true,"updatedAt":"29/06/2026 17:33:03"}]},{"id":"53284","lat":36.93708,"lon":14.666,"name":"EASY CARBURANTI","brand":"Pompe Bianche","address":"DELLE AMERICHE (EX SP 52) S.N. 97100, RAGUSA, RG","prices":[{"type":"petrol","price":1.789,"self":true,"updatedAt":"01/07/2026 00:33:26"},{"type":"diesel","price":1.879,"self":true,"updatedAt":"01/07/2026 00:33:26"},{"type":"lpg","price":0.789,"self":false,"updatedAt":"30/06/2026 23:43:38"}]},{"id":"44711","lat":36.92956188904339,"lon":14.71604511141777,"name":"ENERGY POINT DI PISANA CARMELO","brand":"Pompe Bianche","address":"VIALE EUROPA 128 97100, RAGUSA, RG","prices":[{"type":"petrol","price":1.799,"self":true,"updatedAt":"29/06/2026 17:09:24"},{"type":"diesel","price":1.899,"self":true,"updatedAt":"29/06/2026 17:09:24"}]},{"id":"18955","lat":36.90474106561201,"lon":14.707544445991516,"name":"Eni - C.da Selvaggio","brand":"Agip Eni","address":"CONTRADA SELVAGGIO C/O DISTRIB. CARBUR. SN 97100, RAGUSA, RG","prices":[{"type":"petrol","price":1.819,"self":true,"updatedAt":"30/06/2026 23:37:50"},{"type":"diesel","price":1.889,"self":true,"updatedAt":"30/06/2026 23:37:50"},{"type":"methane","price":1.759,"self":false,"updatedAt":"30/06/2026 23:37:50"}]},{"id":"14914","lat":36.88578221543473,"lon":14.685566425323486,"name":"Eni - S.p.25 Ragusa - Marina di Ragusa","brand":"Agip Eni","address":"Strada Provinciale 25 Km 2+550, RAGUSA, RG","prices":[{"type":"petrol","price":1.819,"self":true,"updatedAt":"30/06/2026 00:25:49"},{"type":"diesel","price":1.889,"self":true,"updatedAt":"30/06/2026 00:25:49"}]},{"id":"18958","lat":36.91501819807068,"lon":14.699918925762177,"name":"Eni - Via E. Fieramosca","brand":"Agip Eni","address":"VIA E. FIERAMOSCA S.N. 97100, RAGUSA, RG","prices":[{"type":"petrol","price":1.819,"self":true,"updatedAt":"30/06/2026 00:17:54"},{"type":"diesel","price":1.889,"self":true,"updatedAt":"30/06/2026 00:17:54"}]},{"id":"12854","lat":36.917633155551336,"lon":14.727733433246613,"name":"ESSO","brand":"Esso","address":"VIALE SICILIA  97100, RAGUSA, RG","prices":[{"type":"petrol","price":1.809,"self":true,"updatedAt":"30/06/2026 11:51:54"},{"type":"diesel","price":1.899,"self":true,"updatedAt":"30/06/2026 11:51:54"}]},{"id":"14549","lat":36.90914161499595,"lon":14.696611762046814,"name":"FIERAMOSCA","brand":"Pompe Bianche","address":"VIA ETTORE FIERAMOSCA SN 97100, RAGUSA, RG","prices":[{"type":"petrol","price":1.809,"self":true,"updatedAt":"29/06/2026 18:02:22"},{"type":"diesel","price":1.889,"self":true,"updatedAt":"29/06/2026 18:02:22"}]},{"id":"61500","lat":36.7812218,"lon":14.569698,"name":"IB03 - IBLEA PETROLI -MARINA DI RAGUSA","brand":"Iblea Petroli","address":"Via Portovenere, RAGUSA, RG","prices":[{"type":"petrol","price":1.809,"self":true,"updatedAt":"30/06/2026 23:55:37"},{"type":"diesel","price":1.878,"self":true,"updatedAt":"30/06/2026 23:55:37"}]},{"id":"61502","lat":36.9170801,"lon":14.711638,"name":"IB05- IBLEA PETROLI - RAGUSA LA PIRA","brand":"Iblea Petroli","address":"Via Giorgio La Pira  97100, RAGUSA, RG","prices":[{"type":"petrol","price":1.769,"self":true,"updatedAt":"30/06/2026 16:50:03"},{"type":"diesel","price":1.849,"self":true,"updatedAt":"30/06/2026 16:50:03"}]},{"id":"18959","lat":36.91774295009282,"lon":14.729543924331665,"name":"Idc Via Risorgimento ang. Via Migliorisi, Ragusa","brand":"Esso","address":"VIA RISORGIMENTO SN 97100, RAGUSA, RG","prices":[{"type":"petrol","price":1.809,"self":true,"updatedAt":"30/06/2026 23:13:49"},{"type":"diesel","price":1.889,"self":true,"updatedAt":"30/06/2026 17:52:04"}]},{"id":"10719","lat":36.921222690255085,"lon":14.720467594011325,"name":"imp.lombardo gaspare","brand":"Esso","address":"VIA E. CRISCIONE LUPIS SNC 97100, RAGUSA, RG","prices":[{"type":"petrol","price":1.809,"self":true,"updatedAt":"30/06/2026 07:58:01"},{"type":"diesel","price":1.889,"self":true,"updatedAt":"30/06/2026 07:58:01"}]},{"id":"17923","lat":36.92717407346681,"lon":14.704180285334587,"name":"LUKOIL","brand":"Lukoil","address":"Viale delle Americhe 1 97100, RAGUSA, RG","prices":[{"type":"petrol","price":1.809,"self":true,"updatedAt":"29/06/2026 18:45:36"},{"type":"diesel","price":1.889,"self":true,"updatedAt":"29/06/2026 18:45:36"}]},{"id":"38701","lat":36.81578438379672,"lon":14.575787633657455,"name":"MARINA DI RAGUSA","brand":"Pompe Bianche","address":"MARINA DI RAGUSA KM.15+750 SN 97100, RAGUSA, RG","prices":[{"type":"petrol","price":1.809,"self":true,"updatedAt":"29/06/2026 18:05:52"},{"type":"diesel","price":1.889,"self":true,"updatedAt":"29/06/2026 18:05:52"},{"type":"lpg","price":0.768,"self":false,"updatedAt":"29/06/2026 18:05:52"}]},{"id":"60412","lat":36.9124991,"lon":14.722482,"name":"NOBILE OIL (RAGUSA)","brand":"Nobile Oil","address":"Via Diodoro Siculo sn 97100, RAGUSA, RG","prices":[{"type":"petrol","price":1.789,"self":true,"updatedAt":"30/06/2026 17:41:35"},{"type":"diesel","price":1.879,"self":true,"updatedAt":"30/06/2026 17:41:35"}]},{"id":"36516","lat":36.90657054797069,"lon":14.692269265651703,"name":"Q8","brand":"Q8","address":"via ettore fieramosca  250 97100, RAGUSA, RG","prices":[{"type":"petrol","price":1.799,"self":true,"updatedAt":"30/06/2026 07:21:37"},{"type":"diesel","price":1.889,"self":true,"updatedAt":"30/06/2026 07:21:37"}]},{"id":"16964","lat":36.92966219722612,"lon":14.692901281614695,"name":"RAGUSA V.LE DELLE AMERICHE, 212","brand":"Q8","address":"V.LE DELLE AMERICHE 212 97100, RAGUSA, RG","prices":[{"type":"petrol","price":1.789,"self":true,"updatedAt":"01/07/2026 01:43:30"},{"type":"diesel","price":1.879,"self":true,"updatedAt":"01/07/2026 01:43:30"}]},{"id":"6779","lat":36.92984565687,"lon":14.715139574868772,"name":"RAGUSA V.LE EUROPA","brand":"Q8","address":"V.LE EUROPA SNC 97100, RAGUSA, RG","prices":[{"type":"petrol","price":1.799,"self":true,"updatedAt":"29/06/2026 18:04:40"},{"type":"diesel","price":1.889,"self":true,"updatedAt":"29/06/2026 18:04:40"}]},{"id":"22286","lat":36.91499535347901,"lon":14.724948024249898,"name":"RAGUSA ZONA INDUSTRIALE","brand":"Q8","address":"ZONA INDUSTRIALE  97100, RAGUSA, RG","prices":[{"type":"petrol","price":1.799,"self":true,"updatedAt":"01/07/2026 07:44:54"},{"type":"diesel","price":1.889,"self":true,"updatedAt":"01/07/2026 07:44:54"}]},{"id":"45851","lat":36.92806637146065,"lon":14.700419902801514,"name":"RG031","brand":"EOS","address":"VIALE DELLE AMERICHE 71 97100, RAGUSA, RG","prices":[{"type":"petrol","price":1.789,"self":true,"updatedAt":"29/06/2026 10:24:06"},{"type":"diesel","price":1.879,"self":true,"updatedAt":"29/06/2026 10:24:06"}]},{"id":"43343","lat":36.921534207056354,"lon":14.706680178642273,"name":"RG033","brand":"Q8","address":"VIA MALFITANO / VIA PALATUCCI 12/14 97100, RAGUSA, RG","prices":[{"type":"petrol","price":1.789,"self":true,"updatedAt":"29/06/2026 10:24:07"},{"type":"diesel","price":1.879,"self":true,"updatedAt":"29/06/2026 10:24:07"},{"type":"lpg","price":0.779,"self":false,"updatedAt":"25/06/2026 14:00:05"}]},{"id":"5063","lat":36.92380072904993,"lon":14.669393252639793,"name":"S.S. 115 MONACHELLA SUD","brand":"Agip Eni","address":"VIA SS115 KM317,413 GELA-SR DX SNC 97100, RAGUSA, RG","prices":[{"type":"petrol","price":1.789,"self":true,"updatedAt":"01/07/2026 06:00:29"},{"type":"diesel","price":1.879,"self":true,"updatedAt":"01/07/2026 06:00:29"},{"type":"methane","price":1.799,"self":false,"updatedAt":"01/07/2026 06:00:29"}]},{"id":"7689","lat":36.92380716180635,"lon":14.671117913036369,"name":"SS115 MONAC.NORD","brand":"Agip Eni","address":"VIA SS115 KM317,038 C.MONACHEL SNC 97100, RAGUSA, RG","prices":[{"type":"petrol","price":1.789,"self":true,"updatedAt":"01/07/2026 06:00:28"},{"type":"diesel","price":1.879,"self":true,"updatedAt":"01/07/2026 06:00:28"}]},{"id":"12343","lat":36.903994687315844,"lon":14.684144463122948,"name":"ST.COM. RG-SCCAM","brand":"Agip Eni","address":"STRADA COM. EX SP RG-S.C.CAMERINA  97100, RAGUSA, RG","prices":[{"type":"petrol","price":1.808,"self":true,"updatedAt":"01/07/2026 06:00:30"},{"type":"diesel","price":1.888,"self":true,"updatedAt":"01/07/2026 06:00:30"}]},{"id":"63292","lat":36.93569088527103,"lon":14.670199195861828,"name":"TOIL351- RAGUSA","brand":"Esso","address":"SS 115 KM 316 + 861 SNC   97100, RAGUSA, RG","prices":[{"type":"petrol","price":1.794,"self":true,"updatedAt":"01/07/2026 00:18:11"},{"type":"diesel","price":1.884,"self":true,"updatedAt":"01/07/2026 00:18:11"}]},{"id":"55570","lat":36.92574337104499,"lon":14.72717285156242,"name":"TOP SERVICE SRL","brand":"Q8","address":"C.So Vittorio Veneto 753 753 97100, RAGUSA (RG) 753 97100, RAGUSA, RG","prices":[{"type":"petrol","price":1.824,"self":true,"updatedAt":"30/06/2026 11:20:56"},{"type":"diesel","price":1.914,"self":true,"updatedAt":"30/06/2026 11:20:56"}]},{"id":"12354","lat":36.919889493245925,"lon":14.72296522817237,"name":"V.ARCH. ANG. CAR","brand":"Giap","address":"VIA CARDUCCI ANG. VIA ARCHIMEDE  97100, RAGUSA, RG","prices":[{"type":"petrol","price":1.809,"self":true,"updatedAt":"01/07/2026 06:00:33"},{"type":"diesel","price":1.889,"self":true,"updatedAt":"01/07/2026 06:00:34"}]},{"id":"12316","lat":36.91749100157409,"lon":14.725149330024692,"name":"VIA ARCHIMEDE RG","brand":"Giap","address":"VIA ARCHIMEDE SNC 97100, RAGUSA, RG","prices":[{"type":"petrol","price":1.809,"self":true,"updatedAt":"01/07/2026 06:00:33"},{"type":"diesel","price":1.889,"self":true,"updatedAt":"01/07/2026 06:00:33"}]},{"id":"12335","lat":36.78693516736574,"lon":14.557264230399937,"name":"VIA DUILIO MARINA DI RAGUSA","brand":"Giap","address":"VIA DUILIO SNC 97100, RAGUSA, RG","prices":[{"type":"petrol","price":1.808,"self":true,"updatedAt":"01/07/2026 06:00:17"},{"type":"diesel","price":1.888,"self":true,"updatedAt":"01/07/2026 06:00:17"}]},{"id":"43465","lat":36.912529680616736,"lon":14.724013209342957,"name":"VIA G. DI VITTORIO - RAGUSA","brand":"Giap","address":"VIA G. DI VITTORIO ANGOLO VIA EPICARMO   97100, RAGUSA, RG","prices":[{"type":"petrol","price":1.798,"self":true,"updatedAt":"01/07/2026 06:00:38"},{"type":"diesel","price":1.888,"self":true,"updatedAt":"01/07/2026 06:00:38"}]},{"id":"12310","lat":36.917902089819165,"lon":14.731859682209006,"name":"VIA RISORGIM. RG","brand":"Giap","address":"VIA RISORGIMENTO SNC 97100, RAGUSA, RG","prices":[{"type":"petrol","price":1.809,"self":true,"updatedAt":"01/07/2026 06:00:32"},{"type":"diesel","price":1.889,"self":true,"updatedAt":"01/07/2026 06:00:32"}]},{"id":"12338","lat":36.925107787723434,"lon":14.721404152114928,"name":"VIA SCHININA' RG","brand":"Giap","address":"VIA M. SCHININA' SNC 97100, RAGUSA, RG","prices":[{"type":"petrol","price":1.809,"self":true,"updatedAt":"01/07/2026 06:00:31"},{"type":"diesel","price":1.889,"self":true,"updatedAt":"01/07/2026 06:00:31"}]},{"id":"12300","lat":36.93828561582149,"lon":14.66000314617156,"name":"VIALE DELLE AMERICHE","brand":"Agip Eni","address":"VIALE DELLE AMERICHE SNC 97100, RAGUSA, RG","prices":[{"type":"petrol","price":1.789,"self":true,"updatedAt":"01/07/2026 06:00:27"},{"type":"diesel","price":1.879,"self":true,"updatedAt":"01/07/2026 06:00:27"}]},{"id":"20050","lat":36.89822044971721,"lon":14.702753533729492,"name":"ZONA INDUSTRIALE 3° FASE RG","brand":"Esso","address":"ZONA INDUSTRIALE 3° FASE RG  97100, RAGUSA, RG","prices":[{"type":"petrol","price":1.788,"self":true,"updatedAt":"01/07/2026 06:00:40"},{"type":"diesel","price":1.878,"self":true,"updatedAt":"01/07/2026 06:00:40"}]},{"id":"14286","lat":36.831488882512126,"lon":14.516989588737488,"name":"ENERGY POINT DI PISANA CARMELO","brand":"Pompe Bianche","address":"CONTRADA MIRIO - S.P. 85 KM 0,700 70 97017, SANTA CROCE CAMERINA, RG","prices":[{"type":"petrol","price":1.819,"self":true,"updatedAt":"29/06/2026 11:35:19"},{"type":"diesel","price":1.899,"self":true,"updatedAt":"29/06/2026 11:35:19"},{"type":"lpg","price":0.799,"self":false,"updatedAt":"29/06/2026 11:35:19"}]},{"id":"61393","lat":36.819876,"lon":14.5180462,"name":"NOBILE OIL (SANTA CROCE)","brand":"Nobile Oil","address":"SP PER PUNTA SECCA  SN 97017, SANTA CROCE CAMERINA, RG","prices":[{"type":"petrol","price":1.819,"self":true,"updatedAt":"30/06/2026 17:42:19"},{"type":"diesel","price":1.889,"self":true,"updatedAt":"30/06/2026 17:42:19"}]},{"id":"24886","lat":36.83105782243002,"lon":14.525245525089417,"name":"P.ZZA CARDUCCI S.CROCE CAMERINA","brand":"Giap","address":"P.ZZA CARDUCCI - -, SANTA CROCE CAMERINA, RG","prices":[{"type":"petrol","price":1.819,"self":true,"updatedAt":"01/07/2026 06:00:19"},{"type":"diesel","price":1.899,"self":true,"updatedAt":"01/07/2026 06:00:19"}]},{"id":"5069","lat":36.82281282544885,"lon":14.52621125991061,"name":"SP M. RG-S.C.CAM","brand":"Agip Eni","address":"STRADA PROVINCIALE S.CROCE CAMERINA/MARINA RG SNC 97017, SANTA CROCE CAMERINA, RG","prices":[{"type":"petrol","price":1.818,"self":true,"updatedAt":"01/07/2026 06:00:12"},{"type":"diesel","price":1.898,"self":true,"updatedAt":"01/07/2026 06:00:12"},{"type":"lpg","price":0.798,"self":false,"updatedAt":"01/07/2026 06:00:12"}]},{"id":"51410","lat":36.83527767540679,"lon":14.52364516807906,"name":"VITAL CARBURANTI","brand":"Vital","address":"STRADA PROVINCIALE 20 KM. 15+730  97017, SANTA CROCE CAMERINA, RG","prices":[{"type":"petrol","price":1.819,"self":true,"updatedAt":"30/06/2026 07:20:04"},{"type":"diesel","price":1.899,"self":true,"updatedAt":"30/06/2026 07:20:05"}]},{"id":"54967","lat":36.796241539143836,"lon":14.703683000802634,"name":"ENI BONCORAGLIO","brand":"Agip Eni","address":"Via C. Colombo  97018, SCICLI, RG","prices":[{"type":"petrol","price":1.829,"self":true,"updatedAt":"01/07/2026 00:37:35"},{"type":"diesel","price":1.889,"self":true,"updatedAt":"01/07/2026 00:37:35"}]},{"id":"20333","lat":36.77279465764075,"lon":14.609561667459047,"name":"Fidone Gas Auto","brand":"Pompe Bianche","address":"STRADA PROVINCIALE DONNALUCATA-MARINA DI RG SNC  97018, SCICLI, RG","prices":[{"type":"lpg","price":0.818,"self":false,"updatedAt":"29/06/2026 08:03:20"}]},{"id":"60411","lat":36.7624863,"lon":14.6407671,"name":"NOBILE OIL (DONNALUCATA)","brand":"Nobile Oil","address":"Via Sanremo  97018, SCICLI, RG","prices":[{"type":"petrol","price":1.829,"self":true,"updatedAt":"29/06/2026 15:42:35"},{"type":"diesel","price":1.899,"self":true,"updatedAt":"29/06/2026 15:42:35"}]},{"id":"60410","lat":36.776847964023204,"lon":14.685108958062733,"name":"NOBILE OIL (SCICLI)","brand":"Nobile Oil","address":"Viale I Maggio  00046, SCICLI, RG","prices":[{"type":"petrol","price":1.789,"self":true,"updatedAt":"29/06/2026 15:42:19"},{"type":"diesel","price":1.889,"self":true,"updatedAt":"29/06/2026 15:42:19"}]},{"id":"20982","lat":36.789615230186165,"lon":14.702276587486267,"name":"P.ZZA CADORNA SCICLI","brand":"Giap","address":"P.ZZA CADORNA  97018, SCICLI, RG","prices":[{"type":"petrol","price":1.789,"self":true,"updatedAt":"01/07/2026 06:00:18"},{"type":"diesel","price":1.889,"self":true,"updatedAt":"01/07/2026 06:00:18"}]},{"id":"42012","lat":36.772345327569056,"lon":14.609495176651762,"name":"Pompa Bianca","brand":"Pompe Bianche","address":"Strada Provinciale Donnalucata - Marina di Ragusa snc 97018, SCICLI, RG","prices":[{"type":"petrol","price":1.899,"self":true,"updatedAt":"30/06/2026 07:31:29"},{"type":"diesel","price":1.939,"self":true,"updatedAt":"30/06/2026 07:31:29"}]},{"id":"52130","lat":36.8130556401922,"lon":14.731747745433115,"name":"S.P. 42 SCICLI-MODICA KM 3+600 - SCICLI","brand":"Esso","address":"S.P. 42 SCICLI-MODICA KM 3+600  97018, SCICLI, RG","prices":[{"type":"petrol","price":1.819,"self":true,"updatedAt":"01/07/2026 06:00:41"},{"type":"diesel","price":1.899,"self":true,"updatedAt":"01/07/2026 06:00:41"},{"type":"lpg","price":0.789,"self":false,"updatedAt":"01/07/2026 06:00:41"}]},{"id":"29001","lat":36.78619286800969,"lon":14.696185409776945,"name":"SCICLI","brand":"Lukoil","address":"VIALE I MAGGIO SN 97018, SCICLI, RG","prices":[{"type":"petrol","price":1.789,"self":true,"updatedAt":"30/06/2026 17:59:35"},{"type":"diesel","price":1.889,"self":true,"updatedAt":"30/06/2026 17:59:35"}]},{"id":"20983","lat":36.76580749212958,"lon":14.66951567660999,"name":"SP 39 X DONNALUCATA SCICLI","brand":"Agip Eni","address":"SP 39 X DONNALUCATA  97018, SCICLI, RG","prices":[{"type":"petrol","price":1.829,"self":true,"updatedAt":"01/07/2026 06:00:13"},{"type":"diesel","price":1.899,"self":true,"updatedAt":"01/07/2026 06:00:13"}]},{"id":"12361","lat":36.787558274050525,"lon":14.697154507934556,"name":"VIA GARIBALDI SC","brand":"Giap","address":"C.SO GARIBALDI ANG. VIA BIXIO  97018, SCICLI, RG","prices":[{"type":"petrol","price":1.789,"self":true,"updatedAt":"01/07/2026 06:00:18"},{"type":"diesel","price":1.889,"self":true,"updatedAt":"01/07/2026 06:00:18"}]},{"id":"12332","lat":36.78031992407679,"lon":14.686939796295178,"name":"VIALE I MAGGIO","brand":"Q8","address":"VIALE I MAGGIO 232 97018, SCICLI, RG","prices":[{"type":"petrol","price":1.789,"self":true,"updatedAt":"01/07/2026 06:00:23"},{"type":"diesel","price":1.889,"self":true,"updatedAt":"01/07/2026 06:00:23"}]},{"id":"59125","lat":36.93834,"lon":14.520724,"name":"29884 VITTORIA","brand":"Agip Eni","address":"S.P. VITTORIA - SCOGLITTI KM.1,300,  74, VITTORIA, RG","prices":[{"type":"petrol","price":1.829,"self":true,"updatedAt":"01/07/2026 00:43:20"},{"type":"diesel","price":1.889,"self":true,"updatedAt":"01/07/2026 00:43:20"}]},{"id":"48311","lat":36.95794615577735,"lon":14.523671941188669,"name":"9926","brand":"Agip Eni","address":"VIA GENERALE CASCINO 43a 97019, VITTORIA, RG","prices":[{"type":"petrol","price":1.789,"self":true,"updatedAt":"01/07/2026 00:10:32"},{"type":"diesel","price":1.834,"self":true,"updatedAt":"01/07/2026 00:10:32"}]},{"id":"47510","lat":36.94914287958884,"lon":14.520786135353493,"name":"Area Servizio Nobile di Galofaro Calogero","brand":"Nobile Oil","address":"VIA NEGHELLI SNC 97019, VITTORIA, RG","prices":[{"type":"petrol","price":1.939,"self":true,"updatedAt":"03/06/2026 11:28:09"},{"type":"diesel","price":1.999,"self":true,"updatedAt":"03/06/2026 11:28:09"}]},{"id":"18536","lat":36.944279377231915,"lon":14.531019789897872,"name":"Area Servizio Nobile di Sallemi Giancarlo","brand":"Nobile Oil","address":"Via Garibaldi 397/b 97019, VITTORIA, RG","prices":[{"type":"petrol","price":1.799,"self":true,"updatedAt":"30/06/2026 07:44:33"},{"type":"diesel","price":1.899,"self":true,"updatedAt":"30/06/2026 07:44:33"}]},{"id":"14551","lat":36.957217551159346,"lon":14.52830582857132,"name":"DIAZ","brand":"Pompe Bianche","address":"VIA DIAZ SN 97019, VITTORIA, RG","prices":[{"type":"petrol","price":1.799,"self":true,"updatedAt":"30/06/2026 18:04:34"},{"type":"diesel","price":1.859,"self":true,"updatedAt":"30/06/2026 18:04:34"}]},{"id":"29159","lat":36.95886591151352,"lon":14.558086395263672,"name":"eni","brand":"Agip Eni","address":"Statale 115 dir Sud Occidentale Sicula, Km. 299, dir. vittoria comiso - 97019, VITTORIA, RG","prices":[{"type":"petrol","price":1.829,"self":true,"updatedAt":"30/06/2026 23:34:41"},{"type":"diesel","price":1.889,"self":true,"updatedAt":"30/06/2026 11:04:07"}]},{"id":"53826","lat":36.95616,"lon":14.53908,"name":"FORCONE","brand":"Lukoil","address":"FORCONE 126/A 97019, VITTORIA, RG","prices":[{"type":"petrol","price":1.809,"self":true,"updatedAt":"25/06/2026 17:44:38"},{"type":"diesel","price":1.899,"self":true,"updatedAt":"25/06/2026 17:44:38"}]},{"id":"14556","lat":36.958160797036,"lon":14.522681252778625,"name":"GEN CASCINO","brand":"Lukoil","address":"VIA GEN. CASCINO  97019, VITTORIA, RG","prices":[{"type":"petrol","price":1.779,"self":true,"updatedAt":"25/06/2026 17:43:20"},{"type":"diesel","price":1.854,"self":true,"updatedAt":"25/06/2026 17:43:20"}]},{"id":"14273","lat":36.94579882784587,"lon":14.532961221838946,"name":"GOITO","brand":"Pompe Bianche","address":"VIA GOITO 85 97019, VITTORIA, RG","prices":[{"type":"petrol","price":1.809,"self":true,"updatedAt":"29/06/2026 17:53:55"},{"type":"diesel","price":1.889,"self":true,"updatedAt":"29/06/2026 17:53:55"}]},{"id":"21076","lat":36.935827518503395,"lon":14.504560728836054,"name":"IMPIANTO VITTORIA","brand":"Pompe Bianche","address":"C.DA CICCHITTO SN 97019, VITTORIA, RG","prices":[{"type":"petrol","price":1.795,"self":true,"updatedAt":"26/06/2026 10:50:11"},{"type":"diesel","price":1.885,"self":true,"updatedAt":"26/06/2026 10:50:11"}]},{"id":"54959","lat":36.9550721,"lon":14.5459807,"name":"Lorefice Matteo","brand":"Esso","address":"CAVALIERI VITTORIO VENETO 45/A 97019, VITTORIA, RG","prices":[{"type":"petrol","price":1.819,"self":true,"updatedAt":"25/06/2026 12:10:26"},{"type":"diesel","price":1.919,"self":true,"updatedAt":"25/06/2026 12:10:26"}]},{"id":"14554","lat":36.950195737067645,"lon":14.523078203201294,"name":"NEGHELLI","brand":"Pompe Bianche","address":"VIA NEGHELLI  97019, VITTORIA, RG","prices":[{"type":"petrol","price":1.799,"self":true,"updatedAt":"29/06/2026 17:53:06"},{"type":"diesel","price":1.889,"self":true,"updatedAt":"29/06/2026 17:53:06"}]},{"id":"60482","lat":36.967277,"lon":14.5246819,"name":"NOBILE OIL (VITTORIA)","brand":"Q8","address":"S.P.2 VITTORIA/ACATE KM 0,825 sn 97019, VITTORIA, RG","prices":[{"type":"petrol","price":1.779,"self":true,"updatedAt":"30/06/2026 16:00:48"},{"type":"diesel","price":1.839,"self":true,"updatedAt":"30/06/2026 16:00:48"}]},{"id":"63371","lat":36.9500834,"lon":14.5230921,"name":"NOBILE OIL (VITTORIA)","brand":"Nobile Oil","address":"Via Neghelli 49  97019, VITTORIA, RG","prices":[{"type":"petrol","price":1.789,"self":true,"updatedAt":"30/06/2026 17:41:24"},{"type":"diesel","price":1.879,"self":true,"updatedAt":"30/06/2026 17:41:24"}]},{"id":"39585","lat":36.95202275860842,"lon":14.527702960364877,"name":"RG014","brand":"Q8","address":"VIA MILANO ANG. VIA COMO SN 97019, VITTORIA, RG","prices":[{"type":"petrol","price":1.789,"self":true,"updatedAt":"24/06/2026 10:45:07"},{"type":"diesel","price":1.869,"self":true,"updatedAt":"24/06/2026 10:45:07"}]},{"id":"12313","lat":36.98473700897946,"lon":14.514535879623395,"name":"SP VITTORIA-ACAT","brand":"Giap","address":"VIA SP VITTORIA-ACATE KM 2,978 SNC 97019, VITTORIA, RG","prices":[{"type":"petrol","price":1.778,"self":true,"updatedAt":"01/07/2026 06:00:47"},{"type":"diesel","price":1.838,"self":true,"updatedAt":"01/07/2026 06:00:47"}]},{"id":"18886","lat":36.93278116035046,"lon":14.519843459129333,"name":"SPINA CARBURANTI","brand":"Pompe Bianche","address":"Strada per santa croce camerino 107, 97019 107 97019, VITTORIA, RG","prices":[{"type":"petrol","price":1.769,"self":true,"updatedAt":"29/06/2026 19:38:20"},{"type":"diesel","price":1.879,"self":true,"updatedAt":"29/06/2026 19:38:20"}]},{"id":"7690","lat":36.96158022690632,"lon":14.512932355819657,"name":"SS 115 VITT-GELA","brand":"Esso","address":"Statale 115 Sud Occidentale Sicula, Km. 294-814, dir. Vittoria - 97019, VITTORIA, RG","prices":[{"type":"petrol","price":1.778,"self":true,"updatedAt":"01/07/2026 06:00:51"},{"type":"diesel","price":1.838,"self":true,"updatedAt":"01/07/2026 06:00:51"}]},{"id":"58643","lat":36.962622475918614,"lon":14.507568979401846,"name":"SS115","brand":"Lukoil","address":"115 KM 294 + 300  97019, VITTORIA, RG","prices":[{"type":"petrol","price":1.799,"self":true,"updatedAt":"30/06/2026 18:08:34"},{"type":"diesel","price":1.878,"self":true,"updatedAt":"30/06/2026 18:08:34"},{"type":"lpg","price":0.768,"self":false,"updatedAt":"30/06/2026 18:08:34"}]},{"id":"62534","lat":36.942055,"lon":14.5285236,"name":"Stazione di servizio RB Q8","brand":"Q8","address":"Via Giuseppe Garibaldi 449  97019, VITTORIA, RG","prices":[{"type":"petrol","price":1.799,"self":true,"updatedAt":"29/06/2026 18:00:01"},{"type":"diesel","price":1.899,"self":true,"updatedAt":"29/06/2026 18:00:01"}]},{"id":"12296","lat":36.944229102155646,"lon":14.528420396133129,"name":"V. ADUA VITTORIA","brand":"Giap","address":"VIA ADUA ANGOLO VIA LA MARMORA SNC 97019, VITTORIA, RG","prices":[{"type":"petrol","price":1.819,"self":true,"updatedAt":"01/07/2026 06:00:45"},{"type":"diesel","price":1.899,"self":true,"updatedAt":"01/07/2026 06:00:45"}]},{"id":"20504","lat":36.954472692008565,"lon":14.541258017049472,"name":"VIA GARIBALDI VITTORIA","brand":"Giap","address":"VIA GARIBALDI  97019, VITTORIA, RG","prices":[{"type":"petrol","price":1.819,"self":true,"updatedAt":"01/07/2026 06:00:49"},{"type":"diesel","price":1.899,"self":true,"updatedAt":"01/07/2026 06:00:49"}]},{"id":"12319","lat":36.94654235089755,"lon":14.503771974205051,"name":"VIA INCARDONA","brand":"Agip Eni","address":"VIA SALVATORE INCARDONA SNC 97019, VITTORIA, RG","prices":[{"type":"petrol","price":1.778,"self":true,"updatedAt":"01/07/2026 06:00:42"},{"type":"diesel","price":1.838,"self":true,"updatedAt":"01/07/2026 06:00:42"}]},{"id":"27717","lat":36.94949710803807,"lon":14.528854583610723,"name":"VIA ROMA","brand":"Pompe Bianche","address":"VIA ROMA ANGOLO VIA PISACANE SN 97019, VITTORIA, RG","prices":[{"type":"petrol","price":1.799,"self":true,"updatedAt":"30/06/2026 18:07:23"},{"type":"diesel","price":1.879,"self":true,"updatedAt":"30/06/2026 18:07:23"}]},{"id":"16791","lat":36.95657145495783,"lon":14.52635134907382,"name":"VITTORIA VIA G CASCINO","brand":"Q8","address":"VIA G CASCINO  97019, VITTORIA, RG","prices":[{"type":"petrol","price":1.769,"self":true,"updatedAt":"01/07/2026 01:43:31"},{"type":"diesel","price":1.829,"self":true,"updatedAt":"01/07/2026 01:43:31"}]}]