[{"id":"61386","lat":37.07837,"lon":14.26545,"name":"19510","brand":"Agip Eni","address":"STAT.117/BIS-KM.90+369 SN 93012, GELA, CL","prices":[{"type":"petrol","price":1.789,"self":true,"updatedAt":"25/06/2026 00:43:26"},{"type":"diesel","price":1.844,"self":true,"updatedAt":"26/06/2026 06:10:42"}]},{"id":"58700","lat":37.060608,"lon":14.25408,"name":"CARBURANTI PISANO CP","brand":"Pompe Bianche","address":"GENERALE CASCINO 254 93012, GELA, CL","prices":[{"type":"petrol","price":1.849,"self":true,"updatedAt":"23/06/2026 08:24:00"},{"type":"diesel","price":1.863,"self":true,"updatedAt":"23/06/2026 08:24:00"}]},{"id":"55824","lat":37.068466351027595,"lon":14.259178531786068,"name":"D'ARMA ALESSANDRO","brand":"Agip Eni","address":"NISCEMI 28 93012, GELA, CL","prices":[{"type":"petrol","price":1.789,"self":true,"updatedAt":"25/06/2026 23:27:32"},{"type":"diesel","price":1.854,"self":true,"updatedAt":"25/06/2026 23:27:32"}]},{"id":"53450","lat":37.06855009607853,"lon":14.25950288772583,"name":"D'ARMA CARBURANTI","brand":"Agip Eni","address":"VENEZIA C.DA GIARDINELLI S.N.C. 93012, GELA, CL","prices":[{"type":"petrol","price":1.829,"self":true,"updatedAt":"26/06/2026 00:12:20"},{"type":"diesel","price":1.899,"self":true,"updatedAt":"26/06/2026 06:38:04"}]},{"id":"62075","lat":37.06560943921419,"lon":14.257206916809041,"name":"DB CARBURANTI  GELA","brand":"DBCarburanti","address":"GENERALE CASCINO 170 93012, GELA, CL","prices":[{"type":"petrol","price":1.789,"self":true,"updatedAt":"25/06/2026 10:22:27"},{"type":"diesel","price":1.859,"self":true,"updatedAt":"25/06/2026 10:22:27"}]},{"id":"6036","lat":37.11681877503247,"lon":14.286751449108124,"name":"eni/agip","brand":"Agip Eni","address":"117 bis Centrale Sicula, Km. 85+625, gela-catania - 93012, GELA, CL","prices":[{"type":"petrol","price":1.96,"self":false,"updatedAt":"25/06/2026 00:44:27"},{"type":"diesel","price":1.944,"self":false,"updatedAt":"25/06/2026 00:44:27"},{"type":"lpg","price":0.884,"self":false,"updatedAt":"25/06/2026 00:44:27"}]},{"id":"59188","lat":37.0966308,"lon":14.2755398,"name":"EOS","brand":"EOS","address":"S.S. 117 BIS KM 89+645 SN 93012, GELA, CL","prices":[{"type":"petrol","price":1.829,"self":true,"updatedAt":"23/06/2026 08:24:50"},{"type":"diesel","price":1.959,"self":true,"updatedAt":"23/06/2026 08:24:50"}]},{"id":"58784","lat":37.080868826538534,"lon":14.265822419947831,"name":"ESSO","brand":"Esso","address":"SS117bis KM 90,050  93012, GELA, CL","prices":[{"type":"petrol","price":1.789,"self":true,"updatedAt":"24/06/2026 15:00:38"},{"type":"diesel","price":1.869,"self":true,"updatedAt":"24/06/2026 15:00:38"}]},{"id":"21237","lat":37.06585858301055,"lon":14.256559411639387,"name":"GELA VIA GENERALE CASCINO 160","brand":"Q8","address":"VIA GENERALE CASCINO 160 93012, GELA, CL","prices":[{"type":"petrol","price":1.809,"self":true,"updatedAt":"24/06/2026 17:40:05"},{"type":"diesel","price":1.879,"self":true,"updatedAt":"24/06/2026 17:40:05"}]},{"id":"33642","lat":37.06602511860521,"lon":14.255709772111459,"name":"LARGO POMPEI - GELA","brand":"Giap","address":"LARGO POMPEI  93012, GELA, CL","prices":[{"type":"petrol","price":1.809,"self":true,"updatedAt":"26/06/2026 05:58:02"},{"type":"diesel","price":1.879,"self":true,"updatedAt":"26/06/2026 05:58:02"}]},{"id":"4605","lat":37.06236495341149,"lon":14.273746758699417,"name":"MELFA'S","brand":"Esso","address":"STRADA STAT. 115 GELA-VITTORIA SNC 93012, GELA (CL)  93012, GELA, CL","prices":[{"type":"petrol","price":1.849,"self":true,"updatedAt":"25/06/2026 10:31:21"},{"type":"diesel","price":1.929,"self":true,"updatedAt":"25/06/2026 10:31:21"},{"type":"methane","price":1.499,"self":false,"updatedAt":"25/06/2026 10:31:21"}]},{"id":"63067","lat":37.0680965,"lon":14.2586899,"name":"VIA NISCEMI, 54","brand":"Esso","address":"Via Niscemi 54  93012, GELA, CL","prices":[{"type":"petrol","price":1.789,"self":true,"updatedAt":"26/06/2026 05:58:03"},{"type":"diesel","price":1.859,"self":true,"updatedAt":"26/06/2026 05:58:03"}]},{"id":"43416","lat":37.13374869166792,"lon":14.396112224536864,"name":"CO.ME.CO.","brand":"Pompe Bianche","address":"EX S.P.11 KM.0+980 LATO SX SN 93015, NISCEMI, CL","prices":[{"type":"petrol","price":1.825,"self":false,"updatedAt":"25/06/2026 08:45:17"},{"type":"diesel","price":1.915,"self":false,"updatedAt":"25/06/2026 08:45:17"},{"type":"lpg","price":0.815,"self":false,"updatedAt":"25/06/2026 08:45:17"}]},{"id":"58066","lat":37.1432235,"lon":14.3941125,"name":"ESSO","brand":"Esso","address":"Via Largo Spasimo 55 93015, NISCEMI, CL","prices":[{"type":"petrol","price":1.859,"self":true,"updatedAt":"23/06/2026 09:18:05"},{"type":"diesel","price":1.949,"self":true,"updatedAt":"23/06/2026 09:18:05"}]},{"id":"40376","lat":37.14636192277266,"lon":14.391184598207474,"name":"I.D.C. NISCEMI VIA SAMPERI ANG. PIRANDELLO","brand":"ACI_CL","address":"VIA SAMPERI ANG. VIA PIRANDELLO  93015, NISCEMI, CL","prices":[{"type":"petrol","price":1.829,"self":true,"updatedAt":"22/06/2026 13:32:23"},{"type":"diesel","price":1.939,"self":true,"updatedAt":"22/06/2026 13:32:23"}]},{"id":"44953","lat":37.14644319589391,"lon":14.393928334358634,"name":"IMPIANTO ENI","brand":"Agip Eni","address":"MARIO GORI SN 93015, NISCEMI, CL","prices":[{"type":"petrol","price":1.859,"self":true,"updatedAt":"25/06/2026 00:43:21"},{"type":"diesel","price":1.949,"self":true,"updatedAt":"25/06/2026 00:43:21"}]},{"id":"12015","lat":37.12634897726916,"lon":14.394078642852719,"name":"SP11 GELA-NISCEM","brand":"Giap","address":"S.P. 11 GELA-NISCEMI C.DA BANCO  93015, NISCEMI, CL","prices":[{"type":"petrol","price":1.859,"self":true,"updatedAt":"26/06/2026 05:58:01"},{"type":"diesel","price":1.949,"self":true,"updatedAt":"26/06/2026 05:58:01"}]},{"id":"54345","lat":37.1485194,"lon":14.3908418,"name":"TAMOIL","brand":"Tamoil","address":"Viale Mario Gori 141 14 93015, NISCEMI, CL","prices":[{"type":"petrol","price":1.829,"self":true,"updatedAt":"25/06/2026 01:05:45"},{"type":"diesel","price":1.929,"self":true,"updatedAt":"25/06/2026 01:05:45"}]},{"id":"42829","lat":37.15556969435281,"lon":14.40587043762207,"name":"vp petroli","brand":"Pompe Bianche","address":"PILACANE SNC 93015, NISCEMI, CL","prices":[{"type":"petrol","price":1.878,"self":true,"updatedAt":"19/06/2026 21:03:58"},{"type":"diesel","price":1.929,"self":true,"updatedAt":"19/06/2026 21:03:59"},{"type":"lpg","price":0.839,"self":false,"updatedAt":"19/06/2026 21:03:59"}]},{"id":"43760","lat":37.0206632830503,"lon":14.495449069940605,"name":"Gianninoto antonino","brand":"Pompe Bianche","address":"XX SETTEMBRE EX SP ACATE-V SNC 97011, ACATE, RG","prices":[{"type":"petrol","price":1.789,"self":true,"updatedAt":"25/06/2026 22:02:00"},{"type":"diesel","price":1.889,"self":true,"updatedAt":"25/06/2026 22:02:01"}]},{"id":"27369","lat":37.02346377261611,"lon":14.485264420509338,"name":"IACONO ANDREA","brand":"Pompe Bianche","address":"S.P. N. 1 ACATE-DIRILLO S.N. 97011, ACATE, RG","prices":[{"type":"petrol","price":1.819,"self":true,"updatedAt":"25/06/2026 20:00:51"},{"type":"diesel","price":1.919,"self":true,"updatedAt":"25/06/2026 20:00:51"}]}]