[{"id":"24624","lat":37.28794694731108,"lon":14.376818775463125,"name":"VIA MARIO STURZO CALTAGIRONE","brand":"Q8","address":"VIA MONS. MARIO STURZO SN 95127, CALTAGIRONE, CT","prices":[{"type":"petrol","price":1.798,"self":true,"updatedAt":"27/06/2026 05:58:11"},{"type":"diesel","price":1.878,"self":true,"updatedAt":"27/06/2026 05:58:11"}]},{"id":"60167","lat":37.3275398,"lon":14.4470129,"name":"Q8 MIRABELLA IMBACCARI","brand":"Q8","address":"IV NOVEMBRE 1 95040, MIRABELLA IMBACCARI, CT","prices":[{"type":"petrol","price":1.859,"self":true,"updatedAt":"24/06/2026 12:54:11"},{"type":"diesel","price":1.949,"self":true,"updatedAt":"24/06/2026 12:54:11"}]},{"id":"15871","lat":37.279684648549875,"lon":14.430011263229403,"name":"EASYSTATOIL","brand":"Esso","address":"Statale 124 Siracusana, Km. 4+200, dir. Caltagirone - 95040, SAN MICHELE DI GANZARIA, CT","prices":[{"type":"petrol","price":1.859,"self":true,"updatedAt":"28/06/2026 19:00:05"},{"type":"diesel","price":1.929,"self":true,"updatedAt":"28/06/2026 19:00:05"}]},{"id":"55377","lat":37.41285,"lon":14.446624,"name":"A.DI BENEDETTO SRL - AIDONE marchio SICILPETROLI","brand":"Sicilpetroli","address":"Via Marconi Sn 94010, AIDONE, EN","prices":[{"type":"petrol","price":1.829,"self":true,"updatedAt":"29/06/2026 00:27:52"},{"type":"diesel","price":1.919,"self":true,"updatedAt":"29/06/2026 00:27:52"}]},{"id":"23768","lat":37.382974458585366,"lon":14.370163455605507,"name":"DBS Servizi Petroliferi srl Piazza Armerina","brand":"Sicilpetroli","address":"PIAZZA PIAZZA ALCIDE DE GASPERI SN 94015, PIAZZA ARMERINA (EN) SN 94015, PIAZZA ARMERINA, EN","prices":[{"type":"petrol","price":1.829,"self":true,"updatedAt":"29/06/2026 00:42:45"},{"type":"diesel","price":1.919,"self":true,"updatedAt":"29/06/2026 00:42:45"}]},{"id":"17570","lat":37.38938461665013,"lon":14.372195556483462,"name":"ESSO CIMAENZA SAS DI GRECO MASSIMO","brand":"Esso","address":"VIA GENERALE CIANCIO 41 94015, PIAZZA ARMERINA, EN","prices":[{"type":"petrol","price":1.969,"self":true,"updatedAt":"06/05/2026 10:33:36"},{"type":"diesel","price":2.049,"self":true,"updatedAt":"06/05/2026 10:33:36"}]},{"id":"61539","lat":37.3919129,"lon":14.3722435,"name":"IB10- IBLEA PETROLI -piazza Armerina","brand":"Iblea Petroli","address":"Via Generale Gaeta 28 94015, PIAZZA ARMERINA, EN","prices":[{"type":"petrol","price":1.809,"self":true,"updatedAt":"28/06/2026 01:23:33"},{"type":"diesel","price":1.899,"self":true,"updatedAt":"28/06/2026 01:23:33"}]},{"id":"23686","lat":37.387458257202795,"lon":14.3691935220902,"name":"PIAZZA ARMERINA VIA CHIARANDA', 93","brand":"Q8","address":"VIA CHIARANDA' 93 94015, PIAZZA ARMERINA, EN","prices":[{"type":"petrol","price":1.809,"self":true,"updatedAt":"26/06/2026 16:08:18"},{"type":"diesel","price":1.899,"self":true,"updatedAt":"26/06/2026 16:08:18"}]},{"id":"17642","lat":37.39103320967382,"lon":14.3718820810318,"name":"Self Area Eni di Maenza antonino","brand":"Agip Eni","address":"PIAZZA SENATORE MARESCALCHI  94015, PIAZZA ARMERINA, EN","prices":[{"type":"petrol","price":1.824,"self":true,"updatedAt":"28/06/2026 23:23:37"},{"type":"diesel","price":1.884,"self":true,"updatedAt":"29/06/2026 06:44:11"}]},{"id":"56804","lat":37.3819929,"lon":14.3675644,"name":"SELF AREA ENI MARCO ARONICA","brand":"Agip Eni","address":"ALESSANDRO MANZONI SNC 94015, PIAZZA ARMERINA, EN","prices":[{"type":"petrol","price":1.824,"self":true,"updatedAt":"28/06/2026 23:27:07"},{"type":"diesel","price":1.894,"self":true,"updatedAt":"28/06/2026 19:50:06"}]},{"id":"38355","lat":37.49810378678029,"lon":14.391907333868403,"name":"Area di Servizio BIUSO","brand":"SP Energia Siciliana","address":"VIA MARTIRI D'UNGHERIA 18 94019, VALGUARNERA CAROPEPE, EN","prices":[{"type":"petrol","price":1.879,"self":true,"updatedAt":"28/06/2026 12:30:05"},{"type":"diesel","price":1.969,"self":true,"updatedAt":"28/06/2026 12:30:05"}]},{"id":"33173","lat":37.49668511295035,"lon":14.393583834171295,"name":"DISTRIBUTORE ESSO","brand":"Esso","address":"VIA RADDUSA S.N. 94019, VALGUARNERA CAROPEPE, EN","prices":[{"type":"petrol","price":1.899,"self":true,"updatedAt":"27/06/2026 10:17:38"},{"type":"diesel","price":1.999,"self":true,"updatedAt":"27/06/2026 10:17:38"}]}]