[{"id":"22462","lat":37.49488860509129,"lon":15.09107619524002,"name":"AREA SERVIZIO SEPA MOLO CATANIA","brand":"SEPA","address":"MOLO FRANCESCO CRISPI (PORTO DI CATANIA)  95121, CATANIA, CT","prices":[{"type":"petrol","price":1.959,"self":false,"updatedAt":"19/06/2026 12:55:53"},{"type":"diesel","price":1.999,"self":false,"updatedAt":"19/06/2026 12:55:53"}]},{"id":"6775","lat":37.46118546764084,"lon":15.035355895770294,"name":"CATANIA ASSE DEI SERVIZI TANG.OVEST 5+550K","brand":"Q8","address":"ASSE DEI SERVIZI  TANG.OVEST 5+550K SNC 95100, CATANIA, CT","prices":[{"type":"petrol","price":1.839,"self":true,"updatedAt":"20/06/2026 08:17:11"},{"type":"diesel","price":1.939,"self":true,"updatedAt":"20/06/2026 08:17:11"}]},{"id":"28738","lat":37.470758181500116,"lon":15.075754076242447,"name":"CHIARAL S.R.L.","brand":"Api-Ip","address":"S. GIUSEPPE LA RENA SNC 95100, CATANIA, CT","prices":[{"type":"petrol","price":1.869,"self":true,"updatedAt":"17/06/2026 09:47:56"},{"type":"diesel","price":1.979,"self":true,"updatedAt":"17/06/2026 09:47:56"},{"type":"methane","price":1.669,"self":false,"updatedAt":"17/06/2026 09:47:56"}]},{"id":"54972","lat":37.42215010871417,"lon":15.065023000000002,"name":"CT VILLALLEGRA","brand":"Esso","address":"VILLALLEGRA SS KM 114 SNC 95129, CATANIA, CT","prices":[{"type":"petrol","price":1.899,"self":true,"updatedAt":"11/06/2026 23:38:18"},{"type":"diesel","price":1.999,"self":true,"updatedAt":"11/06/2026 17:32:20"}]},{"id":"56503","lat":37.488636821524814,"lon":15.064877933939595,"name":"ct062","brand":"EOS","address":"G. DA VERRAZZANO SN 95121, CATANIA, CT","prices":[{"type":"petrol","price":1.819,"self":true,"updatedAt":"19/06/2026 11:33:07"},{"type":"diesel","price":1.929,"self":true,"updatedAt":"19/06/2026 11:33:07"}]},{"id":"50523","lat":37.444146782112206,"lon":15.06569385528564,"name":"CT111","brand":"Q8","address":"Via Comunale 21 95121, CATANIA, CT","prices":[{"type":"petrol","price":1.899,"self":true,"updatedAt":"17/06/2026 11:00:06"},{"type":"diesel","price":1.949,"self":true,"updatedAt":"22/06/2026 11:36:14"},{"type":"lpg","price":0.789,"self":true,"updatedAt":"17/06/2026 11:00:06"}]},{"id":"35220","lat":37.48863645304657,"lon":15.082920856552846,"name":"ENI Faro Biscari","brand":"Agip Eni","address":"via acquicella porto 5 95121, CATANIA, CT","prices":[{"type":"petrol","price":1.829,"self":true,"updatedAt":"23/06/2026 06:32:09"},{"type":"diesel","price":1.919,"self":true,"updatedAt":"23/06/2026 06:32:09"},{"type":"lpg","price":0.832,"self":false,"updatedAt":"22/06/2026 00:07:32"}]},{"id":"60533","lat":37.4732554,"lon":15.0564579,"name":"ENI MC CARBURANTI","brand":"Agip Eni","address":"Via Gelso Bianco 8 95121, CATANIA, CT","prices":[{"type":"petrol","price":1.829,"self":true,"updatedAt":"22/06/2026 07:16:09"},{"type":"diesel","price":1.919,"self":true,"updatedAt":"22/06/2026 07:16:09"}]},{"id":"38812","lat":37.486664331852054,"lon":15.079631364417992,"name":"ESSO Via San Giuseppe alla Rena","brand":"Esso","address":"Via San Giuseppe alla Rena 26 95121, CATANIA, CT","prices":[{"type":"petrol","price":1.869,"self":true,"updatedAt":"23/06/2026 05:58:36"},{"type":"diesel","price":1.999,"self":true,"updatedAt":"23/06/2026 05:58:36"}]},{"id":"53189","lat":37.47193006159855,"lon":15.055657625198364,"name":"EUROIL ASSE DEI SERVIZI","brand":"Lukoil","address":"SP 70 ASSE DEI SERVIZI KM2+08 SNC 95121, CATANIA, CT","prices":[{"type":"petrol","price":1.819,"self":true,"updatedAt":"22/06/2026 13:03:50"},{"type":"diesel","price":1.899,"self":true,"updatedAt":"22/06/2026 13:03:50"},{"type":"lpg","price":0.799,"self":false,"updatedAt":"22/06/2026 13:03:50"}]},{"id":"60343","lat":37.484082972857905,"lon":15.079397930059448,"name":"IP","brand":"Api-Ip","address":"Via Priolo Sopraelevata 1207 95121, CATANIA, CT","prices":[{"type":"petrol","price":1.829,"self":true,"updatedAt":"22/06/2026 21:04:05"},{"type":"diesel","price":1.929,"self":true,"updatedAt":"22/06/2026 21:04:05"},{"type":"lpg","price":0.799,"self":false,"updatedAt":"22/06/2026 00:04:08"}]},{"id":"41527","lat":37.48971806411623,"lon":15.086121093254064,"name":"LA ROSA ANTONINO","brand":"SP Energia Siciliana","address":"VIA DOMENICO TEMPIO 62 95121, CATANIA, CT","prices":[{"type":"petrol","price":1.979,"self":false,"updatedAt":"18/06/2026 15:18:22"},{"type":"diesel","price":2.059,"self":false,"updatedAt":"18/06/2026 15:18:22"}]},{"id":"60858","lat":37.4609303,"lon":15.0366566,"name":"LA VELA S.R.L.","brand":"Q8","address":"ASSE DEI SERVIZI S.P.55BICOCCA S.N.C. 95121, CATANIA, CT","prices":[{"type":"petrol","price":1.839,"self":true,"updatedAt":"20/06/2026 07:46:27"},{"type":"diesel","price":1.939,"self":true,"updatedAt":"20/06/2026 07:46:27"}]},{"id":"49272","lat":37.48790401530444,"lon":15.068049221731217,"name":"madonna","brand":"Esso","address":"VIA MADONNA DEL DIVINO AMORE SNC 95121, CATANIA, CT","prices":[{"type":"petrol","price":1.819,"self":true,"updatedAt":"22/06/2026 11:31:52"},{"type":"diesel","price":1.929,"self":true,"updatedAt":"22/06/2026 11:31:52"}]},{"id":"38772","lat":37.468764559428614,"lon":15.045057535171509,"name":"nex","brand":"Pompe Bianche","address":"bretella tra s.s.192 es.p.55 sn 95126, CATANIA, CT","prices":[{"type":"petrol","price":1.849,"self":true,"updatedAt":"22/06/2026 09:25:53"},{"type":"diesel","price":1.949,"self":true,"updatedAt":"22/06/2026 09:25:53"}]},{"id":"60844","lat":37.47053253126998,"lon":15.05299687385559,"name":"PETROL COMPANY  CATANIA ASSE DEI SERVIZI","brand":"Petrol Company","address":"ASSE DEI SERVIZI KM. 2+392 SN 95121, CATANIA, CT","prices":[{"type":"petrol","price":1.799,"self":true,"updatedAt":"22/06/2026 14:44:06"},{"type":"diesel","price":1.899,"self":true,"updatedAt":"22/06/2026 14:44:06"}]},{"id":"58070","lat":37.469442,"lon":15.083446,"name":"PETROLIUM Viale Presidente Kennedy","brand":"PETROLIUM","address":"PRESIDENTE KENNEDY 50 95121, CATANIA, CT","prices":[{"type":"petrol","price":1.839,"self":true,"updatedAt":"19/06/2026 16:16:13"},{"type":"diesel","price":1.939,"self":true,"updatedAt":"19/06/2026 16:16:13"}]},{"id":"46594","lat":37.49740527827205,"lon":15.074268719552265,"name":"Q8","brand":"Q8","address":"via  Poulet 42 95121, CATANIA, CT","prices":[{"type":"petrol","price":2.019,"self":false,"updatedAt":"23/06/2026 07:33:38"},{"type":"diesel","price":2.059,"self":false,"updatedAt":"23/06/2026 07:33:38"}]},{"id":"57037","lat":37.4705256,"lon":15.0716,"name":"Q8 zia lisa","brand":"Q8","address":"Via Zia Lisa  95121, CATANIA, CT","prices":[{"type":"petrol","price":1.899,"self":true,"updatedAt":"17/06/2026 09:19:02"},{"type":"diesel","price":1.999,"self":true,"updatedAt":"17/06/2026 09:19:02"}]},{"id":"55615","lat":37.43363379923945,"lon":15.065390041422345,"name":"SEPA PRIMOSOLE","brand":"SEPA","address":"SS114 PRIMOSOLE  95121, CATANIA, CT","prices":[{"type":"petrol","price":1.839,"self":true,"updatedAt":"22/06/2026 16:55:08"},{"type":"diesel","price":1.939,"self":true,"updatedAt":"22/06/2026 16:55:08"}]},{"id":"15217","lat":37.444706632197274,"lon":15.073789084423879,"name":"SP Energia Siciliana","brand":"SP Energia Siciliana","address":"strada provinciale 53 viale kennedy, 94/96, CATANIA, CT","prices":[{"type":"petrol","price":1.819,"self":true,"updatedAt":"22/06/2026 22:12:25"},{"type":"diesel","price":1.919,"self":true,"updatedAt":"22/06/2026 22:12:25"}]},{"id":"55027","lat":37.48670573945169,"lon":15.0837965189102,"name":"STAZIONE ENIcafé di Tabuso Grazia","brand":"Agip Eni","address":"KENNEDY 4 95121, CATANIA, CT","prices":[{"type":"petrol","price":1.824,"self":true,"updatedAt":"22/06/2026 07:22:03"},{"type":"diesel","price":1.914,"self":true,"updatedAt":"22/06/2026 07:22:03"}]},{"id":"63231","lat":37.4194617,"lon":15.0647736,"name":"TOIL334 - VILLALLEGRA","brand":"Esso","address":"SS 114 Orientale Sicula KM 107,730 95121, CATANIA, CT","prices":[{"type":"petrol","price":1.829,"self":true,"updatedAt":"23/06/2026 00:08:34"},{"type":"diesel","price":1.919,"self":true,"updatedAt":"23/06/2026 00:08:34"}]},{"id":"63276","lat":37.4977136,"lon":15.0628528,"name":"TOIL354 - VIA PALERMO (CT(","brand":"Esso","address":"Via Palermo 242  95122, CATANIA, CT","prices":[{"type":"petrol","price":1.839,"self":true,"updatedAt":"22/06/2026 12:42:59"},{"type":"diesel","price":1.939,"self":true,"updatedAt":"22/06/2026 12:42:59"}]},{"id":"63280","lat":37.4881726,"lon":15.0690875,"name":"TOIL358 - MADONNA DEL DIVINO AMORE (CT)","brand":"Esso","address":"Via Madonna del Divino Amore SN 95121, CATANIA, CT","prices":[{"type":"petrol","price":1.819,"self":true,"updatedAt":"22/06/2026 12:46:42"},{"type":"diesel","price":1.929,"self":true,"updatedAt":"22/06/2026 12:46:42"}]},{"id":"50621","lat":37.459426730074426,"lon":15.000408887863154,"name":"2G - DUEGGI S.R.L","brand":"Pompe Bianche","address":"417 CT-GELA KM 69+553 SN 95045, MISTERBIANCO, CT","prices":[{"type":"petrol","price":1.847,"self":true,"updatedAt":"22/06/2026 15:06:49"},{"type":"diesel","price":1.897,"self":true,"updatedAt":"22/06/2026 15:06:49"}]},{"id":"62797","lat":37.477318850383064,"lon":15.014439760513323,"name":"AREA DI SERVIZIO ESSO TANGENZIALE","brand":"Esso","address":"Tangenziale di Catania KM 13+975 95045, MISTERBIANCO, CT","prices":[{"type":"petrol","price":1.839,"self":true,"updatedAt":"22/06/2026 15:04:00"},{"type":"diesel","price":1.939,"self":true,"updatedAt":"22/06/2026 15:04:00"},{"type":"lpg","price":0.799,"self":false,"updatedAt":"22/06/2026 15:04:00"}]},{"id":"59341","lat":37.48027789002516,"lon":15.012475732540906,"name":"ENI TANGENZIALE","brand":"Agip Eni","address":"TANG. OVEST CATANIA KM 10+150 SNC 95045, MISTERBIANCO, CT","prices":[{"type":"petrol","price":1.965,"self":true,"updatedAt":"22/06/2026 00:16:54"},{"type":"diesel","price":2.064,"self":true,"updatedAt":"22/06/2026 00:16:54"},{"type":"methane","price":1.539,"self":false,"updatedAt":"22/06/2026 00:16:54"}]},{"id":"62703","lat":37.46207484436879,"lon":15.007886247700071,"name":"GELSOBIANCO NORD","brand":"Q8","address":"A19 PALERMO-CATANIA, Km. 188.6, Palermo - 95045, MISTERBIANCO, CT","prices":[{"type":"diesel","price":1.879,"self":true,"updatedAt":"22/06/2026 16:53:56"}]},{"id":"45534","lat":37.46207484436879,"lon":15.007886247700071,"name":"GELSOBIANCO NORD","brand":"Q8","address":"A19 PALERMO-CATANIA, Km. 188.6, Palermo - 95045, MISTERBIANCO, CT","prices":[{"type":"petrol","price":1.878,"self":true,"updatedAt":"22/06/2026 16:53:35"},{"type":"diesel","price":1.949,"self":true,"updatedAt":"22/06/2026 16:53:35"},{"type":"lpg","price":0.769,"self":false,"updatedAt":"22/06/2026 16:53:35"}]},{"id":"62704","lat":37.46170922045758,"lon":15.008741304606247,"name":"GELSOBIANCO SUD","brand":"Q8","address":"A19 PALERMO-CATANIA, Km. 188.6, Catania - 95045, MISTERBIANCO, CT","prices":[{"type":"diesel","price":1.899,"self":true,"updatedAt":"19/06/2026 13:04:20"}]},{"id":"45535","lat":37.46170922045758,"lon":15.008741304606247,"name":"GELSOBIANCO SUD","brand":"Q8","address":"A19 PALERMO-CATANIA, Km. 188.6, Catania - 95045, MISTERBIANCO, CT","prices":[{"type":"petrol","price":1.878,"self":true,"updatedAt":"22/06/2026 16:37:57"},{"type":"diesel","price":1.949,"self":true,"updatedAt":"22/06/2026 16:37:57"},{"type":"lpg","price":0.769,"self":false,"updatedAt":"22/06/2026 16:37:57"}]},{"id":"61132","lat":37.25021508118982,"lon":15.215173668004574,"name":"108192 AUGUSTA","brand":"Esso","address":"CONTRADA COZZO FILONERO SNC 96011, AUGUSTA, SR","prices":[{"type":"petrol","price":1.888,"self":true,"updatedAt":"09/06/2026 15:58:20"},{"type":"diesel","price":2.029,"self":true,"updatedAt":"09/06/2026 15:58:20"}]},{"id":"22373","lat":37.250161163152455,"lon":15.22124531045074,"name":"AUGUSTA JUNGI","brand":"Q8","address":"JUNGI  96011, AUGUSTA, SR","prices":[{"type":"petrol","price":1.824,"self":true,"updatedAt":"19/06/2026 10:46:27"},{"type":"diesel","price":1.914,"self":true,"updatedAt":"19/06/2026 10:46:27"}]},{"id":"9375","lat":37.30386607527438,"lon":15.118611752986908,"name":"Esso Costa Saracena","brand":"Esso","address":"Statale 114 Orientale Sicula, Km. 123.200, dir. Siracusa - 96011, AUGUSTA, SR","prices":[{"type":"petrol","price":1.869,"self":true,"updatedAt":"22/06/2026 07:46:08"},{"type":"diesel","price":1.979,"self":true,"updatedAt":"22/06/2026 07:46:08"}]},{"id":"56422","lat":37.25005021871007,"lon":15.220254063606262,"name":"fuel service fontana di coppola dario","brand":"Agip Eni","address":"FONTANA SNC 96011, AUGUSTA, SR","prices":[{"type":"petrol","price":1.829,"self":true,"updatedAt":"23/06/2026 00:39:37"},{"type":"diesel","price":1.919,"self":true,"updatedAt":"23/06/2026 00:39:37"}]},{"id":"37704","lat":37.280513704950245,"lon":15.188437057694841,"name":"Lauretta Santina","brand":"Pompe Bianche","address":"AUGUSTA - BRUCOLI snc 96011, AUGUSTA, SR","prices":[{"type":"petrol","price":1.839,"self":true,"updatedAt":"22/06/2026 09:51:14"},{"type":"diesel","price":1.919,"self":true,"updatedAt":"22/06/2026 09:51:14"}]},{"id":"30642","lat":37.25131329910987,"lon":15.204970836639404,"name":"S.P. AUGUSTA-VILLASMUNDO","brand":"Giap","address":"S.P. AUGUSTA-VILLASMUNDO  96011, AUGUSTA, SR","prices":[{"type":"petrol","price":1.818,"self":true,"updatedAt":"23/06/2026 06:01:12"},{"type":"diesel","price":1.908,"self":true,"updatedAt":"23/06/2026 06:01:12"}]},{"id":"63269","lat":37.2509539,"lon":15.2088649,"name":"TOIL337 - AUGUSTA","brand":"Esso","address":"Contrada Cozzo delle Forche  96011, AUGUSTA, SR","prices":[{"type":"petrol","price":1.819,"self":true,"updatedAt":"22/06/2026 12:38:26"},{"type":"diesel","price":1.919,"self":true,"updatedAt":"22/06/2026 12:38:26"}]},{"id":"53372","lat":37.3023,"lon":15.00243,"name":"ENI","brand":"Agip Eni","address":"ETNEA 268 96013, CARLENTINI, SR","prices":[{"type":"petrol","price":1.829,"self":true,"updatedAt":"22/06/2026 17:08:07"},{"type":"diesel","price":1.919,"self":true,"updatedAt":"22/06/2026 17:08:07"},{"type":"lpg","price":0.802,"self":false,"updatedAt":"22/06/2026 23:22:09"}]},{"id":"26222","lat":37.29956408074943,"lon":15.002244738623062,"name":"ESSO - CARLENTINI (SR)","brand":"Esso","address":"VIA ETNEA 250 96013, CARLENTINI, SR","prices":[{"type":"petrol","price":1.859,"self":true,"updatedAt":"19/06/2026 19:37:51"},{"type":"diesel","price":1.949,"self":true,"updatedAt":"19/06/2026 19:37:51"}]},{"id":"62867","lat":37.3081961,"lon":15.0029618,"name":"FEDERICA BOSCO","brand":"Q8","address":"SS194, CARLENTINI, SR","prices":[{"type":"petrol","price":1.849,"self":true,"updatedAt":"18/06/2026 17:24:01"},{"type":"diesel","price":1.959,"self":true,"updatedAt":"18/06/2026 17:24:01"}]},{"id":"59042","lat":37.31412,"lon":15.00818,"name":"IP CARLENTINI di LATINA LUCIANO & C.","brand":"Api-Ip","address":"PIRAINO S.S. 194, KM 12+194 SNC 96013, CARLENTINI, SR","prices":[{"type":"petrol","price":1.849,"self":true,"updatedAt":"23/06/2026 00:00:31"},{"type":"diesel","price":1.949,"self":true,"updatedAt":"23/06/2026 00:00:31"},{"type":"lpg","price":0.799,"self":false,"updatedAt":"23/06/2026 00:00:31"}]},{"id":"10631","lat":37.29306560943552,"lon":15.001085322753852,"name":"Q8 DI BOSCO DANIELE","brand":"Q8","address":"ETNEA 26/C 96013, CARLENTINI, SR","prices":[{"type":"petrol","price":1.854,"self":true,"updatedAt":"22/06/2026 11:08:12"},{"type":"diesel","price":1.954,"self":true,"updatedAt":"22/06/2026 11:08:12"}]},{"id":"38997","lat":37.34039366800999,"lon":15.041077136993408,"name":"San Demetrio Ovest","brand":"Api-Ip","address":"Autostrada   Catania - Siracusa,  Km. 10,250, dir. OVEST 96013, CARLENTINI, SR","prices":[{"type":"petrol","price":1.899,"self":true,"updatedAt":"22/06/2026 17:16:01"},{"type":"diesel","price":1.979,"self":true,"updatedAt":"22/06/2026 17:16:00"},{"type":"lpg","price":0.891,"self":false,"updatedAt":"22/06/2026 17:16:01"}]},{"id":"41590","lat":37.289787790739986,"lon":15.014938969415653,"name":"SR042","brand":"Q8","address":"VIA ESCHILO SN 96013, CARLENTINI, SR","prices":[{"type":"petrol","price":1.849,"self":true,"updatedAt":"19/06/2026 12:27:06"},{"type":"diesel","price":1.939,"self":true,"updatedAt":"19/06/2026 12:27:06"}]},{"id":"40142","lat":37.26583698893347,"lon":15.010906308889389,"name":"VIA SCAVONETTI - CARLENTINI","brand":"Giap","address":"VIA SCAVONETTI 20 96013, CARLENTINI, SR","prices":[{"type":"petrol","price":1.828,"self":true,"updatedAt":"23/06/2026 06:01:13"},{"type":"diesel","price":1.918,"self":true,"updatedAt":"23/06/2026 06:01:13"}]},{"id":"18147","lat":37.2881838689945,"lon":15.001726504629687,"name":"ENI","brand":"Agip Eni","address":"VIA MERCADANTE 86 86 96016, LENTINI (SR)  96016, LENTINI, SR","prices":[{"type":"petrol","price":1.829,"self":true,"updatedAt":"23/06/2026 07:20:08"},{"type":"diesel","price":1.919,"self":true,"updatedAt":"23/06/2026 07:20:08"}]},{"id":"60064","lat":37.26374313568955,"lon":15.142046213150024,"name":"ECO ENERGY \"MELILLI SP3\"","brand":"Pompe Bianche","address":"PROVINCIALE SP3 KM7 S.N. 96010, MELILLI, SR","prices":[{"type":"petrol","price":1.847,"self":true,"updatedAt":"23/06/2026 00:25:23"},{"type":"diesel","price":1.947,"self":true,"updatedAt":"23/06/2026 00:25:23"},{"type":"lpg","price":0.827,"self":true,"updatedAt":"23/06/2026 00:25:23"}]},{"id":"43059","lat":37.25381548519922,"lon":15.097351977615707,"name":"IP DI GIFI DI RAPISARDA GAETANO &C SAS","brand":"Api-Ip","address":"Sp Augusta-villasmundo via gerolamo savonarola  59 96010, MELILLI, SR","prices":[{"type":"petrol","price":1.909,"self":true,"updatedAt":"22/06/2026 07:01:40"},{"type":"diesel","price":2.039,"self":true,"updatedAt":"22/06/2026 07:01:40"},{"type":"lpg","price":0.829,"self":false,"updatedAt":"22/06/2026 07:01:40"}]},{"id":"12282","lat":37.252479938891426,"lon":15.094002507934533,"name":"VIA SAVONAROLA V","brand":"Giap","address":"VIA SAVONAROLA  96010, MELILLI, SR","prices":[{"type":"petrol","price":1.845,"self":true,"updatedAt":"23/06/2026 06:01:10"},{"type":"diesel","price":1.945,"self":true,"updatedAt":"23/06/2026 06:01:10"}]}]