[{"id":"58589","lat":37.50656,"lon":14.080456,"name":"19501 CALTANISSETTA","brand":"Agip Eni","address":"Via di Santo Spirito 98  93100, CALTANISSETTA, CL","prices":[{"type":"petrol","price":1.829,"self":true,"updatedAt":"22/06/2026 00:17:51"},{"type":"diesel","price":1.919,"self":true,"updatedAt":"22/06/2026 00:17:51"}]},{"id":"49644","lat":37.50781391316337,"lon":14.069070816040034,"name":"CL013","brand":"Q8","address":"Via Nuova Circonvallazione  93100, CALTANISSETTA, CL","prices":[{"type":"petrol","price":1.789,"self":true,"updatedAt":"19/06/2026 16:12:06"},{"type":"diesel","price":1.899,"self":true,"updatedAt":"19/06/2026 16:12:06"},{"type":"lpg","price":0.839,"self":true,"updatedAt":"19/06/2026 06:27:05"}]},{"id":"54000","lat":37.50660784662971,"lon":14.080108413786903,"name":"DB Carburanti Caltanissetta Via Xiboli","brand":"DBCarburanti","address":"XIBOLI SNC 93100, CALTANISSETTA, CL","prices":[{"type":"petrol","price":1.799,"self":true,"updatedAt":"19/06/2026 08:32:17"},{"type":"diesel","price":1.899,"self":true,"updatedAt":"19/06/2026 08:32:17"}]},{"id":"55522","lat":37.53043788833007,"lon":14.08121109008789,"name":"ESSO SEAR IDROCARBURI SRL","brand":"Esso","address":"640 KM 67+910 SNC 93100, CALTANISSETTA, CL","prices":[{"type":"petrol","price":1.989,"self":true,"updatedAt":"16/06/2026 12:29:01"},{"type":"diesel","price":1.996,"self":true,"updatedAt":"16/06/2026 12:29:01"}]},{"id":"59581","lat":37.645241,"lon":14.067909,"name":"Agrimetano Pottino","brand":"Pompe Bianche","address":"CIOLINO SNC 93010, RESUTTANO, CL","prices":[{"type":"methane","price":1,"self":false,"updatedAt":"15/06/2026 11:09:52"}]},{"id":"23708","lat":37.678688105534135,"lon":14.027048588954926,"name":"C.SO CASTELNUOVO RESUTTANO","brand":"Giap","address":"C.SO CASTELNUOVO  93010, RESUTTANO, CL","prices":[{"type":"petrol","price":1.869,"self":true,"updatedAt":"20/06/2026 05:57:56"},{"type":"diesel","price":1.969,"self":true,"updatedAt":"20/06/2026 05:57:56"}]},{"id":"49056","lat":37.590159253165766,"lon":14.040936025433295,"name":"STAZIONE DI SERVIZIO ENI PICCOLO ENRICO LIBORIO","brand":"Agip Eni","address":"121 Catanese, Km. 0, 0 - 93018, SANTA CATERINA VILLARMOSA, CL","prices":[{"type":"petrol","price":1.829,"self":true,"updatedAt":"22/06/2026 00:36:11"},{"type":"diesel","price":1.919,"self":true,"updatedAt":"22/06/2026 00:36:11"}]},{"id":"32583","lat":37.58591062882468,"lon":14.177119508385658,"name":"esso","brand":"Esso","address":"Statale 121 Catanese, Km. 0-200, dir. palermo - 94010, VILLAROSA, EN","prices":[{"type":"petrol","price":1.949,"self":true,"updatedAt":"19/06/2026 10:20:39"},{"type":"diesel","price":2.079,"self":true,"updatedAt":"19/06/2026 10:20:39"}]},{"id":"30670","lat":37.58735653167389,"lon":14.167446792125702,"name":"IDC Villarosa - Via Garibaldi","brand":"Esso","address":"GARIBALDI SN 94010, VILLAROSA, EN","prices":[{"type":"petrol","price":1.929,"self":true,"updatedAt":"19/06/2026 12:14:48"},{"type":"diesel","price":2.039,"self":true,"updatedAt":"19/06/2026 12:14:48"}]},{"id":"51825","lat":37.69282000951342,"lon":14.114067631499058,"name":"Sicilpetroli Piazza Giovanni XXIII - Alimena (PA)","brand":"Sicilpetroli","address":"PIAZZA GIOVANNI XXIII SN 90020, ALIMENA (PA) sn 90020, ALIMENA, PA","prices":[{"type":"petrol","price":1.899,"self":true,"updatedAt":"21/06/2026 23:46:05"},{"type":"diesel","price":1.999,"self":true,"updatedAt":"21/06/2026 23:46:05"}]},{"id":"12153","lat":37.6897520122872,"lon":14.112167879623485,"name":"sp energia siciliana","brand":"SP Energia Siciliana","address":"VIA RESUTTANO  90020, ALIMENA, PA","prices":[{"type":"petrol","price":1.889,"self":true,"updatedAt":"19/06/2026 09:20:58"},{"type":"diesel","price":1.989,"self":true,"updatedAt":"19/06/2026 09:20:58"}]}]