[{"id":"54551","lat":37.65804,"lon":14.52635,"name":"IDC Esso Agira","brand":"Esso","address":"CORSO Vittorio Emanuele S.N.C. 94011, AGIRA (EN)  94011, AGIRA, EN","prices":[{"type":"petrol","price":1.859,"self":true,"updatedAt":"27/06/2026 23:38:42"},{"type":"diesel","price":1.929,"self":true,"updatedAt":"27/06/2026 23:38:42"}]},{"id":"32413","lat":37.62988109397505,"lon":14.534461108285166,"name":"STAZIONE DI SERVIZIO F.LLI GENNARO S.N.C.","brand":"Fratelli Gennaro","address":"CONTRADA CARAMITIA S.P.21 94011, AGIRA, EN","prices":[{"type":"petrol","price":1.8,"self":true,"updatedAt":"24/06/2026 10:43:27"},{"type":"diesel","price":1.82,"self":true,"updatedAt":"24/06/2026 10:43:27"},{"type":"lpg","price":0.8,"self":false,"updatedAt":"24/06/2026 10:43:27"}]},{"id":"20044","lat":37.657838914186705,"lon":14.523094618385358,"name":"VIA CIRCON.AGIRA","brand":"Giap","address":"VIA CIRCON.AGIRA  94011, AGIRA, EN","prices":[{"type":"petrol","price":1.849,"self":true,"updatedAt":"27/06/2026 05:59:05"},{"type":"diesel","price":1.899,"self":true,"updatedAt":"27/06/2026 05:59:05"}]},{"id":"53152","lat":37.5637055,"lon":14.6890549,"name":"DB Carburanti Catenanuova","brand":"DBCarburanti","address":"Via Stazione 50 94010, CATENANUOVA, EN","prices":[{"type":"petrol","price":1.729,"self":false,"updatedAt":"25/06/2026 07:37:03"},{"type":"diesel","price":1.759,"self":false,"updatedAt":"25/06/2026 07:37:03"}]},{"id":"45756","lat":37.56404738071008,"lon":14.689315172865804,"name":"guagliardo s.r.l.","brand":"Pompe Bianche","address":"contrada forca - s.p. 74 al km 0+600  94010, CATENANUOVA, EN","prices":[{"type":"petrol","price":1.729,"self":true,"updatedAt":"28/06/2026 00:21:02"},{"type":"diesel","price":1.759,"self":true,"updatedAt":"28/06/2026 00:21:02"},{"type":"methane","price":1.799,"self":false,"updatedAt":"28/06/2026 00:21:02"}]},{"id":"63331","lat":37.6248781,"lon":14.7414159,"name":"tamoil 8415","brand":"Tamoil","address":"Via G. Fiorenza 123  94010, CENTURIPE, EN","prices":[{"type":"petrol","price":1.729,"self":true,"updatedAt":"28/06/2026 00:22:51"},{"type":"diesel","price":1.759,"self":true,"updatedAt":"28/06/2026 00:22:51"}]},{"id":"12206","lat":37.70449685640026,"lon":14.534177456511998,"name":"A. SCARDULLO & C. S.A.S","brand":"Esso","address":"VIA ROMA 111 94010, GAGLIANO CASTELFERRATO, EN","prices":[{"type":"petrol","price":1.898,"self":true,"updatedAt":"26/06/2026 16:34:11"},{"type":"diesel","price":1.959,"self":true,"updatedAt":"26/06/2026 16:34:11"}]},{"id":"46640","lat":37.71516866434721,"lon":14.5363716375486,"name":"SEPA","brand":"SEPA","address":"VIA ROMA   532 94010, GAGLIANO CASTELFERRATO, EN","prices":[{"type":"petrol","price":1.929,"self":false,"updatedAt":"26/06/2026 07:58:05"},{"type":"diesel","price":2.029,"self":false,"updatedAt":"26/06/2026 07:58:05"}]},{"id":"60624","lat":37.6484423087585,"lon":14.6366277498764,"name":"Esso - Regalbuto Via Palermo","brand":"Esso","address":"S.S. 121 Km 58+100, Via Palermo  117/A 94017, REGALBUTO, EN","prices":[{"type":"petrol","price":1.799,"self":true,"updatedAt":"27/06/2026 23:28:06"},{"type":"diesel","price":1.869,"self":true,"updatedAt":"27/06/2026 23:28:06"}]},{"id":"60625","lat":37.65133310054205,"lon":14.645745831458092,"name":"IDC - Regalbuto Via Catania","brand":"Esso","address":"S.S. 121, KM 57+141 (Via Catania)  sn 94017, REGALBUTO, EN","prices":[{"type":"petrol","price":1.799,"self":true,"updatedAt":"27/06/2026 23:45:24"},{"type":"diesel","price":1.899,"self":true,"updatedAt":"27/06/2026 23:45:24"}]},{"id":"51920","lat":37.64026456253776,"lon":14.654006206359863,"name":"S.P. 23 KM 13+500 - REGALBUTO","brand":"Giap","address":"S.P. 23 KM 13+500 sn 94017, REGALBUTO, EN","prices":[{"type":"petrol","price":1.799,"self":true,"updatedAt":"27/06/2026 05:59:07"},{"type":"diesel","price":1.859,"self":true,"updatedAt":"27/06/2026 05:59:07"},{"type":"lpg","price":0.798,"self":false,"updatedAt":"27/06/2026 05:59:07"}]},{"id":"29452","lat":37.64769778687417,"lon":14.634047895669937,"name":"VIA PALERMO REGALBUTO","brand":"Giap","address":"VIA PALERMO S.S.121  94017, REGALBUTO, EN","prices":[{"type":"petrol","price":1.799,"self":true,"updatedAt":"27/06/2026 05:59:06"},{"type":"diesel","price":1.859,"self":true,"updatedAt":"27/06/2026 05:59:06"}]}]