[{"id":"43866","lat":37.66476547566807,"lon":14.825756847858429,"name":"CT038","brand":"Q8","address":"VIA MADONNA DELLE SALETTE SN 95031, ADRANO, CT","prices":[{"type":"petrol","price":1.849,"self":true,"updatedAt":"24/06/2026 15:18:05"},{"type":"diesel","price":1.929,"self":true,"updatedAt":"24/06/2026 15:18:05"}]},{"id":"53187","lat":37.665530036703736,"lon":14.827500879764557,"name":"EUROIL ADRANO","brand":"Sicilpetroli","address":"DELLE REGIONE SICILIANA 5 95031, ADRANO, CT","prices":[{"type":"petrol","price":1.829,"self":true,"updatedAt":"24/06/2026 08:53:07"},{"type":"diesel","price":1.929,"self":true,"updatedAt":"24/06/2026 08:53:07"}]},{"id":"32948","lat":37.66262627339684,"lon":14.835874736309052,"name":"P.ZZA S. AGOSTINO ADRANO","brand":"Giap","address":"PIAZZA SANT'AGOSTINO  95031, ADRANO, CT","prices":[{"type":"petrol","price":1.839,"self":true,"updatedAt":"25/06/2026 05:58:15"},{"type":"diesel","price":1.929,"self":true,"updatedAt":"25/06/2026 05:58:15"}]},{"id":"13400","lat":37.66029872601433,"lon":14.837605320098874,"name":"Sp \"24 ore\"di Rosa Branchina","brand":"SP Energia Siciliana","address":"VIA CAPPUCCINI 10 95031, ADRANO, CT","prices":[{"type":"petrol","price":1.879,"self":true,"updatedAt":"22/06/2026 09:14:21"},{"type":"diesel","price":1.979,"self":true,"updatedAt":"22/06/2026 09:14:21"}]},{"id":"54288","lat":37.67899969293033,"lon":14.83631243435866,"name":"sp energia siciliana","brand":"SP Energia Siciliana","address":"s.s 284 c.da naviccia  sn 95031, ADRANO, CT","prices":[{"type":"petrol","price":1.979,"self":false,"updatedAt":"24/06/2026 06:28:30"},{"type":"diesel","price":2.099,"self":false,"updatedAt":"24/06/2026 06:28:30"}]},{"id":"31510","lat":37.65985226103448,"lon":14.838143158860817,"name":"stazione di servizio di DONATO NICOLO'","brand":"Agip Eni","address":"via cappuccini 6 95031, ADRANO, CT","prices":[{"type":"petrol","price":1.854,"self":true,"updatedAt":"25/06/2026 01:12:55"},{"type":"diesel","price":1.934,"self":true,"updatedAt":"25/06/2026 01:12:55"}]},{"id":"50228","lat":37.67283243792503,"lon":14.845251397856755,"name":"stazione di servizio di DONATO NICOLO'","brand":"Esso","address":"284 Occidentale Etnea, Km. 31,554, catania - 95031, ADRANO, CT","prices":[{"type":"petrol","price":1.899,"self":true,"updatedAt":"23/06/2026 11:19:26"},{"type":"diesel","price":1.999,"self":true,"updatedAt":"23/06/2026 11:19:26"}]},{"id":"26180","lat":37.661252487921885,"lon":14.836676716804504,"name":"STAZIONE DI SERVIZIO IMMANUEL sas","brand":"Esso","address":"PIAZZA ARMANDO DIAZ 4 95031, ADRANO, CT","prices":[{"type":"petrol","price":1.929,"self":false,"updatedAt":"17/06/2026 08:19:39"},{"type":"diesel","price":2.029,"self":false,"updatedAt":"17/06/2026 08:19:39"}]},{"id":"34602","lat":37.665074181413964,"lon":14.82662782073021,"name":"VIA MADONNA DELLE SALETTE ADRANO","brand":"Giap","address":"VIA MADONNA DELLE SALETTE  95031, ADRANO, CT","prices":[{"type":"petrol","price":1.839,"self":true,"updatedAt":"25/06/2026 05:58:16"},{"type":"diesel","price":1.929,"self":true,"updatedAt":"25/06/2026 05:58:16"}]},{"id":"45018","lat":37.57790845019118,"lon":14.978098644020974,"name":"AP - Etna Carburanti","brand":"Pompe Bianche","address":"S.P. n. 14  95032, BELPASSO, CT","prices":[{"type":"petrol","price":1.769,"self":true,"updatedAt":"23/06/2026 14:59:08"},{"type":"diesel","price":1.879,"self":true,"updatedAt":"23/06/2026 14:59:08"}]},{"id":"14317","lat":37.58348358098364,"lon":14.972405978438928,"name":"AUTORIFORNIMENTO ESSO","brand":"DBCarburanti","address":"S.P.N.56/11 BELPASSO-PATERNO'  95032, BELPASSO, CT","prices":[{"type":"petrol","price":1.839,"self":true,"updatedAt":"24/06/2026 17:58:04"},{"type":"diesel","price":1.889,"self":true,"updatedAt":"24/06/2026 17:58:04"}]},{"id":"47855","lat":37.63207150332036,"lon":14.95792127116394,"name":"CO.GE.KAT.SRL RAGALNA","brand":"Pompe Bianche","address":"S.P. 160 RAGALNA-NICOLOSI  95038, BELPASSO, CT","prices":[{"type":"petrol","price":1.829,"self":true,"updatedAt":"23/06/2026 11:25:57"},{"type":"diesel","price":1.919,"self":true,"updatedAt":"23/06/2026 11:25:57"}]},{"id":"37101","lat":37.57489090120445,"lon":14.994662608026147,"name":"COMANGAS","brand":"Pompe Bianche","address":"Strada Provinciale 56/i  54 95032, BELPASSO, CT","prices":[{"type":"petrol","price":1.799,"self":true,"updatedAt":"22/06/2026 15:13:29"},{"type":"diesel","price":1.899,"self":true,"updatedAt":"22/06/2026 15:13:29"},{"type":"methane","price":1.899,"self":false,"updatedAt":"22/06/2026 15:13:29"},{"type":"lpg","price":0.789,"self":false,"updatedAt":"22/06/2026 15:13:29"}]},{"id":"47587","lat":37.59083799842856,"lon":14.977996349334711,"name":"CT077","brand":"EOS","address":"PIAZZA MUNICIPIO S.N. 95032, BELPASSO, CT","prices":[{"type":"petrol","price":1.769,"self":true,"updatedAt":"24/06/2026 09:24:05"},{"type":"diesel","price":1.879,"self":true,"updatedAt":"24/06/2026 09:24:05"}]},{"id":"41055","lat":37.54821340992433,"lon":14.948257952928543,"name":"ENI DI ZAPPALA' LORENZO","brand":"Agip Eni","address":"C.DA VALCORRENTE (ETNAPOLIS) SN 95032, BELPASSO, CT","prices":[{"type":"petrol","price":1.829,"self":true,"updatedAt":"25/06/2026 01:15:38"},{"type":"diesel","price":1.919,"self":true,"updatedAt":"25/06/2026 01:15:38"}]},{"id":"25115","lat":37.55691948273381,"lon":14.983834773302078,"name":"G&G PETROLI SRL BELPASSO","brand":"Lukoil","address":"SP3iii  95032, BELPASSO, CT","prices":[{"type":"petrol","price":1.785,"self":true,"updatedAt":"24/06/2026 11:08:19"},{"type":"diesel","price":1.885,"self":true,"updatedAt":"24/06/2026 11:08:19"},{"type":"lpg","price":0.799,"self":false,"updatedAt":"24/06/2026 00:55:59"}]},{"id":"61171","lat":37.55208,"lon":14.93685,"name":"IP Belpasso S.S. 121 kM. 14+458","brand":"Api-Ip","address":"IP Belpasso S.S. 121 kM. 14+458, BELPASSO, CT","prices":[{"type":"petrol","price":1.819,"self":true,"updatedAt":"24/06/2026 19:18:03"},{"type":"diesel","price":1.899,"self":true,"updatedAt":"24/06/2026 19:18:03"},{"type":"lpg","price":0.799,"self":false,"updatedAt":"25/06/2026 00:30:13"}]},{"id":"26063","lat":37.53646789298786,"lon":14.983726143836975,"name":"IP FAMA' GAETANO & C. snc","brand":"Api-Ip","address":"via Mongibello ,  4 95032, BELPASSO, CT","prices":[{"type":"petrol","price":1.897,"self":true,"updatedAt":"18/06/2026 11:40:02"},{"type":"diesel","price":1.997,"self":true,"updatedAt":"18/06/2026 11:40:02"}]},{"id":"26171","lat":37.55094833463301,"lon":14.939319491386414,"name":"PETROL COMPANY BELPASSO","brand":"Petrol Company","address":"121 Catanese, Km. 14.331, paternò - 95032, BELPASSO, CT","prices":[{"type":"petrol","price":1.789,"self":true,"updatedAt":"25/06/2026 00:10:49"},{"type":"diesel","price":1.889,"self":true,"updatedAt":"25/06/2026 00:10:49"},{"type":"lpg","price":0.798,"self":false,"updatedAt":"25/06/2026 00:10:49"}]},{"id":"40220","lat":37.580158939564626,"lon":14.983198580465682,"name":"S.P. 56/1 PER CAMPOROTONDO - BELPASSO","brand":"Esso","address":"S.P. 56/1 PER CAMPOROTONDO  95032, BELPASSO, CT","prices":[{"type":"petrol","price":1.819,"self":true,"updatedAt":"25/06/2026 05:58:39"},{"type":"diesel","price":1.899,"self":true,"updatedAt":"25/06/2026 05:58:39"}]},{"id":"51717","lat":37.53785079234198,"lon":14.971615536411978,"name":"SEBASTIANO PAPPALARDO SRL PIANO TAVOLA","brand":"Esso","address":"S.S. 121 KM 10,920 SN 95032, BELPASSO, CT","prices":[{"type":"petrol","price":1.819,"self":true,"updatedAt":"23/06/2026 14:07:36"},{"type":"diesel","price":1.919,"self":true,"updatedAt":"23/06/2026 14:07:36"}]},{"id":"54258","lat":37.60375393421182,"lon":14.988339519777826,"name":"SEPA BELPASSO","brand":"SEPA","address":"Via Nicolosi SN 95032, BELPASSO, CT","prices":[{"type":"petrol","price":1.799,"self":true,"updatedAt":"22/06/2026 13:37:25"},{"type":"diesel","price":1.919,"self":true,"updatedAt":"22/06/2026 13:37:25"}]},{"id":"57172","lat":37.53859154468654,"lon":14.983576039803705,"name":"SEPA MONGIBELLO","brand":"SEPA","address":"Via Mongibello SN 95032, BELPASSO, CT","prices":[{"type":"petrol","price":1.819,"self":true,"updatedAt":"23/06/2026 14:06:21"},{"type":"diesel","price":1.919,"self":true,"updatedAt":"23/06/2026 14:06:21"}]},{"id":"31327","lat":37.64001380106723,"lon":14.865301251411438,"name":"8401","brand":"Tamoil","address":"EUROPA 51/B 95033, BIANCAVILLA, CT","prices":[{"type":"petrol","price":1.799,"self":true,"updatedAt":"24/06/2026 23:58:38"},{"type":"diesel","price":1.869,"self":true,"updatedAt":"24/06/2026 13:38:06"}]},{"id":"38965","lat":37.64716494280035,"lon":14.860256016254425,"name":"CT058","brand":"Q8","address":"VIA VITTORIO EMANUELE S.N. 95033, BIANCAVILLA, CT","prices":[{"type":"petrol","price":1.799,"self":true,"updatedAt":"19/06/2026 12:24:05"},{"type":"diesel","price":1.869,"self":true,"updatedAt":"24/06/2026 11:00:07"}]},{"id":"14985","lat":37.63941460496612,"lon":14.86622223040058,"name":"Rifornimento Esso","brand":"Esso","address":"EUROPA 118/AGIP 95033, BIANCAVILLA, CT","prices":[{"type":"petrol","price":1.799,"self":true,"updatedAt":"24/06/2026 18:25:57"},{"type":"diesel","price":1.869,"self":true,"updatedAt":"24/06/2026 18:25:57"}]},{"id":"25627","lat":37.64747968019394,"lon":14.859196543693542,"name":"RIFORNIMENTO ESSO ASERO SALVATORE","brand":"Esso","address":"PIAZZA SGRICCIO 1, 95033 - -, BIANCAVILLA, CT","prices":[{"type":"petrol","price":1.799,"self":true,"updatedAt":"23/06/2026 05:41:33"},{"type":"diesel","price":1.889,"self":true,"updatedAt":"23/06/2026 05:41:33"}]},{"id":"26505","lat":37.648058818568444,"lon":14.846971035003662,"name":"S.B. GAS AUTO CIANCIANELLA S.R.L.","brand":"Pompe Bianche","address":"CONTRADA CIANCIANELLA SN 95033, BIANCAVILLA, CT","prices":[{"type":"petrol","price":1.774,"self":true,"updatedAt":"23/06/2026 17:32:39"},{"type":"diesel","price":1.867,"self":true,"updatedAt":"23/06/2026 17:32:39"},{"type":"lpg","price":0.798,"self":false,"updatedAt":"23/06/2026 17:32:39"}]},{"id":"32879","lat":37.64006342676985,"lon":14.873016605138105,"name":"VIA V.EMANUELE BIANCAVILLA","brand":"Giap","address":"VIA VITTORIO EMANUELE 7 95033, BIANCAVILLA, CT","prices":[{"type":"petrol","price":1.798,"self":true,"updatedAt":"25/06/2026 05:58:36"},{"type":"diesel","price":1.878,"self":true,"updatedAt":"25/06/2026 05:58:36"}]},{"id":"61519","lat":37.74763,"lon":14.82809,"name":"VIRZI' SRL","brand":"Pompe Bianche","address":"S.S. 284 KM 20+246 SNC 95034, BRONTE, CT","prices":[{"type":"petrol","price":1.779,"self":true,"updatedAt":"24/06/2026 20:24:56"},{"type":"diesel","price":1.869,"self":true,"updatedAt":"24/06/2026 20:24:56"},{"type":"lpg","price":0.759,"self":false,"updatedAt":"24/06/2026 20:24:56"}]},{"id":"60219","lat":37.5652352,"lon":14.8996096,"name":"IMPIANTO REI OIL MISTERBIANCO","brand":"Pompe Bianche","address":"GIUSEPPE GARIBALDI 210 95045, MISTERBIANCO, CT","prices":[{"type":"petrol","price":1.799,"self":true,"updatedAt":"24/06/2026 08:51:05"},{"type":"diesel","price":1.899,"self":true,"updatedAt":"24/06/2026 08:51:05"}]},{"id":"54261","lat":37.5251,"lon":14.9954,"name":"S.S. 121 - KM 8+340 DIR. PATERNO' S.N. - MISTERBIANCO","brand":"Q8","address":"S.S. 121 - KM 8+340 DIR. PATERNO' S.N. sn 95045, MISTERBIANCO, CT","prices":[{"type":"petrol","price":1.789,"self":true,"updatedAt":"25/06/2026 05:58:23"},{"type":"diesel","price":1.889,"self":true,"updatedAt":"25/06/2026 05:58:23"},{"type":"lpg","price":0.798,"self":false,"updatedAt":"25/06/2026 05:58:23"}]},{"id":"61276","lat":37.520668,"lon":14.998307,"name":"39240 MOTTA S. ANASTASIA","brand":"Agip Eni","address":"VIA G. VERDI   S.N.C, MOTTA SANT'ANASTASIA, CT","prices":[{"type":"petrol","price":1.829,"self":true,"updatedAt":"25/06/2026 01:10:21"},{"type":"diesel","price":1.909,"self":true,"updatedAt":"25/06/2026 01:10:21"}]},{"id":"51227","lat":37.52519001018309,"lon":14.99072541935569,"name":"AS ENERGETICA SRL","brand":"Pompe Bianche","address":"STRADA PROVINCIALE 13 69 95040, MOTTA SANT'ANASTASIA, CT","prices":[{"type":"petrol","price":1.839,"self":true,"updatedAt":"23/06/2026 07:34:29"},{"type":"diesel","price":1.929,"self":true,"updatedAt":"23/06/2026 07:34:29"}]},{"id":"61173","lat":37.5599,"lon":14.97187,"name":"IP Motta S.Anastasia - C.so Sicilia","brand":"Api-Ip","address":"Motta S.Anastasia - C.so Sicilia  95040, MOTTA SANT'ANASTASIA, CT","prices":[{"type":"petrol","price":1.859,"self":false,"updatedAt":"25/06/2026 00:22:38"},{"type":"diesel","price":1.959,"self":false,"updatedAt":"25/06/2026 00:22:38"}]},{"id":"58003","lat":37.52852228700032,"lon":14.982616523742687,"name":"IP VIBU FUEL SRL","brand":"Api-Ip","address":"PROVINCIALE 13 8 95040, MOTTA SANT'ANASTASIA, CT","prices":[{"type":"petrol","price":1.849,"self":false,"updatedAt":"25/06/2026 01:21:03"},{"type":"diesel","price":1.949,"self":false,"updatedAt":"25/06/2026 01:21:03"},{"type":"lpg","price":0.799,"self":false,"updatedAt":"25/06/2026 00:26:35"}]},{"id":"19607","lat":37.5115093325007,"lon":14.967766108444948,"name":"VIA REGINA ELENA MOTTA S.ANAS","brand":"Giap","address":"VIA REGINA ELENA  95040, MOTTA SANT'ANASTASIA, CT","prices":[{"type":"petrol","price":1.828,"self":true,"updatedAt":"25/06/2026 05:58:31"},{"type":"diesel","price":1.908,"self":true,"updatedAt":"25/06/2026 05:58:31"}]},{"id":"55172","lat":37.5694,"lon":14.9115,"name":"9565 Paternò","brand":"Agip Eni","address":"Via V. Emanuele 393/a, PATERNÒ, CT","prices":[{"type":"petrol","price":1.819,"self":true,"updatedAt":"24/06/2026 23:48:58"},{"type":"diesel","price":1.909,"self":true,"updatedAt":"24/06/2026 07:48:26"}]},{"id":"38235","lat":37.567890785465316,"lon":14.896058973989852,"name":"CO.GE.KAT. S.R.L. PATERNO'","brand":"Pompe Bianche","address":"PIAZZA UMBERTO SNC 95047, PATERNÒ, CT","prices":[{"type":"petrol","price":1.819,"self":true,"updatedAt":"20/06/2026 10:26:45"},{"type":"diesel","price":1.939,"self":true,"updatedAt":"20/06/2026 10:26:45"}]},{"id":"33726","lat":37.59231269733585,"lon":14.87449756871797,"name":"CO.GE.KAT. SCHETTINO PATERNO'","brand":"Pompe Bianche","address":"C.DA SCHETTINO SNC 95047, PATERNÒ, CT","prices":[{"type":"petrol","price":2.089,"self":true,"updatedAt":"23/06/2026 08:03:33"},{"type":"diesel","price":1.929,"self":true,"updatedAt":"23/06/2026 08:03:33"}]},{"id":"43458","lat":37.57378025835418,"lon":14.906319364418096,"name":"CT068","brand":"Q8","address":"CORSO ITALIA S.N. 95047, PATERNÒ, CT","prices":[{"type":"petrol","price":1.849,"self":true,"updatedAt":"24/06/2026 16:24:03"},{"type":"diesel","price":1.949,"self":true,"updatedAt":"24/06/2026 16:24:03"}]},{"id":"29430","lat":37.56088602028575,"lon":14.898386970162392,"name":"Eni Station Palumbo Maria Anna","brand":"Agip Eni","address":"VIA GIOVANNI VERGA SNC 95047, PATERNÒ, CT","prices":[{"type":"petrol","price":1.819,"self":true,"updatedAt":"25/06/2026 01:21:38"},{"type":"diesel","price":1.914,"self":true,"updatedAt":"25/06/2026 01:21:38"}]},{"id":"43109","lat":37.56033938348306,"lon":14.898176491260529,"name":"ESSO VIA G. VERGA","brand":"Esso","address":"VIA GIOVANNI VERGA 150 95047, PATERNÒ, CT","prices":[{"type":"petrol","price":1.839,"self":true,"updatedAt":"24/06/2026 08:48:20"},{"type":"diesel","price":1.919,"self":true,"updatedAt":"24/06/2026 08:48:20"}]},{"id":"43111","lat":37.569424162207746,"lon":14.912590682506561,"name":"ESSO VIA VITT. EMANUELE","brand":"Esso","address":"VIA VITT. EMANUELE 393/B 95047, PATERNÒ, CT","prices":[{"type":"petrol","price":1.819,"self":true,"updatedAt":"24/06/2026 06:05:46"},{"type":"diesel","price":1.909,"self":true,"updatedAt":"24/06/2026 06:05:46"}]},{"id":"61545","lat":37.5737783,"lon":14.9063542,"name":"IB14- IBLEA PETROLI -PATERNÒ","brand":"Iblea Petroli","address":"Via nuova circonvallazione  1, PATERNÒ, CT","prices":[{"type":"petrol","price":1.829,"self":true,"updatedAt":"25/06/2026 01:23:28"},{"type":"diesel","price":1.909,"self":true,"updatedAt":"25/06/2026 01:23:28"}]},{"id":"60218","lat":37.5652352,"lon":14.8996096,"name":"Impianto Paternò","brand":"Pompe Bianche","address":"SANTA CATERINA 34 95047, PATERNÒ, CT","prices":[{"type":"petrol","price":1.819,"self":true,"updatedAt":"23/06/2026 06:10:32"},{"type":"diesel","price":1.909,"self":true,"updatedAt":"23/06/2026 06:10:32"}]},{"id":"20361","lat":37.50090967426804,"lon":14.797699703041076,"name":"LOC.SFERRO PATERNO'","brand":"Giap","address":"LOC.SFERRO PATERNO'  95047, PATERNÒ, CT","prices":[{"type":"petrol","price":1.829,"self":true,"updatedAt":"25/06/2026 05:58:45"},{"type":"diesel","price":1.919,"self":true,"updatedAt":"25/06/2026 05:58:45"}]},{"id":"49160","lat":37.526721283106,"lon":14.847993294477453,"name":"MEIC SERVICES SPA - PATERNO'","brand":"Pompe Bianche","address":"VIA CONTRADA POGGIO MONACO SN 95047, PATERNO' (CT)  95047, PATERNÒ, CT","prices":[{"type":"petrol","price":1.719,"self":true,"updatedAt":"19/06/2026 10:21:28"},{"type":"diesel","price":1.769,"self":true,"updatedAt":"19/06/2026 10:21:28"},{"type":"methane","price":1.499,"self":false,"updatedAt":"19/06/2026 10:21:28"}]},{"id":"20984","lat":37.566037979686655,"lon":14.904828100168743,"name":"P.ZZA PURGATORIO PATERNO'","brand":"Giap","address":"P.ZZA PURGATORIO PATERNO'  95047, PATERNÒ, CT","prices":[{"type":"petrol","price":1.829,"self":true,"updatedAt":"25/06/2026 05:58:46"},{"type":"diesel","price":1.919,"self":true,"updatedAt":"25/06/2026 05:58:46"}]},{"id":"43106","lat":37.559779122738675,"lon":14.897874742746353,"name":"REI OIL","brand":"Pompe Bianche","address":"VIA GIOVANNI VERGA 152 95047, PATERNÒ, CT","prices":[{"type":"petrol","price":1.819,"self":true,"updatedAt":"23/06/2026 06:07:31"},{"type":"diesel","price":1.909,"self":true,"updatedAt":"23/06/2026 06:07:31"},{"type":"lpg","price":0.789,"self":false,"updatedAt":"23/06/2026 06:07:31"}]},{"id":"31247","lat":37.57703172013042,"lon":14.896020591259003,"name":"stazione di servizio eni di chiarenza salvatore","brand":"Agip Eni","address":"TRAPPETAZZO S.S. 121 . 95047, PATERNÒ, CT","prices":[{"type":"petrol","price":1.829,"self":true,"updatedAt":"25/06/2026 00:00:19"},{"type":"diesel","price":1.919,"self":true,"updatedAt":"25/06/2026 00:00:19"}]},{"id":"35481","lat":37.53336129049338,"lon":14.898801445960999,"name":"STAZIONE ESSO","brand":"Esso","address":"C.da cutura sn 95047, PATERNÒ, CT","prices":[{"type":"petrol","price":1.849,"self":true,"updatedAt":"24/06/2026 16:05:08"},{"type":"diesel","price":1.849,"self":true,"updatedAt":"24/06/2026 16:05:08"}]},{"id":"46487","lat":37.613534425112995,"lon":14.895130576125212,"name":"ENI","brand":"Agip Eni","address":"VIA VITTORIO EMANUELE S.N. 95038, SANTA MARIA DI LICODIA, CT","prices":[{"type":"petrol","price":1.784,"self":true,"updatedAt":"24/06/2026 09:04:00"},{"type":"diesel","price":1.849,"self":true,"updatedAt":"24/06/2026 09:04:00"}]},{"id":"59988","lat":37.60280825923646,"lon":14.88922119140625,"name":"Q8","brand":"Q8","address":"CAVALIERE BOSCO SN 95038, SANTA MARIA DI LICODIA, CT","prices":[{"type":"petrol","price":1.799,"self":true,"updatedAt":"22/06/2026 20:57:08"},{"type":"diesel","price":1.899,"self":true,"updatedAt":"22/06/2026 20:57:08"}]},{"id":"60449","lat":37.61216325031488,"lon":14.90315633940345,"name":"SEPA S.M. DI LICODIA","brand":"SEPA","address":"CONTRADA PONTE BARRIERA-SP4/II  SN 95038, SANTA MARIA DI LICODIA, CT","prices":[{"type":"petrol","price":1.939,"self":true,"updatedAt":"23/06/2026 16:49:57"},{"type":"diesel","price":1.979,"self":true,"updatedAt":"23/06/2026 16:49:57"}]},{"id":"54148","lat":37.634048,"lon":14.8570112,"name":"GIAMBO RICCARDO","brand":"Agip Eni","address":"STRADA STATALE 149 98042, PACE DEL MELA, ME","prices":[{"type":"petrol","price":1.829,"self":true,"updatedAt":"24/06/2026 23:54:13"},{"type":"diesel","price":1.929,"self":true,"updatedAt":"24/06/2026 23:54:13"}]}]