[{"id":"59248","lat":37.93226922577872,"lon":12.32521124131381,"name":"GAN- SRL ISOLA DI FAVIGNANA (TP)","brand":"GAN","address":"SAN LEONARDO SNC 91023, FAVIGNANA, TP","prices":[{"type":"petrol","price":2.079,"self":false,"updatedAt":"24/06/2026 15:35:05"},{"type":"diesel","price":2.099,"self":false,"updatedAt":"24/06/2026 15:35:05"}]},{"id":"49074","lat":37.92722325881651,"lon":12.332548865433637,"name":"Impianto 39808","brand":"Agip Eni","address":"VIA MADDALENA DI CANOSSA S.N.C. 91023, FAVIGNANA, TP","prices":[{"type":"petrol","price":1.859,"self":true,"updatedAt":"28/06/2026 01:06:49"},{"type":"diesel","price":1.964,"self":true,"updatedAt":"28/06/2026 01:06:49"}]},{"id":"62861","lat":37.7924,"lon":12.4462148,"name":"CORSO CALATAFIMI 112/A","brand":"Esso","address":"Corso Calatafimi 112/A 91025, MARSALA, TP","prices":[{"type":"petrol","price":1.829,"self":true,"updatedAt":"27/06/2026 06:02:03"},{"type":"diesel","price":1.929,"self":true,"updatedAt":"27/06/2026 06:02:03"}]},{"id":"44230","lat":37.791540992265,"lon":12.438007931184059,"name":"ECO ENERGY SRL IP \"MARSALA LUNGOMARE MEDITERRANEO\"","brand":"Api-Ip","address":"LUNGOMARE MEDITERRANEO SNC 91025, MARSALA, TP","prices":[{"type":"petrol","price":1.827,"self":true,"updatedAt":"23/06/2026 07:54:56"},{"type":"diesel","price":1.917,"self":true,"updatedAt":"23/06/2026 07:54:56"}]},{"id":"50466","lat":37.790402526101175,"lon":12.448440999814306,"name":"Eni di Tumbarello Eliseba A.","brand":"Agip Eni","address":"115 dir Sud Occidentale Sicula, Km. via Mazara 14, Trapani - 91025, MARSALA, TP","prices":[{"type":"petrol","price":1.829,"self":true,"updatedAt":"27/06/2026 23:17:18"},{"type":"diesel","price":1.909,"self":true,"updatedAt":"27/06/2026 23:17:18"}]},{"id":"58873","lat":37.79985,"lon":12.43882,"name":"Lukoil Marsala Castello","brand":"Lukoil","address":"piazza castello   91025, MARSALA, TP","prices":[{"type":"petrol","price":1.825,"self":true,"updatedAt":"27/06/2026 23:25:19"},{"type":"diesel","price":1.909,"self":true,"updatedAt":"27/06/2026 23:25:19"}]},{"id":"20404","lat":37.79362605977189,"lon":12.441341612268388,"name":"Q8 - MARSALA","brand":"Q8","address":"VIA F.SCO CRISPI  91020, MARSALA, TP","prices":[{"type":"petrol","price":1.839,"self":true,"updatedAt":"27/06/2026 06:21:51"},{"type":"diesel","price":1.929,"self":true,"updatedAt":"27/06/2026 06:21:51"}]},{"id":"48553","lat":37.81633253949817,"lon":12.4852019067459,"name":"RAIMONDI ENERGY","brand":"Pompe Bianche","address":"CONTRADA SAN GIUSEPPE TAFALIA SNC 91025, MARSALA, TP","prices":[{"type":"petrol","price":1.899,"self":true,"updatedAt":"27/06/2026 10:16:58"},{"type":"diesel","price":1.969,"self":true,"updatedAt":"27/06/2026 10:16:59"},{"type":"lpg","price":0.895,"self":false,"updatedAt":"27/06/2026 10:16:43"}]},{"id":"29779","lat":37.76468570152517,"lon":12.469617202877998,"name":"Stazione di servizio Esso di Lamia Salvatore","brand":"Esso","address":"Statale 115 Sud Occidentale Sicula, Km. 34+838, dir. Mazara del Vallo - 91025, MARSALA, TP","prices":[{"type":"petrol","price":1.859,"self":true,"updatedAt":"27/06/2026 10:46:05"},{"type":"diesel","price":1.959,"self":true,"updatedAt":"27/06/2026 10:46:05"}]},{"id":"24027","lat":37.81584384972082,"lon":12.478222399950027,"name":"TP007","brand":"Q8","address":"Statale 115 Sud Occidentale Sicula, Km. 25.100, dir. trapani-marsala  91025, MARSALA, TP","prices":[{"type":"petrol","price":1.859,"self":false,"updatedAt":"27/06/2026 07:21:17"},{"type":"diesel","price":1.959,"self":false,"updatedAt":"27/06/2026 07:21:17"}]},{"id":"46198","lat":37.79500698854865,"lon":12.485199570655823,"name":"TP028","brand":"Q8","address":"CONTRADA SAN SILVESTRO SNC 91025, MARSALA, TP","prices":[{"type":"petrol","price":1.859,"self":true,"updatedAt":"24/06/2026 10:57:08"},{"type":"diesel","price":1.959,"self":true,"updatedAt":"24/06/2026 10:57:08"}]},{"id":"40358","lat":37.75509452327387,"lon":12.477739602327347,"name":"TP030","brand":"Q8","address":"Statale 115 dir Sud Occidentale Sicula, Km. 36, dir. Marsala - 91025, MARSALA, TP","prices":[{"type":"petrol","price":1.859,"self":true,"updatedAt":"24/06/2026 11:00:04"},{"type":"diesel","price":1.959,"self":true,"updatedAt":"24/06/2026 11:00:04"}]},{"id":"47833","lat":37.805425736170186,"lon":12.454254925251002,"name":"TP032","brand":"Q8","address":"via trapani snc 91025, MARSALA, TP","prices":[{"type":"petrol","price":1.859,"self":true,"updatedAt":"24/06/2026 10:57:10"},{"type":"diesel","price":1.959,"self":true,"updatedAt":"24/06/2026 10:57:10"}]},{"id":"46199","lat":37.793366474122685,"lon":12.46491402387619,"name":"TP033","brand":"Q8","address":"CONTRADA AMABILINA VIA SALEMI SNC 91025, MARSALA, TP","prices":[{"type":"petrol","price":1.859,"self":true,"updatedAt":"24/06/2026 10:57:04"},{"type":"diesel","price":1.959,"self":true,"updatedAt":"24/06/2026 10:57:04"}]},{"id":"22440","lat":37.79857083680847,"lon":12.447427287697792,"name":"TP065","brand":"AP","address":"VIA CIRCONVALLAZIONE S.N.C. 91025, MARSALA, TP","prices":[{"type":"petrol","price":1.854,"self":true,"updatedAt":"26/06/2026 19:28:25"},{"type":"diesel","price":1.954,"self":true,"updatedAt":"26/06/2026 19:28:25"}]},{"id":"55460","lat":37.791447189706076,"lon":12.448129163580726,"name":"TP066","brand":"AP","address":"CAPRERA - VIA MAZARA SNC 91025, MARSALA, TP","prices":[{"type":"petrol","price":1.849,"self":false,"updatedAt":"26/06/2026 19:33:19"},{"type":"diesel","price":1.949,"self":false,"updatedAt":"26/06/2026 19:33:19"}]},{"id":"38562","lat":37.79165256180171,"lon":12.448421693835826,"name":"TP067","brand":"AP","address":"PIAZZA CAPRERA VIA SALEMI SNC 91025, MARSALA, TP","prices":[{"type":"petrol","price":1.849,"self":true,"updatedAt":"26/06/2026 19:30:19"},{"type":"diesel","price":1.949,"self":true,"updatedAt":"26/06/2026 19:30:19"}]},{"id":"16236","lat":37.813405795855914,"lon":12.475832551717758,"name":"TP068","brand":"AP","address":"CONTRADA ADDOLORATA SNC 91025, MARSALA, TP","prices":[{"type":"petrol","price":1.854,"self":true,"updatedAt":"26/06/2026 19:28:00"},{"type":"diesel","price":1.954,"self":true,"updatedAt":"26/06/2026 19:28:00"}]},{"id":"38564","lat":37.82920172808256,"lon":12.490794545171411,"name":"TP070","brand":"AP","address":"CONTRADA TABACCARO S.S.115 KM.23,26 91025, MARSALA, TP","prices":[{"type":"petrol","price":1.859,"self":true,"updatedAt":"26/06/2026 19:31:15"},{"type":"diesel","price":1.959,"self":true,"updatedAt":"26/06/2026 19:31:15"}]},{"id":"41698","lat":37.83607155858789,"lon":12.475935220718384,"name":"TP073","brand":"AP","address":"CONTRADA SPAGNOLA SNC 91025, MARSALA, TP","prices":[{"type":"petrol","price":1.829,"self":true,"updatedAt":"26/06/2026 19:32:00"},{"type":"diesel","price":1.929,"self":true,"updatedAt":"26/06/2026 19:32:00"}]},{"id":"53715","lat":37.798704437860835,"lon":12.42892272448846,"name":"TP074","brand":"AP","address":"LUNGOMARE BOEO SNC 91025, MARSALA, TP","prices":[{"type":"petrol","price":1.859,"self":true,"updatedAt":"26/06/2026 19:32:59"},{"type":"diesel","price":1.959,"self":true,"updatedAt":"26/06/2026 19:32:59"}]},{"id":"16244","lat":37.78729751375542,"lon":12.444627732038498,"name":"TP075","brand":"AP","address":"LUNGOMARE MEDITERRANEO SNC 91025, MARSALA, TP","prices":[{"type":"petrol","price":1.859,"self":true,"updatedAt":"26/06/2026 19:28:12"},{"type":"diesel","price":1.959,"self":true,"updatedAt":"26/06/2026 19:28:12"},{"type":"lpg","price":0.899,"self":false,"updatedAt":"26/06/2026 19:28:12"}]},{"id":"63214","lat":37.788628121760624,"lon":12.442788705635056,"name":"TP082","brand":"AP","address":"LUNG MEDITERRANEO PORT TUR SNC 91025, MARSALA, TP","prices":[{"type":"petrol","price":2.059,"self":false,"updatedAt":"26/06/2026 19:36:42"},{"type":"diesel","price":2.079,"self":false,"updatedAt":"26/06/2026 19:36:42"}]},{"id":"41574","lat":37.75399024136079,"lon":12.484644139881084,"name":"TP085","brand":"AP","address":"CONTRADA BAMBINA VIA COMUNALE SNC 91025, MARSALA, TP","prices":[{"type":"petrol","price":1.839,"self":true,"updatedAt":"26/06/2026 19:31:41"},{"type":"diesel","price":1.939,"self":true,"updatedAt":"26/06/2026 19:31:41"}]},{"id":"28683","lat":37.797641954478834,"lon":12.441235392868066,"name":"TP088","brand":"AP","address":"VIA ITRIA 73 91025, MARSALA, TP","prices":[{"type":"petrol","price":1.854,"self":true,"updatedAt":"26/06/2026 19:28:52"},{"type":"diesel","price":1.954,"self":true,"updatedAt":"26/06/2026 19:28:52"}]},{"id":"35082","lat":37.76111782074357,"lon":12.48806876638946,"name":"TP096","brand":"AP","address":"CONTRADA BERBARELLO SNC 91025, MARSALA, TP","prices":[{"type":"petrol","price":1.839,"self":true,"updatedAt":"26/06/2026 19:29:14"},{"type":"diesel","price":1.939,"self":true,"updatedAt":"26/06/2026 19:29:14"}]},{"id":"48950","lat":37.86148810837213,"lon":12.490181598178065,"name":"TP101","brand":"Q8","address":"CONTRADA INFERSA SNC 91025, MARSALA, TP","prices":[{"type":"petrol","price":1.859,"self":true,"updatedAt":"24/06/2026 10:42:06"},{"type":"diesel","price":1.959,"self":true,"updatedAt":"24/06/2026 10:42:06"}]},{"id":"42600","lat":37.80741442095536,"lon":12.44282229881128,"name":"TP102","brand":"EOS","address":"VIA GIOVANNI FALCONE SNC 91025, MARSALA, TP","prices":[{"type":"petrol","price":1.859,"self":false,"updatedAt":"24/06/2026 10:51:04"},{"type":"diesel","price":1.959,"self":false,"updatedAt":"24/06/2026 10:51:04"}]},{"id":"47744","lat":37.80895283376546,"lon":12.446593768392177,"name":"TP114","brand":"Edison metano","address":"VIA GIOVANNI FALCONE SNC 91025, MARSALA, TP","prices":[{"type":"methane","price":1.909,"self":false,"updatedAt":"26/06/2026 19:32:31"}]},{"id":"35919","lat":37.80895283376546,"lon":12.446593768392177,"name":"TP114","brand":"AP","address":"VIA GIOVANNI FALCONE SNC 91025, MARSALA, TP","prices":[{"type":"petrol","price":1.859,"self":true,"updatedAt":"26/06/2026 19:30:00"},{"type":"diesel","price":1.959,"self":true,"updatedAt":"26/06/2026 19:30:00"}]},{"id":"16200","lat":37.79327362567748,"lon":12.444814816117287,"name":"TPXX1","brand":"AP","address":"CORSO CALATAFIMI SNC 91025, MARSALA, TP","prices":[{"type":"petrol","price":1.827,"self":true,"updatedAt":"26/06/2026 19:27:31"},{"type":"diesel","price":1.927,"self":true,"updatedAt":"26/06/2026 19:27:31"}]},{"id":"61789","lat":37.792291872160625,"lon":12.454432063172854,"name":"TPXX4","brand":"Esso","address":"Via Salemi angolo via istria  91025, MARSALA, TP","prices":[{"type":"petrol","price":1.859,"self":true,"updatedAt":"26/06/2026 19:34:58"},{"type":"diesel","price":1.959,"self":true,"updatedAt":"26/06/2026 19:34:58"}]},{"id":"61790","lat":37.8049363307944,"lon":12.440788215868915,"name":"TPXX8","brand":"Adamo Idrocarburi","address":"CORSO GRAMSCI  91025, MARSALA, TP","prices":[{"type":"petrol","price":1.859,"self":true,"updatedAt":"26/06/2026 19:35:17"},{"type":"diesel","price":1.959,"self":true,"updatedAt":"26/06/2026 19:35:17"}]},{"id":"56989","lat":37.7913375,"lon":12.4495333,"name":"Q8 - MAZARA DEL VALLO","brand":"Q8","address":"CASTELVETRANO SNC 91026, MAZARA DEL VALLO, TP","prices":[{"type":"petrol","price":1.819,"self":true,"updatedAt":"27/06/2026 06:22:04"},{"type":"diesel","price":1.919,"self":true,"updatedAt":"27/06/2026 06:22:04"}]}]