[{"id":"60065","lat":37.783799437952354,"lon":14.60245082202245,"name":"AREA DI SERVIZIO SEPA DI BENTIVEGNA FABIANO NATALE","brand":"SEPA","address":"VITTORIO EMANUELE II 297 94018, TROINA, EN","prices":[{"type":"petrol","price":1.899,"self":true,"updatedAt":"26/06/2026 11:49:01"},{"type":"diesel","price":1.999,"self":true,"updatedAt":"26/06/2026 11:49:01"}]},{"id":"50107","lat":37.789073946812415,"lon":14.587235184114142,"name":"esso","brand":"Esso","address":"VIA NAZIONALE 219 94018, TROINA, EN","prices":[{"type":"petrol","price":1.919,"self":true,"updatedAt":"25/06/2026 11:37:36"},{"type":"diesel","price":2.039,"self":true,"updatedAt":"25/06/2026 11:37:36"}]},{"id":"51858","lat":37.78089216779917,"lon":14.59395149748472,"name":"Esso - Via Nazionale, Ex C.so Umberto","brand":"Esso","address":"NAZIONALE SN 94018, TROINA, EN","prices":[{"type":"petrol","price":1.909,"self":true,"updatedAt":"29/06/2026 00:27:27"},{"type":"diesel","price":2.019,"self":true,"updatedAt":"29/06/2026 00:27:27"}]},{"id":"25107","lat":37.782634050517444,"lon":14.595045650668794,"name":"VIA SAN SILVESTRO TROINA","brand":"Giap","address":"VIA SAN SILVESTRO 1 94018, TROINA, EN","prices":[{"type":"petrol","price":1.899,"self":true,"updatedAt":"27/06/2026 05:59:05"},{"type":"diesel","price":1.999,"self":true,"updatedAt":"27/06/2026 05:59:06"}]},{"id":"60967","lat":37.84255175910469,"lon":14.709466270677922,"name":"PETROL COMPANY CESARO'","brand":"Petrol Company","address":"289 KM 52+380 SNC 98033, CESARÒ, ME","prices":[{"type":"petrol","price":1.779,"self":true,"updatedAt":"29/06/2026 00:31:46"},{"type":"diesel","price":1.869,"self":true,"updatedAt":"29/06/2026 00:31:46"}]}]