[{"id":"19953","lat":37.846500355557886,"lon":12.507576670230492,"name":"AP","brand":"AP","address":"CONTRADA BOSCO SS 115  91025, MARSALA, TP","prices":[{"type":"petrol","price":1.859,"self":true,"updatedAt":"29/06/2026 15:47:23"},{"type":"diesel","price":1.959,"self":true,"updatedAt":"29/06/2026 15:47:23"},{"type":"lpg","price":0.899,"self":false,"updatedAt":"29/06/2026 15:47:23"}]},{"id":"29592","lat":37.86062392434069,"lon":12.515486306939692,"name":"ENILIVE","brand":"Agip Eni","address":"Statale 115 dir Sud Occidentale Sicula, Km. 18,800, dir. Marsala - 91025, MARSALA, TP","prices":[{"type":"petrol","price":1.829,"self":true,"updatedAt":"29/06/2026 07:19:09"},{"type":"diesel","price":1.899,"self":true,"updatedAt":"29/06/2026 07:19:09"}]},{"id":"16222","lat":37.82565500485015,"lon":12.513832747936249,"name":"TP113","brand":"AP","address":"STR.SCOR.VEL.MARSALA TP BIRGI SNC 91025, MARSALA, TP","prices":[{"type":"petrol","price":1.839,"self":true,"updatedAt":"26/06/2026 19:27:45"},{"type":"diesel","price":1.939,"self":true,"updatedAt":"26/06/2026 19:27:45"},{"type":"lpg","price":0.899,"self":false,"updatedAt":"26/06/2026 19:27:45"}]},{"id":"61791","lat":37.77968722747421,"lon":12.526697981364212,"name":"TPX10","brand":"Adamo Idrocarburi","address":"CONTRADA DIGERBATO  91025, MARSALA, TP","prices":[{"type":"petrol","price":1.899,"self":true,"updatedAt":"26/06/2026 19:35:38"},{"type":"diesel","price":1.999,"self":true,"updatedAt":"26/06/2026 19:35:38"}]},{"id":"61156","lat":37.8185668,"lon":12.5009524,"name":"TPX11","brand":"Adamo Idrocarburi","address":"Contrada Sturiano Marsala  91025, MARSALA, TP","prices":[{"type":"petrol","price":1.879,"self":true,"updatedAt":"26/06/2026 19:37:05"},{"type":"diesel","price":1.949,"self":true,"updatedAt":"26/06/2026 19:37:05"}]},{"id":"61792","lat":37.8164138570257,"lon":12.527386994264688,"name":"TPX12","brand":"Adamo Idrocarburi","address":"CONTRADA PAOLINI, MARSALA, TP","prices":[{"type":"petrol","price":1.899,"self":true,"updatedAt":"26/06/2026 19:36:01"},{"type":"diesel","price":1.999,"self":true,"updatedAt":"26/06/2026 19:36:00"}]},{"id":"35628","lat":37.83813862427414,"lon":12.510272092614741,"name":"TPXX3","brand":"AP","address":"CONTRADA RAGALIA SNC 91025, MARSALA, TP","prices":[{"type":"petrol","price":1.894,"self":true,"updatedAt":"26/06/2026 19:29:36"},{"type":"diesel","price":1.994,"self":true,"updatedAt":"26/06/2026 19:29:36"}]},{"id":"60888","lat":37.776647,"lon":12.553394,"name":"TPXX5 CIAVOLO","brand":"Adamo Idrocarburi","address":"CIAVOLO SNC 91025, MARSALA, TP","prices":[{"type":"petrol","price":1.899,"self":false,"updatedAt":"26/06/2026 19:33:46"},{"type":"diesel","price":1.999,"self":false,"updatedAt":"26/06/2026 19:33:46"}]},{"id":"39244","lat":37.914699114435656,"lon":12.507308274507523,"name":"LFC PETROLI-BIRGI","brand":"LFC PETROLI","address":"STRADA PROV. TRAPANI/MARSALA SNC 91100, MISILISCEMI, TP","prices":[{"type":"petrol","price":1.797,"self":true,"updatedAt":"29/06/2026 08:52:21"},{"type":"diesel","price":1.897,"self":true,"updatedAt":"29/06/2026 08:52:21"},{"type":"lpg","price":0.849,"self":false,"updatedAt":"29/06/2026 08:52:21"}]},{"id":"59027","lat":37.924436,"lon":12.545671,"name":"MOIL","brand":"Pompe Bianche","address":"S.S. 115KM 11+580 C/D RILIEVO SNC 91031, MISILISCEMI, TP","prices":[{"type":"petrol","price":1.799,"self":true,"updatedAt":"29/06/2026 10:39:41"},{"type":"diesel","price":1.899,"self":true,"updatedAt":"29/06/2026 10:39:41"}]},{"id":"62677","lat":37.93695541842668,"lon":12.509329671758266,"name":"VIA E RINALDI","brand":"Esso","address":"VIA ENRICO SNC 91100, MISILISCEMI, TP","prices":[{"type":"petrol","price":1.839,"self":true,"updatedAt":"30/06/2026 06:01:34"},{"type":"diesel","price":1.939,"self":true,"updatedAt":"30/06/2026 06:01:34"}]},{"id":"48937","lat":37.96299327728008,"lon":12.556308209896088,"name":"ECO ENERGY SRL IP \"PACECO SS115 KM7 - VIA MARSALA\"","brand":"Api-Ip","address":"S.S.115 KM 7 (VIA MARSALA) SNC 91027, PACECO, TP","prices":[{"type":"petrol","price":1.823,"self":true,"updatedAt":"29/06/2026 13:54:23"},{"type":"diesel","price":1.912,"self":true,"updatedAt":"29/06/2026 13:54:23"}]},{"id":"37248","lat":37.9729126863411,"lon":12.525383681058884,"name":"ECOLGAS PACECO","brand":"Esso","address":"S.P.21 KM.5,270 SN 91027, PACECO, TP","prices":[{"type":"petrol","price":1.799,"self":true,"updatedAt":"29/06/2026 18:05:42"},{"type":"diesel","price":1.899,"self":true,"updatedAt":"29/06/2026 18:05:42"},{"type":"lpg","price":0.869,"self":false,"updatedAt":"29/06/2026 18:05:42"}]},{"id":"61240","lat":37.98664,"lon":12.55564,"name":"ENILIVE PACECO","brand":"Agip Eni","address":"Via Drago di Ferro 165 91027, PACECO, TP","prices":[{"type":"petrol","price":1.824,"self":true,"updatedAt":"27/06/2026 11:11:14"},{"type":"diesel","price":1.894,"self":true,"updatedAt":"27/06/2026 11:11:14"},{"type":"lpg","price":0.892,"self":false,"updatedAt":"27/06/2026 11:11:13"}]},{"id":"33235","lat":37.9794961,"lon":12.5587867,"name":"ESSO Paceco","brand":"Esso","address":"Via Torre Arsa  91027, PACECO, TP","prices":[{"type":"petrol","price":1.829,"self":true,"updatedAt":"29/06/2026 09:48:09"},{"type":"diesel","price":1.899,"self":true,"updatedAt":"29/06/2026 09:48:09"}]},{"id":"32244","lat":37.98306130148299,"lon":12.53123106672058,"name":"IP","brand":"Api-Ip","address":"Strada Statale, Km. 3,900 dir. MARSALA 0 91027, PACECO, TP","prices":[{"type":"petrol","price":1.799,"self":true,"updatedAt":"26/06/2026 14:39:20"},{"type":"diesel","price":1.899,"self":true,"updatedAt":"26/06/2026 14:39:20"}]},{"id":"48536","lat":37.93834532080238,"lon":12.708413004875178,"name":"GAN- Gruppo Gandolfo","brand":"GAN","address":"SS113 KM 361+245  91100, TRAPANI, TP","prices":[{"type":"petrol","price":1.889,"self":true,"updatedAt":"29/06/2026 10:02:25"},{"type":"diesel","price":1.989,"self":true,"updatedAt":"29/06/2026 10:02:25"},{"type":"lpg","price":0.869,"self":false,"updatedAt":"29/06/2026 10:02:25"}]},{"id":"32237","lat":37.94313738444895,"lon":12.510839344774695,"name":"ip","brand":"Api-Ip","address":"CONTRADA MARAUSA - VIA E. RINALDI 26/A 91100, TRAPANI, TP","prices":[{"type":"petrol","price":1.839,"self":true,"updatedAt":"26/06/2026 14:38:29"},{"type":"diesel","price":1.939,"self":true,"updatedAt":"26/06/2026 14:38:29"}]},{"id":"39740","lat":37.930947434228955,"lon":12.550251111388206,"name":"Q8 GUARRATO","brand":"Q8","address":"VIA MARSALA  GUARRATO 132 91100, TRAPANI, TP","prices":[{"type":"petrol","price":1.799,"self":true,"updatedAt":"29/06/2026 08:23:02"},{"type":"diesel","price":1.899,"self":true,"updatedAt":"29/06/2026 08:23:02"}]}]