[{"id":"54629","lat":38.02092568048786,"lon":12.881226104893502,"name":"eni","brand":"Agip Eni","address":"FRANCESCO CRISPI 29 91014, CASTELLAMMARE DEL GOLFO, TP","prices":[{"type":"petrol","price":1.824,"self":true,"updatedAt":"29/06/2026 00:19:30"},{"type":"diesel","price":1.894,"self":true,"updatedAt":"29/06/2026 06:32:09"}]},{"id":"58608","lat":38.018611,"lon":12.883982,"name":"ESSO","brand":"Esso","address":"Via Francesco Crispi 140  91014, CASTELLAMMARE DEL GOLFO, TP","prices":[{"type":"petrol","price":1.887,"self":true,"updatedAt":"27/06/2026 08:24:18"},{"type":"diesel","price":1.957,"self":true,"updatedAt":"27/06/2026 08:24:18"}]},{"id":"30332","lat":38.01676559718973,"lon":12.88912609219551,"name":"FURCO","brand":"Agip Eni","address":"CONTRADA GEMMA D'ORO  S.N 91014, CASTELLAMMARE DEL GOLFO, TP","prices":[{"type":"petrol","price":1.799,"self":true,"updatedAt":"28/06/2026 00:56:41"},{"type":"diesel","price":1.899,"self":true,"updatedAt":"28/06/2026 00:56:41"}]},{"id":"12859","lat":38.02663155410556,"lon":12.885944358266443,"name":"GP PETROLI","brand":"Pompe Bianche","address":"VIA G. MARCONI 165 91014, CASTELLAMMARE DEL GOLFO, TP","prices":[{"type":"petrol","price":1.775,"self":true,"updatedAt":"24/06/2026 07:16:17"},{"type":"diesel","price":1.869,"self":true,"updatedAt":"24/06/2026 07:16:17"}]},{"id":"24367","lat":38.022515610761886,"lon":12.884182780981064,"name":"LFC PETROLI-DONIZETTI","brand":"LFC PETROLI","address":"VIA DONIZZETTI 13 91014, CASTELLAMMARE DEL GOLFO, TP","prices":[{"type":"petrol","price":1.779,"self":true,"updatedAt":"25/06/2026 12:17:01"},{"type":"diesel","price":1.869,"self":true,"updatedAt":"25/06/2026 12:17:01"}]},{"id":"21378","lat":38.01569483302724,"lon":12.892033585319496,"name":"LFC PETROLI-TAVOLATELLA","brand":"LFC PETROLI","address":"VIA COMUNALE TAVOLATELLA  91014, CASTELLAMMARE DEL GOLFO, TP","prices":[{"type":"petrol","price":1.777,"self":true,"updatedAt":"25/06/2026 12:16:42"},{"type":"diesel","price":1.867,"self":true,"updatedAt":"25/06/2026 12:16:42"}]},{"id":"48032","lat":38.02085508889251,"lon":12.885233314822981,"name":"TP052","brand":"EOS","address":"VIA SEGESTA SN 91014, CASTELLAMMARE DEL GOLFO, TP","prices":[{"type":"petrol","price":1.777,"self":false,"updatedAt":"24/06/2026 07:21:03"},{"type":"diesel","price":1.867,"self":false,"updatedAt":"26/06/2026 14:24:03"}]},{"id":"49439","lat":38.02054969793001,"lon":12.877695262432093,"name":"TP104","brand":"Q8","address":"187 di Castellammare del Golfo, Km. 38 - 91014, CASTELLAMMARE DEL GOLFO, TP","prices":[{"type":"petrol","price":1.777,"self":true,"updatedAt":"24/06/2026 16:21:03"},{"type":"diesel","price":1.867,"self":true,"updatedAt":"26/06/2026 14:36:05"},{"type":"lpg","price":0.849,"self":true,"updatedAt":"24/06/2026 16:21:03"}]}]