[{"id":"25439","lat":38.15802226051311,"lon":15.53392231464386,"name":"AGIP ENI 9717","brand":"Agip Eni","address":"Statale 114 Orientale Sicula, Km. 3.570, dir. Catania - 98128, MESSINA, ME","prices":[{"type":"petrol","price":1.829,"self":true,"updatedAt":"29/06/2026 00:13:04"},{"type":"diesel","price":1.899,"self":true,"updatedAt":"29/06/2026 00:51:52"}]},{"id":"45223","lat":38.15652822361536,"lon":15.52306451104505,"name":"AREA DI SERVIZIO ENI SAN FILIPPO","brand":"Agip Eni","address":"Svincolo Autostradale San Filippo  98126, MESSINA, ME","prices":[{"type":"petrol","price":1.829,"self":true,"updatedAt":"28/06/2026 01:34:28"},{"type":"diesel","price":1.909,"self":true,"updatedAt":"28/06/2026 01:34:27"}]},{"id":"53135","lat":38.1831203,"lon":15.5436577,"name":"CAPONE CARMELO & C. S.N.C.","brand":"Esso","address":"Viale Europa c/o Ospedale Militare 154 98123, MESSINA, ME","prices":[{"type":"petrol","price":1.829,"self":true,"updatedAt":"26/06/2026 19:52:30"},{"type":"diesel","price":1.899,"self":true,"updatedAt":"26/06/2026 19:52:30"}]},{"id":"11070","lat":38.1809861409633,"lon":15.548142045736313,"name":"CONTARINO SAS DI CONTARINO M.E C.ZAERA","brand":"Agip Eni","address":"ZAERA  98100, MESSINA, ME","prices":[{"type":"petrol","price":1.829,"self":true,"updatedAt":"29/06/2026 00:13:44"},{"type":"diesel","price":1.899,"self":true,"updatedAt":"29/06/2026 00:13:44"}]},{"id":"11071","lat":38.17085339224896,"lon":15.531328618526459,"name":"CONTARINO SAS DI CONTARINO MAURILIO E C","brand":"Agip Eni","address":"VIALE GAZZI SVINC. AUTOSTRADA   98147, MESSINA, ME","prices":[{"type":"petrol","price":1.829,"self":true,"updatedAt":"29/06/2026 00:14:41"},{"type":"diesel","price":1.899,"self":true,"updatedAt":"28/06/2026 18:44:08"}]},{"id":"6039","lat":38.150856409799474,"lon":15.529805123806,"name":"contesse","brand":"Esso","address":"Statale 114 Orientale Sicula, Km. 4,500, dir. messina - 98125, MESSINA, ME","prices":[{"type":"petrol","price":1.829,"self":true,"updatedAt":"29/06/2026 07:34:37"},{"type":"diesel","price":1.919,"self":true,"updatedAt":"29/06/2026 07:34:37"}]},{"id":"23075","lat":38.11113739806819,"lon":15.51014855504036,"name":"DB","brand":"DBCarburanti","address":"Statale 114 Orientale Sicula, Km. 9,300, dir. MESSINA  98134, MESSINA, ME","prices":[{"type":"petrol","price":1.859,"self":true,"updatedAt":"25/06/2026 18:45:35"},{"type":"diesel","price":1.939,"self":true,"updatedAt":"25/06/2026 18:45:35"}]},{"id":"28595","lat":38.20400857214422,"lon":15.554344654083252,"name":"Eni","brand":"Agip Eni","address":"VIA FRATELLI DI MARI SN 98121, MESSINA, ME","prices":[{"type":"petrol","price":1.829,"self":true,"updatedAt":"29/06/2026 00:14:59"},{"type":"diesel","price":1.899,"self":true,"updatedAt":"29/06/2026 00:14:59"}]},{"id":"46200","lat":38.19838581083106,"lon":15.557209253311157,"name":"ENI Spa","brand":"Agip Eni","address":"GARIBALDI ANG. VIA CAVOUR SNC 98122, MESSINA, ME","prices":[{"type":"petrol","price":1.829,"self":true,"updatedAt":"29/06/2026 00:10:48"},{"type":"diesel","price":1.899,"self":true,"updatedAt":"28/06/2026 22:56:04"}]},{"id":"18681","lat":38.189837664732934,"lon":15.549742544362289,"name":"ENI- INTERDONATO MAURIZIO","brand":"Agip Eni","address":"T. CANNIZZARO  98100, MESSINA, ME","prices":[{"type":"petrol","price":1.859,"self":true,"updatedAt":"29/06/2026 00:51:33"},{"type":"diesel","price":1.944,"self":true,"updatedAt":"28/06/2026 23:04:15"}]},{"id":"17840","lat":38.202104339709315,"lon":15.5580585068451,"name":"esso","brand":"Esso","address":"VIA FOSSATA 2 98121, MESSINA, ME","prices":[{"type":"petrol","price":1.836,"self":false,"updatedAt":"23/06/2026 08:45:42"},{"type":"diesel","price":1.926,"self":false,"updatedAt":"23/06/2026 08:45:42"}]},{"id":"38472","lat":38.2236570254167,"lon":15.553221266131573,"name":"esso","brand":"Esso","address":"VIALE ANNUNZIATA ALTO SNC 98121, MESSINA, ME","prices":[{"type":"petrol","price":1.829,"self":true,"updatedAt":"27/06/2026 08:35:26"},{"type":"diesel","price":1.909,"self":true,"updatedAt":"27/06/2026 08:35:26"}]},{"id":"43072","lat":38.225351839352605,"lon":15.564415999999937,"name":"ESSO DI SANTAMARIA DAVIDE","brand":"Esso","address":"Strada Statale, Km. 1020, NORD - 98168, MESSINA, ME","prices":[{"type":"petrol","price":1.829,"self":true,"updatedAt":"25/06/2026 11:12:11"},{"type":"diesel","price":1.919,"self":true,"updatedAt":"25/06/2026 11:12:11"}]},{"id":"46480","lat":38.189065052641396,"lon":15.55154675381823,"name":"esso masuccio","brand":"Esso","address":"piazza natale masuccio  98123, MESSINA, ME","prices":[{"type":"petrol","price":1.859,"self":false,"updatedAt":"29/06/2026 06:21:36"},{"type":"diesel","price":1.929,"self":false,"updatedAt":"29/06/2026 06:21:36"}]},{"id":"33986","lat":38.17175243399679,"lon":15.543045273935604,"name":"IP di Angelo Silvestro","brand":"Api-Ip","address":"VIALE S.MARTINO ANG. V. CATANIA SN 98124, MESSINA, ME","prices":[{"type":"petrol","price":1.849,"self":false,"updatedAt":"29/06/2026 00:15:10"},{"type":"diesel","price":1.949,"self":false,"updatedAt":"29/06/2026 00:15:10"}]},{"id":"62367","lat":38.21538364865632,"lon":15.559791653128757,"name":"Ip Viale Regina Elena","brand":"Api-Ip","address":"Viale Regina Elena  98121, MESSINA, ME","prices":[{"type":"petrol","price":1.829,"self":true,"updatedAt":"29/06/2026 00:12:06"},{"type":"diesel","price":1.899,"self":true,"updatedAt":"29/06/2026 07:15:00"}]},{"id":"46933","lat":38.21389478877946,"lon":15.538191795349121,"name":"ME032","brand":"Q8","address":"PIAZZA ACQUEDOTTO RITIRO S.N. 98100, MESSINA, ME","prices":[{"type":"petrol","price":1.789,"self":false,"updatedAt":"25/06/2026 11:30:06"},{"type":"diesel","price":1.899,"self":false,"updatedAt":"25/06/2026 11:30:06"}]},{"id":"24758","lat":38.15539531622085,"lon":15.531795546032754,"name":"MESSINA S.S.114 KM 3+800-LOC.CONTESSE","brand":"Q8","address":"S.S.114 KM 3+800-LOC.CONTESSE  98125, MESSINA, ME","prices":[{"type":"petrol","price":1.829,"self":true,"updatedAt":"22/06/2026 16:05:03"},{"type":"diesel","price":1.919,"self":true,"updatedAt":"22/06/2026 16:05:03"}]},{"id":"43320","lat":38.2212343343361,"lon":15.565836317837238,"name":"PETROL COMPANY","brand":"Petrol Company","address":"VIA CONSOLARE POMPEA PARADISO  98168, MESSINA, ME","prices":[{"type":"petrol","price":1.799,"self":true,"updatedAt":"28/06/2026 23:26:51"},{"type":"diesel","price":1.899,"self":true,"updatedAt":"28/06/2026 23:26:51"}]},{"id":"36187","lat":38.130276767618064,"lon":15.521085262298584,"name":"Piccione Impianti S.r.l.","brand":"Api-Ip","address":"Statale 114 Orientale Sicula, Km. 6,913, dir. ME-CT - 98131, MESSINA, ME","prices":[{"type":"petrol","price":1.849,"self":true,"updatedAt":"29/06/2026 00:14:15"},{"type":"diesel","price":1.929,"self":true,"updatedAt":"29/06/2026 00:14:15"}]},{"id":"45827","lat":38.21597584988329,"lon":15.56371034557344,"name":"Q8 VIALE DELLA LIBERTA'","brand":"Q8","address":"viale della libertà 521 98100, MESSINA, ME","prices":[{"type":"petrol","price":1.799,"self":true,"updatedAt":"29/06/2026 07:55:36"},{"type":"diesel","price":1.899,"self":true,"updatedAt":"29/06/2026 07:55:36"}]},{"id":"54829","lat":38.20068,"lon":15.5559,"name":"Rifornimento IP di Andrea Santamaria","brand":"Api-Ip","address":"Via Concezione snc 98121, MESSINA, ME","prices":[{"type":"petrol","price":1.829,"self":true,"updatedAt":"22/06/2026 18:13:32"},{"type":"diesel","price":1.929,"self":true,"updatedAt":"22/06/2026 18:13:32"}]},{"id":"55921","lat":38.1568,"lon":15.51378,"name":"S. LUCIA SOPRA CONTESSE","brand":"Pompe Bianche","address":"FORNACE SN 98126, MESSINA, ME","prices":[{"type":"methane","price":1.699,"self":false,"updatedAt":"25/06/2026 21:30:44"}]},{"id":"62937","lat":38.14138785991873,"lon":15.52401745064155,"name":"S.S. 114 KM5,600","brand":"Esso","address":"S.S. 114 KM 5,600  98121, MESSINA, ME","prices":[{"type":"petrol","price":1.849,"self":true,"updatedAt":"27/06/2026 05:59:35"},{"type":"diesel","price":1.929,"self":true,"updatedAt":"27/06/2026 05:59:35"}]},{"id":"16439","lat":38.2113687672704,"lon":15.547704845666885,"name":"Self Area Eni di Arena Giuseppe","brand":"Agip Eni","address":"GIOSTRA sn 98121, MESSINA, ME","prices":[{"type":"petrol","price":1.829,"self":true,"updatedAt":"28/06/2026 23:45:23"},{"type":"diesel","price":1.899,"self":true,"updatedAt":"28/06/2026 08:46:03"}]},{"id":"45691","lat":38.219385231043,"lon":15.532527545846733,"name":"ST CAR SRL","brand":"Pompe Bianche","address":"VIALE GIOSTRA SAN MICHELE 146 98152, MESSINA, ME","prices":[{"type":"petrol","price":1.829,"self":true,"updatedAt":"24/06/2026 11:30:20"},{"type":"diesel","price":1.919,"self":true,"updatedAt":"24/06/2026 11:30:20"},{"type":"lpg","price":0.789,"self":false,"updatedAt":"24/06/2026 11:30:20"}]},{"id":"15595","lat":38.1657249118736,"lon":15.541940778493881,"name":"Staz. serv. Eni del Dott. Salvatore Ruggeri","brand":"Agip Eni","address":"UMBERTO BONINO 1 98124, MESSINA, ME","prices":[{"type":"petrol","price":1.829,"self":true,"updatedAt":"28/06/2026 23:58:24"},{"type":"diesel","price":1.899,"self":true,"updatedAt":"28/06/2026 21:22:10"}]},{"id":"44148","lat":38.16498661464653,"lon":15.538940795469557,"name":"STAZIONE DI SERV.Q8 GAZZI","brand":"Q8","address":"VIA COMUNALE TANG. GAZZI   98100, MESSINA, ME","prices":[{"type":"petrol","price":1.799,"self":true,"updatedAt":"29/06/2026 07:53:03"},{"type":"diesel","price":1.899,"self":true,"updatedAt":"29/06/2026 07:53:03"}]},{"id":"22443","lat":38.18155032266277,"lon":15.545831153506015,"name":"Stazione di Servizio Agip di Mangano Giovanni","brand":"Agip Eni","address":"V.LE EUROPA IS.43, 98100, MESSINA, ME","prices":[{"type":"petrol","price":1.829,"self":true,"updatedAt":"29/06/2026 00:10:42"},{"type":"diesel","price":1.899,"self":true,"updatedAt":"29/06/2026 00:10:42"}]},{"id":"62500","lat":38.21438256476449,"lon":15.556974350015262,"name":"Stazione di servizio di Andrea Santamaria Q8","brand":"Q8","address":"Via Leonardo Sciascia  sn 98168, MESSINA, ME","prices":[{"type":"petrol","price":1.829,"self":true,"updatedAt":"22/06/2026 18:12:15"},{"type":"diesel","price":1.919,"self":true,"updatedAt":"22/06/2026 18:12:15"}]},{"id":"28551","lat":38.19841284975505,"lon":15.547161784995183,"name":"Stazione di Servizio ENI","brand":"Agip Eni","address":"VIALE PRINCIPE UMBERTO  98122, MESSINA, ME","prices":[{"type":"petrol","price":1.829,"self":true,"updatedAt":"28/06/2026 23:28:21"},{"type":"diesel","price":1.899,"self":true,"updatedAt":"28/06/2026 18:44:07"}]},{"id":"53270","lat":38.175863,"lon":15.545566,"name":"STAZIONE DI SERVIZIO ENI DI CASABLANCA CARMELO-GIOVANNI","brand":"Agip Eni","address":"VIA CATANIA 51 98124, MESSINA, ME","prices":[{"type":"petrol","price":1.859,"self":true,"updatedAt":"28/06/2026 23:28:41"},{"type":"diesel","price":1.944,"self":true,"updatedAt":"29/06/2026 07:50:12"}]},{"id":"48884","lat":38.21209346818533,"lon":15.561857231646012,"name":"Stazione di servizio Eni di Giuseppe Ruggeri","brand":"Agip Eni","address":"DELLA LIBERTA' SN 98121, MESSINA, ME","prices":[{"type":"petrol","price":1.829,"self":true,"updatedAt":"29/06/2026 00:48:09"},{"type":"diesel","price":1.899,"self":true,"updatedAt":"28/06/2026 20:52:05"}]},{"id":"34388","lat":38.175872711645475,"lon":15.545554049313068,"name":"stazione di servizio eni di Licandro Angelo","brand":"Agip Eni","address":"VIA CATANIA ANG. VIA LUCANIA SNC 98124, MESSINA, ME","prices":[{"type":"petrol","price":1.859,"self":true,"updatedAt":"28/06/2026 23:33:32"},{"type":"diesel","price":1.944,"self":true,"updatedAt":"29/06/2026 07:26:16"}]},{"id":"59700","lat":38.16836,"lon":15.5336,"name":"Stazione di Servizio IP di Domenico Santoro","brand":"Api-Ip","address":"Viale Gazzi 2 98147, MESSINA, ME","prices":[{"type":"petrol","price":1.819,"self":true,"updatedAt":"29/06/2026 07:28:37"},{"type":"diesel","price":1.899,"self":true,"updatedAt":"29/06/2026 07:28:37"}]},{"id":"21873","lat":38.152685306928234,"lon":15.530312061309814,"name":"Stazione di servizio IP di Giovanni Crupi","brand":"Api-Ip","address":"Statale 114 Orientale Sicula, Km. 4,260, dir. catania - 98123, MESSINA, ME","prices":[{"type":"petrol","price":1.829,"self":true,"updatedAt":"29/06/2026 00:15:41"},{"type":"diesel","price":1.919,"self":true,"updatedAt":"29/06/2026 00:15:41"}]},{"id":"33127","lat":38.1877157879704,"lon":15.560038983821869,"name":"Stazione di Servizio Ip di Giovanni Crupi 2","brand":"Api-Ip","address":"VIA LUIGI RIZZO   98123, MESSINA, ME","prices":[{"type":"petrol","price":1.829,"self":true,"updatedAt":"29/06/2026 00:12:50"},{"type":"diesel","price":1.919,"self":true,"updatedAt":"29/06/2026 00:12:50"}]},{"id":"51874","lat":38.161877683962594,"lon":15.541808372249273,"name":"Stazione di Servizio IP di Micalizzi Pietro","brand":"Api-Ip","address":"VIA ENRICO FERMI, Z.I.R. SNC 98124, MESSINA, ME","prices":[{"type":"petrol","price":1.849,"self":false,"updatedAt":"29/06/2026 00:10:44"},{"type":"diesel","price":1.939,"self":false,"updatedAt":"29/06/2026 00:10:44"}]},{"id":"11407","lat":38.22612653762879,"lon":15.568300187587738,"name":"Stazione di Servizio IP di Raineri Mario","brand":"Api-Ip","address":"Via Consolare Pompea località Paradiso  98100, MESSINA, ME","prices":[{"type":"petrol","price":1.799,"self":true,"updatedAt":"29/06/2026 00:10:22"},{"type":"diesel","price":1.899,"self":true,"updatedAt":"29/06/2026 00:10:22"}]},{"id":"55010","lat":38.148471,"lon":15.5122121,"name":"Stazione di servizio Q8 Piccione impianti srl","brand":"Q8","address":"Via S. Raineri 2 98122, MESSINA, ME","prices":[{"type":"petrol","price":1.829,"self":true,"updatedAt":"29/06/2026 07:11:19"},{"type":"diesel","price":1.899,"self":true,"updatedAt":"29/06/2026 07:11:19"},{"type":"lpg","price":0.789,"self":false,"updatedAt":"29/06/2026 07:11:19"}]},{"id":"42024","lat":38.2088125316518,"lon":15.558527559041977,"name":"STAZIONE Q8","brand":"Q8","address":"VIA REGINA ELENA 87 98158, MESSINA, ME","prices":[{"type":"petrol","price":1.809,"self":true,"updatedAt":"29/06/2026 07:51:16"},{"type":"diesel","price":1.909,"self":true,"updatedAt":"29/06/2026 07:51:16"}]},{"id":"56179","lat":38.1676891,"lon":15.5339288,"name":"Stazione servizio erg","brand":"Pompe Bianche","address":"ROSSO DA MESSINA SNC 98147, MESSINA, ME","prices":[{"type":"petrol","price":2.371,"self":false,"updatedAt":"27/06/2026 08:27:44"},{"type":"diesel","price":2.365,"self":false,"updatedAt":"27/06/2026 08:27:44"}]},{"id":"36923","lat":38.18678628193867,"lon":15.53580790758133,"name":"Tiger Bar Pan.Da. sas","brand":"Esso","address":"VIALE DELLA MARINA RUSSA SN 98149, MESSINA, ME","prices":[{"type":"petrol","price":1.829,"self":true,"updatedAt":"26/06/2026 08:40:01"},{"type":"diesel","price":1.919,"self":true,"updatedAt":"26/06/2026 08:40:01"}]},{"id":"3986","lat":38.13374981345842,"lon":15.521857738494873,"name":"TREMESTIERI EST","brand":"Esso","address":"Autostrada A18 MESSINA-CATANIA, Km. 0, dir. nord - 98128, MESSINA, ME","prices":[{"type":"petrol","price":1.879,"self":true,"updatedAt":"23/06/2026 13:12:21"},{"type":"diesel","price":1.979,"self":true,"updatedAt":"23/06/2026 13:12:21"},{"type":"lpg","price":0.799,"self":false,"updatedAt":"23/06/2026 13:12:21"}]},{"id":"61608","lat":38.1485056,"lon":15.515648,"name":"TREMESTIERI OVEST","brand":"Agip Eni","address":"Autostrada A20 MESSINA-PALERMO,  Km. 1500, dir. catania 98128, MESSINA, ME","prices":[{"type":"petrol","price":1.879,"self":true,"updatedAt":"29/06/2026 00:23:41"},{"type":"diesel","price":1.959,"self":true,"updatedAt":"29/06/2026 00:23:41"},{"type":"lpg","price":0.809,"self":false,"updatedAt":"29/06/2026 00:23:41"}]},{"id":"62923","lat":38.21679904377289,"lon":15.565097486473464,"name":"VIALE LIBERTA' 76","brand":"Esso","address":"Viale della Libertà 76  98121, MESSINA, ME","prices":[{"type":"petrol","price":1.829,"self":false,"updatedAt":"27/06/2026 05:59:36"},{"type":"diesel","price":1.899,"self":false,"updatedAt":"27/06/2026 05:59:36"}]},{"id":"31042","lat":38.208755388990824,"lon":15.55860609755041,"name":"VIALE REGINA ELENA MESSINA","brand":"Giap","address":"VIALE REGINA ELENA  98100, MESSINA, ME","prices":[{"type":"petrol","price":1.829,"self":true,"updatedAt":"27/06/2026 05:59:32"},{"type":"diesel","price":1.899,"self":true,"updatedAt":"27/06/2026 05:59:32"}]},{"id":"54918","lat":38.0043264,"lon":15.6762112,"name":"Laverde Maurizio","brand":"Agip Eni","address":"Via Marchese 2 89032, BIANCO, RC","prices":[{"type":"petrol","price":1.789,"self":true,"updatedAt":"29/06/2026 00:38:29"},{"type":"diesel","price":1.834,"self":true,"updatedAt":"29/06/2026 00:38:29"}]},{"id":"54552","lat":38.215022540519804,"lon":15.656809072106002,"name":"Stazione Di Servizio di Nocera Giuseppe","brand":"Agip Eni","address":"Piazza crea  Snc 89052, CAMPO CALABRO, RC","prices":[{"type":"petrol","price":1.829,"self":true,"updatedAt":"29/06/2026 00:35:30"},{"type":"diesel","price":1.889,"self":true,"updatedAt":"29/06/2026 06:58:13"}]},{"id":"41898","lat":38.21015770673037,"lon":15.661815315344256,"name":"TAMOIL","brand":"Tamoil","address":"Via Risorgimento 280 89052, CAMPO CALABRO, RC","prices":[{"type":"petrol","price":1.799,"self":true,"updatedAt":"28/06/2026 23:29:24"},{"type":"diesel","price":1.889,"self":true,"updatedAt":"28/06/2026 23:29:23"}]},{"id":"54340","lat":38.14979700400567,"lon":15.657170079132984,"name":"AP PETROLI S.R.L.","brand":"AP Petroli S.R.L.","address":"Via Vecchia Provinciale SNC 89121, REGGIO DI CALABRIA, RC","prices":[{"type":"petrol","price":1.817,"self":true,"updatedAt":"24/06/2026 13:19:48"},{"type":"diesel","price":1.907,"self":true,"updatedAt":"24/06/2026 13:19:48"}]},{"id":"46323","lat":38.11587417509245,"lon":15.652891017791035,"name":"3066","brand":"Tamoil","address":"AMENDOLA SNC 89123, REGGIO DI CALABRIA, RC","prices":[{"type":"petrol","price":1.779,"self":true,"updatedAt":"28/06/2026 00:06:19"},{"type":"diesel","price":1.879,"self":true,"updatedAt":"29/06/2026 00:08:44"}]},{"id":"61650","lat":38.1685,"lon":15.6527,"name":"888 OIL SAS di SAL MELISSARI & CO","brand":"Agip Eni","address":"PIAZZA CALVARIO REGGIO CALABRIA SNC 89135, REGGIO DI CALABRIA, RC","prices":[{"type":"petrol","price":1.819,"self":true,"updatedAt":"29/06/2026 00:39:20"},{"type":"diesel","price":1.899,"self":true,"updatedAt":"29/06/2026 00:39:20"}]},{"id":"60237","lat":38.116413650849964,"lon":15.65376103305816,"name":"888 OIL SRLS","brand":"Esso","address":"Viale Amendola snc 89123, REGGIO DI CALABRIA, RC","prices":[{"type":"petrol","price":1.899,"self":true,"updatedAt":"25/06/2026 12:20:11"},{"type":"diesel","price":1.989,"self":true,"updatedAt":"25/06/2026 12:20:11"}]},{"id":"8925","lat":38.099091304633035,"lon":15.64274248710251,"name":"annunziato iacopino","brand":"Agip Eni","address":"VIA SBARRE CENTRALI 78 89132, REGGIO DI CALABRIA, RC","prices":[{"type":"petrol","price":1.829,"self":true,"updatedAt":"29/06/2026 00:39:45"},{"type":"diesel","price":1.899,"self":true,"updatedAt":"29/06/2026 00:39:45"}]},{"id":"60509","lat":38.17932,"lon":15.64792,"name":"B&G RETE 05","brand":"Pompe Bianche","address":"NAZIONALE, LOC. CATONA SNC 89134, REGGIO DI CALABRIA, RC","prices":[{"type":"petrol","price":1.779,"self":true,"updatedAt":"28/06/2026 01:16:38"},{"type":"diesel","price":1.879,"self":true,"updatedAt":"28/06/2026 01:16:38"}]},{"id":"60550","lat":38.08526,"lon":15.64206,"name":"B&G RETE 06","brand":"Pompe Bianche","address":"Viale Calabria, REGGIO DI CALABRIA, RC","prices":[{"type":"petrol","price":1.789,"self":true,"updatedAt":"28/06/2026 23:19:29"},{"type":"diesel","price":1.879,"self":true,"updatedAt":"28/06/2026 23:19:29"}]},{"id":"14033","lat":38.100589689283126,"lon":15.653247088193893,"name":"CANALE GROUP","brand":"Edison metano","address":"ARGINE SINISTRO CALOPINACE SNC 89128, REGGIO DI CALABRIA, RC","prices":[{"type":"methane","price":1.899,"self":false,"updatedAt":"26/06/2026 16:05:38"}]},{"id":"42667","lat":38.101547184547265,"lon":15.640137769380999,"name":"Chirico Francesco","brand":"Agip Eni","address":"ARGINE DX CALOPINACE SNC 89127, REGGIO DI CALABRIA, RC","prices":[{"type":"methane","price":1.899,"self":false,"updatedAt":"25/06/2026 12:43:48"}]},{"id":"18760","lat":38.101547184547265,"lon":15.640137769380999,"name":"Chirico Francesco","brand":"Pompe Bianche","address":"ARGINE DX CALOPINACE SNC 89127, REGGIO DI CALABRIA, RC","prices":[{"type":"petrol","price":1.789,"self":true,"updatedAt":"25/06/2026 12:44:24"},{"type":"diesel","price":1.859,"self":true,"updatedAt":"25/06/2026 12:44:24"}]},{"id":"55126","lat":38.1087704,"lon":15.6529945,"name":"Clemenze Carburanti SRL","brand":"Esso","address":"CARDINALE PORTANOVA 17 89124, REGGIO DI CALABRIA, RC","prices":[{"type":"petrol","price":1.839,"self":true,"updatedAt":"29/06/2026 00:37:53"},{"type":"diesel","price":1.939,"self":true,"updatedAt":"29/06/2026 00:37:53"}]},{"id":"52369","lat":38.14160658776498,"lon":15.657236334289152,"name":"CORONA PETROLI","brand":"Pompe Bianche","address":"PARCO PENTIMELE SNC 89122, REGGIO DI CALABRIA, RC","prices":[{"type":"petrol","price":1.779,"self":true,"updatedAt":"26/06/2026 12:47:45"},{"type":"diesel","price":1.859,"self":true,"updatedAt":"26/06/2026 12:47:45"}]},{"id":"59118","lat":38.12393,"lon":15.73658,"name":"CORONA PETROLI - STR. SANTA DOMENICA","brand":"Pompe Bianche","address":"Str. Santa Domenica SNC 89135, REGGIO DI CALABRIA, RC","prices":[{"type":"petrol","price":1.989,"self":true,"updatedAt":"26/06/2026 06:35:05"},{"type":"diesel","price":2.039,"self":true,"updatedAt":"26/06/2026 06:35:05"}]},{"id":"14264","lat":38.09745049491151,"lon":15.719409825017806,"name":"Distrib.Q8 di Pellicano' Domenico","brand":"Q8","address":"S.SPERATO MOSORROFA II^ TRATTO N.141 89133, REGGIO DI CALABRIA, RC","prices":[{"type":"petrol","price":1.889,"self":true,"updatedAt":"24/06/2026 18:17:42"},{"type":"diesel","price":1.959,"self":true,"updatedAt":"24/06/2026 18:17:42"}]},{"id":"7499","lat":38.02492655347248,"lon":15.650463132458185,"name":"Distributore Agip 8835 di Legato Pietro","brand":"Agip Eni","address":"PIAZZA VITTORIO VENETO  89134, REGGIO DI CALABRIA, RC","prices":[{"type":"petrol","price":1.859,"self":false,"updatedAt":"29/06/2026 00:36:10"},{"type":"diesel","price":1.954,"self":false,"updatedAt":"29/06/2026 00:36:10"}]},{"id":"38574","lat":38.044507394563645,"lon":15.6570565700531,"name":"Easy Service Pellaro","brand":"Energas","address":"S.S. 106 Km. 9+400 Fraz. Pellaro  89100, REGGIO DI CALABRIA, RC","prices":[{"type":"petrol","price":1.836,"self":true,"updatedAt":"29/06/2026 00:28:17"},{"type":"diesel","price":1.936,"self":true,"updatedAt":"29/06/2026 00:28:17"}]},{"id":"41717","lat":38.19937018375084,"lon":15.635972321033478,"name":"ENERGAS","brand":"Q8","address":"18 Tirrena Inferiore, Km. 0, VILLA SAN GIOVANNI - 89053, REGGIO DI CALABRIA, RC","prices":[{"type":"petrol","price":1.949,"self":false,"updatedAt":"29/06/2026 07:35:33"},{"type":"diesel","price":2.159,"self":false,"updatedAt":"29/06/2026 07:35:33"},{"type":"lpg","price":0.999,"self":false,"updatedAt":"29/06/2026 07:35:33"}]},{"id":"34248","lat":38.0959149565507,"lon":15.648845583200455,"name":"Energas Reggio Viale Europa","brand":"Energas","address":"Viale Europa snc 89100, REGGIO DI CALABRIA, RC","prices":[{"type":"petrol","price":1.819,"self":true,"updatedAt":"29/06/2026 00:27:50"},{"type":"diesel","price":1.919,"self":true,"updatedAt":"29/06/2026 00:27:50"}]},{"id":"28039","lat":38.09055426673513,"lon":15.656141191720963,"name":"Energas Viale Laboccetta","brand":"Energas","address":"VIA LABOCCETTA  89134, REGGIO DI CALABRIA, RC","prices":[{"type":"petrol","price":1.819,"self":false,"updatedAt":"29/06/2026 00:28:04"},{"type":"diesel","price":1.919,"self":false,"updatedAt":"29/06/2026 00:28:04"},{"type":"lpg","price":0.999,"self":false,"updatedAt":"29/06/2026 00:28:04"}]},{"id":"10181","lat":38.10360751607276,"lon":15.651742368936539,"name":"ENI DI LUVARA' PASQUALE","brand":"Agip Eni","address":"VIA PASQUALE ANDILORO 4 89126, REGGIO DI CALABRIA, RC","prices":[{"type":"petrol","price":1.829,"self":true,"updatedAt":"29/06/2026 00:35:44"},{"type":"diesel","price":1.899,"self":true,"updatedAt":"29/06/2026 00:35:44"}]},{"id":"11178","lat":38.11628517270294,"lon":15.653189744956308,"name":"eni impianto 18819 di mandalari pasquale","brand":"Agip Eni","address":"via roma 106 89123, REGGIO DI CALABRIA, RC","prices":[{"type":"petrol","price":1.829,"self":true,"updatedAt":"29/06/2026 00:38:04"},{"type":"diesel","price":1.889,"self":true,"updatedAt":"29/06/2026 06:04:18"}]},{"id":"24126","lat":38.134099214984346,"lon":15.657451539950557,"name":"ENI Pentimele","brand":"Agip Eni","address":"NAZIONALE PENTIMELE SS18 18 89122, REGGIO DI CALABRIA, RC","prices":[{"type":"petrol","price":1.829,"self":true,"updatedAt":"29/06/2026 00:41:08"},{"type":"diesel","price":1.899,"self":true,"updatedAt":"29/06/2026 00:41:08"}]},{"id":"20090","lat":38.078062317758935,"lon":15.649874200770682,"name":"ENI STATION MASUCCI MASSIMO IMPIANTO 55012","brand":"Agip Eni","address":"Via Ravagnese  89100, REGGIO DI CALABRIA, RC","prices":[{"type":"petrol","price":1.829,"self":true,"updatedAt":"29/06/2026 00:22:55"},{"type":"diesel","price":1.889,"self":true,"updatedAt":"29/06/2026 00:22:55"}]},{"id":"54546","lat":38.09062731666107,"lon":15.644049793481827,"name":"Enjoservice sas","brand":"Agip Eni","address":"SBARRE CENTRALI 310 89132, REGGIO DI CALABRIA, RC","prices":[{"type":"petrol","price":1.829,"self":true,"updatedAt":"29/06/2026 00:41:26"},{"type":"diesel","price":1.899,"self":true,"updatedAt":"29/06/2026 06:52:19"}]},{"id":"11997","lat":38.0880822569362,"lon":15.63553512096405,"name":"Esso Laganà D.A.M. s.n.c.","brand":"Esso","address":"Viale Aldo Moro 41 89129, REGGIO DI CALABRIA, RC","prices":[{"type":"petrol","price":1.829,"self":true,"updatedAt":"27/06/2026 11:16:39"},{"type":"diesel","price":1.879,"self":true,"updatedAt":"27/06/2026 11:16:39"}]},{"id":"55998","lat":38.125798844247676,"lon":15.656215958297253,"name":"Greco Claudio Domenico","brand":"Esso","address":"Via Enotria 21  89122, REGGIO DI CALABRIA, RC","prices":[{"type":"petrol","price":1.829,"self":true,"updatedAt":"29/06/2026 06:30:40"},{"type":"diesel","price":1.919,"self":true,"updatedAt":"29/06/2026 06:30:40"}]},{"id":"16262","lat":38.08658760517097,"lon":15.679400637745857,"name":"Impianto ip di Romeo Giuseppe","brand":"Api-Ip","address":"VIA CHIESA MADRE  89131, REGGIO DI CALABRIA, RC","prices":[{"type":"petrol","price":1.849,"self":false,"updatedAt":"24/06/2026 06:43:13"},{"type":"diesel","price":1.899,"self":false,"updatedAt":"24/06/2026 06:43:13"}]},{"id":"52182","lat":38.11610838739189,"lon":15.658456943929195,"name":"IP - VIA CARDINALE PORTANOVA","brand":"Api-Ip","address":"VIA CARDINALE PORTANOVA SNC 89124, REGGIO DI CALABRIA, RC","prices":[{"type":"petrol","price":1.899,"self":true,"updatedAt":"26/06/2026 17:06:15"},{"type":"diesel","price":1.979,"self":true,"updatedAt":"26/06/2026 17:06:15"}]},{"id":"52183","lat":38.10989224145097,"lon":15.649901703000069,"name":"IP - VIA POSSIDONEA","brand":"Api-Ip","address":"VIA POSSIDONEA SNC 89125, REGGIO DI CALABRIA, RC","prices":[{"type":"petrol","price":1.899,"self":true,"updatedAt":"26/06/2026 17:06:24"},{"type":"diesel","price":1.979,"self":true,"updatedAt":"26/06/2026 17:06:24"}]},{"id":"52327","lat":38.104586779605185,"lon":15.637341684235619,"name":"Melissari Salvatore","brand":"Agip Eni","address":"Missori  89129, REGGIO DI CALABRIA, RC","prices":[{"type":"petrol","price":1.829,"self":true,"updatedAt":"29/06/2026 00:36:24"},{"type":"diesel","price":1.899,"self":true,"updatedAt":"29/06/2026 00:36:24"}]},{"id":"57264","lat":38.11496311766663,"lon":15.65185,"name":"Opus station","brand":"MyOil","address":"DE NAVA SNC 89123, REGGIO DI CALABRIA, RC","prices":[{"type":"petrol","price":1.799,"self":true,"updatedAt":"24/06/2026 15:34:48"},{"type":"diesel","price":1.899,"self":true,"updatedAt":"24/06/2026 15:34:48"}]},{"id":"55679","lat":38.080387,"lon":15.664536,"name":"PANORAMIC STOP & C. S..A.S","brand":"Itala Petroli","address":"ANTONIO SCOPELLITI snc 89135, REGGIO DI CALABRIA, RC","prices":[{"type":"petrol","price":1.659,"self":true,"updatedAt":"27/05/2026 23:35:15"},{"type":"diesel","price":1.669,"self":true,"updatedAt":"27/05/2026 23:35:15"}]},{"id":"36407","lat":38.1221670056872,"lon":15.656727254390717,"name":"Pizzimenti Francesco","brand":"Q8","address":"via Manfroce 25 89122, REGGIO DI CALABRIA, RC","prices":[{"type":"petrol","price":1.829,"self":false,"updatedAt":"26/06/2026 06:19:21"},{"type":"diesel","price":1.929,"self":false,"updatedAt":"26/06/2026 06:19:21"}]},{"id":"61883","lat":38.1165205,"lon":15.6516554,"name":"PP82","brand":"Api-Ip","address":"Viale Roma  89123, REGGIO DI CALABRIA, RC","prices":[{"type":"petrol","price":1.889,"self":true,"updatedAt":"29/06/2026 00:27:11"},{"type":"diesel","price":1.969,"self":true,"updatedAt":"29/06/2026 00:27:11"}]},{"id":"38372","lat":38.02731757863101,"lon":15.655340552330017,"name":"PV 18805","brand":"Agip Eni","address":"Statale 106 Jonica, Km. 11, dir. Sud - 89134, REGGIO DI CALABRIA, RC","prices":[{"type":"petrol","price":1.829,"self":true,"updatedAt":"28/06/2026 23:26:46"},{"type":"diesel","price":1.889,"self":true,"updatedAt":"28/06/2026 23:26:46"},{"type":"lpg","price":0.772,"self":false,"updatedAt":"28/06/2026 23:26:46"}]},{"id":"37240","lat":38.10454251475035,"lon":15.649871192872524,"name":"q8","brand":"Q8","address":"VIA REGGIO CAMPI I TRONCO 112 89126, REGGIO DI CALABRIA, RC","prices":[{"type":"petrol","price":1.829,"self":true,"updatedAt":"27/06/2026 07:33:51"},{"type":"diesel","price":1.919,"self":true,"updatedAt":"27/06/2026 07:33:51"}]},{"id":"36120","lat":38.1148474355281,"lon":15.650148472821911,"name":"Q8 PIAZZA INDIPENDENZA","brand":"Q8","address":"via stradella giuffre lll 36 89123, REGGIO DI CALABRIA, RC","prices":[{"type":"petrol","price":1.899,"self":true,"updatedAt":"26/06/2026 07:43:17"},{"type":"diesel","price":1.999,"self":true,"updatedAt":"26/06/2026 07:43:17"}]},{"id":"31666","lat":38.1192957582792,"lon":15.656927414238453,"name":"q8 via ibico","brand":"Q8","address":"VIA IBICO snc 89123, REGGIO DI CALABRIA, RC","prices":[{"type":"petrol","price":1.889,"self":true,"updatedAt":"26/06/2026 07:42:44"},{"type":"diesel","price":1.999,"self":true,"updatedAt":"26/06/2026 07:42:44"}]},{"id":"58727","lat":38.08255020391236,"lon":15.647213459014852,"name":"RC VIA PADOVA","brand":"Energas","address":"Via Padova, REGGIO DI CALABRIA, RC","prices":[{"type":"petrol","price":1.829,"self":true,"updatedAt":"28/06/2026 01:06:38"},{"type":"diesel","price":1.879,"self":true,"updatedAt":"28/06/2026 01:06:38"},{"type":"lpg","price":0.999,"self":false,"updatedAt":"28/06/2026 23:18:15"}]},{"id":"60033","lat":38.080297,"lon":15.664749,"name":"REGGIO CALABRIA","brand":"Api-Ip","address":"S.DA STATALE 106 JONICA KM 13,500  89066, REGGIO DI CALABRIA, RC","prices":[{"type":"petrol","price":1.836,"self":true,"updatedAt":"26/06/2026 10:48:00"},{"type":"diesel","price":1.936,"self":true,"updatedAt":"26/06/2026 10:48:00"}]},{"id":"22299","lat":38.09998455710187,"lon":15.656148271163943,"name":"REGGIO DI CALABRIA - CALOPINACE","brand":"Api-Ip","address":"BRETELLA SX CALOPINACE  89128, REGGIO DI CALABRIA, RC","prices":[{"type":"petrol","price":1.819,"self":true,"updatedAt":"28/06/2026 09:05:47"},{"type":"diesel","price":1.919,"self":true,"updatedAt":"28/06/2026 09:05:47"}]},{"id":"25479","lat":38.10760844201815,"lon":15.666316093254068,"name":"REGGIO DI CALABRIA - CAMPI","brand":"Api-Ip","address":"VIA REGGIO CAMPI II TRONCO  89126, REGGIO DI CALABRIA, RC","prices":[{"type":"petrol","price":1.829,"self":true,"updatedAt":"28/06/2026 09:05:48"},{"type":"diesel","price":1.929,"self":true,"updatedAt":"28/06/2026 09:05:48"}]},{"id":"6783","lat":38.017667848214025,"lon":15.643430159524542,"name":"REGGIO DI CALABRIA SS 106 KM 13+500 PELLARO","brand":"Q8","address":"SS 106 KM 13+500 PELLARO SNC 89134, REGGIO DI CALABRIA, RC","prices":[{"type":"petrol","price":1.819,"self":true,"updatedAt":"26/06/2026 16:08:26"},{"type":"diesel","price":1.889,"self":true,"updatedAt":"26/06/2026 16:08:26"}]},{"id":"6781","lat":38.087537663307046,"lon":15.634969163229357,"name":"REGGIO DI CALABRIA VIALE A. MORO DISTRIBUTORE Q8","brand":"Q8","address":"VIALE A. MORO DISTRIBUTORE Q8 SNC 89129, REGGIO DI CALABRIA, RC","prices":[{"type":"petrol","price":1.829,"self":true,"updatedAt":"26/06/2026 16:38:40"},{"type":"diesel","price":1.879,"self":true,"updatedAt":"26/06/2026 16:38:40"}]},{"id":"17692","lat":38.13223164689957,"lon":15.65645900859829,"name":"REGGIO SS 18","brand":"Api-Ip","address":"Statale 18 Tirrena Inferiore, Km. I TRT, dir. REGGIO - 89122, REGGIO DI CALABRIA, RC","prices":[{"type":"petrol","price":1.809,"self":true,"updatedAt":"28/06/2026 09:08:21"},{"type":"diesel","price":1.909,"self":true,"updatedAt":"28/06/2026 09:08:21"}]},{"id":"33355","lat":38.18568958028744,"lon":15.64458355307579,"name":"RIFORNIM.TAMOIL DI MANDICA SERGIO","brand":"Tamoil","address":"VIA NAZIONALE SS 18 KM.525+770 snc 89053, REGGIO DI CALABRIA, RC","prices":[{"type":"petrol","price":1.789,"self":true,"updatedAt":"29/06/2026 00:08:19"},{"type":"diesel","price":1.889,"self":true,"updatedAt":"29/06/2026 00:08:19"}]},{"id":"56061","lat":38.0645211,"lon":15.6622601,"name":"Saracinello petroli sas","brand":"Esso","address":"SARACINELLO  S.S.106 KM 7,082 SNc 89134, REGGIO DI CALABRIA, RC","prices":[{"type":"petrol","price":1.826,"self":true,"updatedAt":"29/06/2026 06:31:26"},{"type":"diesel","price":1.906,"self":true,"updatedAt":"29/06/2026 06:31:26"}]},{"id":"36743","lat":38.18766687799029,"lon":15.643350407481194,"name":"SCOPELLITI DOMENICO STAZIONE Q8","brand":"Q8","address":"NAZIONALE 18 SNC 89135, REGGIO DI CALABRIA, RC","prices":[{"type":"petrol","price":1.899,"self":true,"updatedAt":"27/06/2026 16:06:45"},{"type":"diesel","price":1.999,"self":true,"updatedAt":"27/06/2026 16:06:45"}]},{"id":"52839","lat":38.07739170000001,"lon":15.6940454,"name":"Stazione di Rifornimento IP Pellicano' Antonio","brand":"Api-Ip","address":"VIA VIA RAVAGNESE SUP. 43 89121, REGGIO CALABRIA (RC) 43 89131, REGGIO DI CALABRIA, RC","prices":[{"type":"petrol","price":1.819,"self":true,"updatedAt":"20/06/2026 22:20:21"},{"type":"diesel","price":1.949,"self":true,"updatedAt":"20/06/2026 22:20:21"}]},{"id":"10800","lat":38.12158543642706,"lon":15.65344624221325,"name":"Stazione di servizio ESSO di Gravagna Concetta","brand":"Esso","address":"VIA MANFROCE 7 89123, REGGIO DI CALABRIA, RC","prices":[{"type":"petrol","price":1.799,"self":true,"updatedAt":"26/06/2026 07:24:02"},{"type":"diesel","price":1.899,"self":true,"updatedAt":"26/06/2026 07:24:02"}]},{"id":"49565","lat":38.09962890098939,"lon":15.642482787370676,"name":"Stazione di servizio Esso di Logiudice Demetrio","brand":"Esso","address":"VIA SBARRE CENTRALI 64 89133, REGGIO CALABRIA (RC) 64 89133, REGGIO DI CALABRIA, RC","prices":[{"type":"petrol","price":1.989,"self":true,"updatedAt":"26/06/2026 09:26:40"},{"type":"diesel","price":2.099,"self":true,"updatedAt":"26/06/2026 09:26:40"}]},{"id":"45861","lat":38.0994246,"lon":15.6497391,"name":"STAZIONE DI SERVIZIO PELLICANO' PNEUMATICI & CARBURANTI","brand":"Pompe Bianche","address":"VIA PIO XI 139 89133, REGGIO DI CALABRIA, RC","prices":[{"type":"petrol","price":1.812,"self":true,"updatedAt":"28/06/2026 22:00:25"},{"type":"diesel","price":1.913,"self":true,"updatedAt":"28/06/2026 22:00:25"}]},{"id":"38432","lat":38.20107541497928,"lon":15.64164251089096,"name":"VILLA S. GIOVANNI EST","brand":"RPetroli","address":"Autostrada A2 AUTOSTRADA DEL MEDITERRANEO,  Km. 432+180, dir. Nord - 89018, REGGIO DI CALABRIA, RC","prices":[{"type":"petrol","price":1.973,"self":true,"updatedAt":"26/06/2026 08:45:38"},{"type":"diesel","price":2.069,"self":true,"updatedAt":"26/06/2026 08:45:38"},{"type":"lpg","price":0.998,"self":false,"updatedAt":"26/06/2026 08:45:38"}]},{"id":"61131","lat":38.211662,"lon":15.726452,"name":"Carburanti Sciarrone Natalina","brand":"Pompe Bianche","address":"COMUNALE 9 89050, SAN ROBERTO, RC","prices":[{"type":"petrol","price":1.789,"self":true,"updatedAt":"27/06/2026 08:29:51"},{"type":"diesel","price":1.879,"self":true,"updatedAt":"27/06/2026 08:29:51"}]},{"id":"45959","lat":38.230586058789186,"lon":15.7296402032498,"name":"tamoil","brand":"Tamoil","address":"VIA PURGATORIO  MELIA DI SAN ROBERTO S.n.c 89050, SAN ROBERTO, RC","prices":[{"type":"petrol","price":1.829,"self":true,"updatedAt":"29/06/2026 00:22:33"},{"type":"diesel","price":1.899,"self":true,"updatedAt":"29/06/2026 00:22:33"}]},{"id":"43509","lat":38.22469651797283,"lon":15.636899411045079,"name":"Distributore Tamoil Musolino Alessandro","brand":"Tamoil","address":"VIALE ROCCO LARUSSA 37 89018, VILLA SAN GIOVANNI, RC","prices":[{"type":"petrol","price":1.789,"self":true,"updatedAt":"29/06/2026 00:35:14"},{"type":"diesel","price":1.889,"self":true,"updatedAt":"29/06/2026 00:35:14"}]},{"id":"42247","lat":38.22927170177835,"lon":15.640704743564129,"name":"myself","brand":"Pompe Bianche","address":"VIALE ROCCO LA RUSSA SNC 89018, VILLA SAN GIOVANNI, RC","prices":[{"type":"petrol","price":1.809,"self":true,"updatedAt":"25/06/2026 19:46:55"},{"type":"diesel","price":1.889,"self":true,"updatedAt":"25/06/2026 19:46:55"}]},{"id":"13980","lat":38.217162859944544,"lon":15.63704596846469,"name":"STAZIONE SI SERVIZIO ESSO DI MARTINE BELLE'","brand":"Esso","address":"VIA AMMIRAGLIO CURZON SN, 89018 - -, VILLA SAN GIOVANNI, RC","prices":[{"type":"petrol","price":1.829,"self":true,"updatedAt":"27/06/2026 10:00:45"},{"type":"diesel","price":1.919,"self":true,"updatedAt":"27/06/2026 10:00:45"}]},{"id":"3651","lat":38.22840692687396,"lon":15.64757311529695,"name":"VILLA S. GIOVANNI OVEST","brand":"Agip Eni","address":"Autostrada A3 SALERNO-REGGIO CALABRIA, Km. 430.393, dir. Sud - -, VILLA SAN GIOVANNI, RC","prices":[{"type":"petrol","price":1.975,"self":true,"updatedAt":"29/06/2026 00:48:06"},{"type":"diesel","price":2.084,"self":true,"updatedAt":"29/06/2026 00:48:06"},{"type":"lpg","price":0.962,"self":false,"updatedAt":"29/06/2026 00:48:06"}]},{"id":"35551","lat":38.223796839285065,"lon":15.636728163194675,"name":"VILLA SAN GIOVANNI - AMM. CURZON","brand":"Api-Ip","address":"VIA AMMIRAGLIO CURZON  89018, VILLA SAN GIOVANNI, RC","prices":[{"type":"petrol","price":1.789,"self":true,"updatedAt":"28/06/2026 09:01:00"},{"type":"diesel","price":1.889,"self":true,"updatedAt":"28/06/2026 09:01:00"}]}]