[{"id":"54114","lat":38.0269,"lon":15.4171,"name":"Roma Celestino di Filetti Concetta","brand":"Bianco Carburanti","address":"ROMA 34 98020, ALÌ, ME","prices":[{"type":"petrol","price":1.856,"self":true,"updatedAt":"22/06/2026 18:43:00"},{"type":"diesel","price":1.948,"self":true,"updatedAt":"22/06/2026 18:43:00"}]},{"id":"63252","lat":38.0037181,"lon":15.4225038,"name":"Impianto carburanti IP","brand":"Api-Ip","address":"Piazza Prestia Nino  98021, ALÌ TERME, ME","prices":[{"type":"petrol","price":1.849,"self":true,"updatedAt":"19/06/2026 18:41:08"},{"type":"diesel","price":1.959,"self":true,"updatedAt":"19/06/2026 18:41:08"}]},{"id":"40882","lat":38.02212703628419,"lon":15.382789894938469,"name":"IMPIANTO DISTRIBUZIONE CARBURANTI IP SACCNE RETE FIUMEDINISI","brand":"Api-Ip","address":"Via D. Alighieri  98022, FIUMEDINISI, ME","prices":[{"type":"petrol","price":1.879,"self":true,"updatedAt":"22/06/2026 00:07:29"},{"type":"diesel","price":1.979,"self":true,"updatedAt":"22/06/2026 00:07:29"}]},{"id":"7907","lat":38.06431606860575,"lon":15.480463238285687,"name":"Eni Savoca Carmelo","brand":"Agip Eni","address":"114 Orientale Sicula, Km. 15,300, Messina - 98141, MESSINA, ME","prices":[{"type":"petrol","price":1.824,"self":true,"updatedAt":"23/06/2026 00:22:58"},{"type":"diesel","price":1.914,"self":true,"updatedAt":"23/06/2026 00:22:58"}]},{"id":"45502","lat":38.086731172558316,"lon":15.499307811260223,"name":"me015","brand":"Q8","address":"114 Orientale Sicula, Km. 12, CATANIA - 98125, MESSINA, ME","prices":[{"type":"petrol","price":1.859,"self":true,"updatedAt":"22/06/2026 14:00:05"},{"type":"diesel","price":1.949,"self":true,"updatedAt":"22/06/2026 14:00:05"}]},{"id":"46072","lat":38.077924356698986,"lon":15.494040548801422,"name":"Q8 BARTOLONE FILIPPO","brand":"Q8","address":"114 Orientale Sicula, Km. 13.376, MESSINA/CATANIA/MESSINA - 98020, MESSINA, ME","prices":[{"type":"petrol","price":1.854,"self":true,"updatedAt":"23/06/2026 07:30:28"},{"type":"diesel","price":1.959,"self":true,"updatedAt":"23/06/2026 07:30:28"}]},{"id":"9251","lat":38.1922937852014,"lon":15.258883237838745,"name":"BN PETROLI","brand":"BN petroli","address":"C.DA BOMBOLO BOZZELLO ASSE VIARIO  98057, MILAZZO, ME","prices":[{"type":"petrol","price":1.759,"self":true,"updatedAt":"22/06/2026 08:25:58"},{"type":"diesel","price":1.899,"self":true,"updatedAt":"22/06/2026 08:25:58"}]},{"id":"9240","lat":38.1785256286626,"lon":15.262042283765823,"name":"BN PETROLI","brand":"BN petroli","address":"VIA PROVINCIALE 1 98057, MILAZZO, ME","prices":[{"type":"petrol","price":1.879,"self":true,"updatedAt":"23/06/2026 06:54:53"},{"type":"diesel","price":1.969,"self":true,"updatedAt":"23/06/2026 06:54:53"}]},{"id":"57379","lat":38.1971698,"lon":15.2527788,"name":"ENI LIVE STATION","brand":"Agip Eni","address":"Nuovo Asse Viario c.da Barone ovest 98057 - MILAZZO ME, MILAZZO, ME","prices":[{"type":"petrol","price":1.829,"self":true,"updatedAt":"23/06/2026 00:23:27"},{"type":"diesel","price":1.919,"self":true,"updatedAt":"23/06/2026 00:23:27"}]},{"id":"8514","lat":38.2035765,"lon":15.2539126,"name":"FRANCESCO GUIDO","brand":"Agip Eni","address":"Viale A. Gramsci 156-158 98057, MILAZZO, ME","prices":[{"type":"petrol","price":1.829,"self":true,"updatedAt":"22/06/2026 09:10:09"},{"type":"diesel","price":1.919,"self":true,"updatedAt":"22/06/2026 09:10:09"}]},{"id":"8746","lat":38.20904246796854,"lon":15.251737833023071,"name":"Mento Acqueviole","brand":"Esso","address":"Via Acqueviole  98057, MILAZZO, ME","prices":[{"type":"petrol","price":1.879,"self":true,"updatedAt":"22/06/2026 08:18:58"},{"type":"diesel","price":1.989,"self":true,"updatedAt":"22/06/2026 08:18:58"}]},{"id":"58689","lat":38.18179552872611,"lon":15.253677499152065,"name":"OLIVARELLA SUD","brand":"Q8","address":"Autostrada A20 MESSINA-PALERMO,  Km. 31,500, dir. MESSINA 98057, MILAZZO, ME","prices":[{"type":"petrol","price":1.969,"self":true,"updatedAt":"22/06/2026 12:16:40"},{"type":"diesel","price":2.049,"self":true,"updatedAt":"22/06/2026 12:16:40"},{"type":"lpg","price":0.839,"self":false,"updatedAt":"22/06/2026 12:16:40"}]},{"id":"39264","lat":38.20694094701433,"lon":15.338904106970631,"name":"Rifornimento IP di Puleo Antonino","brand":"Api-Ip","address":"Statale 113 Settentrionale Sicula, Km. 31,442, dir. MESSINA  98041, MONFORTE SAN GIORGIO, ME","prices":[{"type":"petrol","price":1.809,"self":true,"updatedAt":"23/06/2026 05:38:39"},{"type":"diesel","price":1.949,"self":true,"updatedAt":"23/06/2026 05:38:39"}]},{"id":"63310","lat":38.19927,"lon":15.30211,"name":"EUROIL S.S. 113","brand":"ALoil","address":"SS 113 Settentrionale Sicula Km 34+686  98042, PACE DEL MELA, ME","prices":[{"type":"petrol","price":1.779,"self":false,"updatedAt":"19/06/2026 10:26:07"},{"type":"diesel","price":1.939,"self":false,"updatedAt":"19/06/2026 10:26:07"}]},{"id":"43793","lat":38.16510657488503,"lon":15.415591739893216,"name":"ARDIZZONE AURELIO Codice PV ME034","brand":"Q8","address":"via s. cono  98043, ROMETTA, ME","prices":[{"type":"petrol","price":1.979,"self":false,"updatedAt":"19/06/2026 18:26:41"},{"type":"diesel","price":2.059,"self":false,"updatedAt":"19/06/2026 18:26:41"}]},{"id":"58674","lat":38.232023548689014,"lon":15.413014440407892,"name":"Q8 ROMETTA","brand":"Q8","address":"via nazionale km 24 + 134, ROMETTA, ME","prices":[{"type":"petrol","price":1.829,"self":true,"updatedAt":"20/06/2026 08:05:06"},{"type":"diesel","price":1.909,"self":true,"updatedAt":"20/06/2026 08:05:06"}]},{"id":"55920","lat":38.19654,"lon":15.27699,"name":"SAN FILIPPO DEL MELA","brand":"Pompe Bianche","address":"ASI SN 98044, SAN FILIPPO DEL MELA, ME","prices":[{"type":"methane","price":1.569,"self":false,"updatedAt":"20/06/2026 21:30:10"}]},{"id":"47716","lat":38.19068623518559,"lon":15.273320620237735,"name":"SAN FILIPPO DEL MELA SS 113 KM 37+950","brand":"Q8","address":"SS 113 KM 37+950  98044, SAN FILIPPO DEL MELA, ME","prices":[{"type":"petrol","price":1.759,"self":true,"updatedAt":"22/06/2026 16:05:18"},{"type":"diesel","price":1.899,"self":true,"updatedAt":"22/06/2026 16:05:18"}]},{"id":"9242","lat":38.16767743507193,"lon":15.344230000000152,"name":"BN PETROLI","brand":"BN petroli","address":"VIA S.P. PIANO MASSIMO 62 98045, SAN PIER NICETO, ME","prices":[{"type":"petrol","price":1.779,"self":true,"updatedAt":"19/06/2026 13:36:51"},{"type":"diesel","price":1.939,"self":true,"updatedAt":"19/06/2026 13:36:51"}]},{"id":"56355","lat":38.137461,"lon":15.282332,"name":"SEPA STAZ SERVIZIO S. LUCIA DEL MELA","brand":"SEPA","address":"PROVINCIALE PER OLIVARELLA SN 98046, SANTA LUCIA DEL MELA, ME","prices":[{"type":"petrol","price":1.799,"self":true,"updatedAt":"23/06/2026 07:47:23"},{"type":"diesel","price":1.899,"self":true,"updatedAt":"23/06/2026 07:47:23"}]},{"id":"62920","lat":38.04357740978584,"lon":15.460742912187433,"name":"IMPIANTO CARBURANTI IP","brand":"Api-Ip","address":"VIA NAZIONALE SNC 98029, SCALETTA ZANCLEA, ME","prices":[{"type":"petrol","price":1.819,"self":true,"updatedAt":"22/06/2026 08:06:18"},{"type":"diesel","price":1.909,"self":true,"updatedAt":"22/06/2026 08:06:18"}]},{"id":"5022","lat":38.225521804341426,"lon":15.39082646369934,"name":"Esso","brand":"Esso","address":"Statale 113 Settentrionale Sicula, Km. 26,250, dir. Messina - 98048, SPADAFORA, ME","prices":[{"type":"petrol","price":1.839,"self":true,"updatedAt":"20/06/2026 08:03:47"},{"type":"diesel","price":1.919,"self":true,"updatedAt":"20/06/2026 08:03:47"},{"type":"lpg","price":0.899,"self":false,"updatedAt":"20/06/2026 08:03:47"}]},{"id":"48195","lat":38.2214146916548,"lon":15.374093312012675,"name":"Impianto distribuzione carburanti Elios Petroli srl","brand":"Ego","address":"VIA DEL CARMINE SN 98048, SPADAFORA, ME","prices":[{"type":"petrol","price":1.819,"self":true,"updatedAt":"19/06/2026 08:32:34"},{"type":"diesel","price":1.909,"self":true,"updatedAt":"19/06/2026 08:32:34"}]},{"id":"18838","lat":38.225719504484424,"lon":15.391471355911222,"name":"TAMOIL","brand":"Tamoil","address":"VIA NAZIONALE-ARCIPRETATO  98048, SPADAFORA, ME","prices":[{"type":"petrol","price":1.819,"self":true,"updatedAt":"22/06/2026 14:10:22"},{"type":"diesel","price":1.899,"self":true,"updatedAt":"22/06/2026 14:10:22"}]},{"id":"26955","lat":38.20608717243119,"lon":15.343614220619202,"name":"SB GAS AUTO","brand":"Pompe Bianche","address":"STRADA COMUNALE COTUGNARA sn 98040, TORREGROTTA, ME","prices":[{"type":"petrol","price":1.775,"self":true,"updatedAt":"20/06/2026 19:03:57"},{"type":"diesel","price":1.925,"self":true,"updatedAt":"20/06/2026 19:03:57"},{"type":"methane","price":2.039,"self":false,"updatedAt":"20/06/2026 19:03:57"},{"type":"lpg","price":0.885,"self":false,"updatedAt":"20/06/2026 19:03:57"}]},{"id":"6778","lat":38.203675730171966,"lon":15.351878449737569,"name":"TORREGROTTA VIALE EUROPA","brand":"Q8","address":"VIALE EUROPA SNC 98040, TORREGROTTA, ME","prices":[{"type":"petrol","price":1.805,"self":true,"updatedAt":"20/06/2026 08:17:17"},{"type":"diesel","price":1.945,"self":true,"updatedAt":"20/06/2026 08:17:17"}]},{"id":"59375","lat":38.21951,"lon":15.3698845,"name":"9687 VENETICO","brand":"Agip Eni","address":"S.S.113 VIA NAZIONALE  S.N.C, VENETICO, ME","prices":[{"type":"petrol","price":1.829,"self":true,"updatedAt":"22/06/2026 00:19:36"},{"type":"diesel","price":1.919,"self":true,"updatedAt":"22/06/2026 00:19:36"}]},{"id":"9903","lat":38.21746804765425,"lon":15.361593067646027,"name":"esso venetico","brand":"Esso","address":"NAZIONALE KM. 26  98040, VENETICO, ME","prices":[{"type":"petrol","price":1.829,"self":true,"updatedAt":"22/06/2026 11:11:39"},{"type":"diesel","price":1.919,"self":true,"updatedAt":"22/06/2026 11:11:39"}]},{"id":"56940","lat":38.23848027738817,"lon":15.437875793142405,"name":"DIVIETO NORD","brand":"Api-Ip","address":"Autostrada A20 MESSINA-PALERMO, dir. PALERMO, VILLAFRANCA TIRRENA, ME","prices":[{"type":"petrol","price":1.919,"self":true,"updatedAt":"23/06/2026 00:18:19"},{"type":"diesel","price":2.039,"self":true,"updatedAt":"23/06/2026 00:18:19"}]},{"id":"24023","lat":38.236658204474075,"lon":15.438934564590454,"name":"DIVIETO SUD","brand":"Esso","address":"Autostrada A20 MESSINA-PALERMO,  Km. 161, dir. EST 98049, VILLAFRANCA TIRRENA, ME","prices":[{"type":"petrol","price":1.959,"self":true,"updatedAt":"22/06/2026 06:34:51"},{"type":"diesel","price":2.079,"self":true,"updatedAt":"22/06/2026 06:34:51"}]},{"id":"26989","lat":38.237596659480985,"lon":15.435682386159897,"name":"Eni","brand":"Agip Eni","address":"Statale 113 Settentrionale Sicula, Km. 21+959, dir. messina - 98049, VILLAFRANCA TIRRENA, ME","prices":[{"type":"petrol","price":1.829,"self":true,"updatedAt":"22/06/2026 06:14:13"},{"type":"diesel","price":1.919,"self":true,"updatedAt":"22/06/2026 06:14:13"}]},{"id":"62113","lat":38.2439897,"lon":15.4466669,"name":"IP VILLAFRANCA TIRRENA COMUNE","brand":"Itala Petroli","address":"Via Antonello da Messina 102 98049, VILLAFRANCA TIRRENA, ME","prices":[{"type":"petrol","price":1.819,"self":true,"updatedAt":"22/06/2026 09:32:06"},{"type":"diesel","price":1.919,"self":true,"updatedAt":"22/06/2026 09:32:06"},{"type":"lpg","price":0.899,"self":false,"updatedAt":"22/06/2026 00:50:40"}]}]