[{"id":"60892","lat":38.1164069,"lon":13.3662123,"name":"NOBILE OIL (LICODIA)","brand":"Nobile Oil","address":"PIAZZA FRATE FRANCESCO CASCIO  SN 90133, LICODIA EUBEA, CT","prices":[{"type":"petrol","price":1.909,"self":true,"updatedAt":"19/06/2026 16:11:40"},{"type":"diesel","price":1.989,"self":true,"updatedAt":"19/06/2026 16:11:40"}]},{"id":"62857","lat":38.13709679999999,"lon":13.3303508,"name":"Viale della Regione Siciliana 3616","brand":"Esso","address":"Viale della Regione Siciliana 3616  90121, ALIA, PA","prices":[{"type":"petrol","price":1.795,"self":true,"updatedAt":"20/06/2026 05:59:51"},{"type":"diesel","price":1.895,"self":true,"updatedAt":"20/06/2026 05:59:51"}]},{"id":"60815","lat":38.05947506286021,"lon":13.313257098197937,"name":"Altofonte, S.S. 624","brand":"TaOil","address":"S.S. 624 KM 4 + 770  SNC 90030, ALTOFONTE, PA","prices":[{"type":"petrol","price":1.859,"self":true,"updatedAt":"20/06/2026 05:59:49"},{"type":"diesel","price":1.929,"self":true,"updatedAt":"20/06/2026 05:59:49"}]},{"id":"39990","lat":38.050728763727335,"lon":13.308972269296646,"name":"Eni Terrasi","brand":"Agip Eni","address":"VIA DEL FANTE  90030, ALTOFONTE, PA","prices":[{"type":"petrol","price":1.859,"self":true,"updatedAt":"22/06/2026 00:48:27"},{"type":"diesel","price":1.964,"self":true,"updatedAt":"22/06/2026 00:48:27"}]},{"id":"43986","lat":38.09154645001254,"lon":13.481559753417969,"name":"PA115","brand":"Q8","address":"S.S.113 KM. 249+080 SNC 90011, BAGHERIA, PA","prices":[{"type":"petrol","price":1.849,"self":true,"updatedAt":"19/06/2026 10:48:08"},{"type":"diesel","price":1.949,"self":true,"updatedAt":"19/06/2026 10:48:08"},{"type":"lpg","price":0.799,"self":false,"updatedAt":"15/06/2026 15:15:04"}]},{"id":"40322","lat":38.04598282756764,"lon":13.397548198699951,"name":"Discarburantisas","brand":"Agip Eni","address":"PIERSANTI MATTARELLA 14 90031, BELMONTE MEZZAGNO, PA","prices":[{"type":"petrol","price":1.829,"self":true,"updatedAt":"21/06/2026 18:40:03"},{"type":"diesel","price":1.919,"self":true,"updatedAt":"21/06/2026 18:40:03"}]},{"id":"53325","lat":38.1943808,"lon":13.3234688,"name":"SALVOI ROCCELLA","brand":"Api-Ip","address":"S.S.113 KM 201+328 SNC 90010, CAMPOFELICE DI ROCCELLA, PA","prices":[{"type":"petrol","price":1.848,"self":true,"updatedAt":"20/06/2026 08:53:08"},{"type":"diesel","price":1.948,"self":true,"updatedAt":"20/06/2026 08:53:08"}]},{"id":"46502","lat":38.19968721572815,"lon":13.256935477256775,"name":"PA023","brand":"Q8","address":"S.S. 113 SNC, ISOLA DELLE FEMMINE   90040, ISOLA DELLE FEMMINE, PA","prices":[{"type":"petrol","price":1.879,"self":true,"updatedAt":"17/06/2026 14:30:05"},{"type":"diesel","price":1.979,"self":true,"updatedAt":"17/06/2026 14:30:05"}]},{"id":"49432","lat":38.19862598358429,"lon":13.250447930873186,"name":"PA104","brand":"EOS","address":"VIA PALERMO SNC 90040, ISOLA DELLE FEMMINE, PA","prices":[{"type":"petrol","price":1.799,"self":true,"updatedAt":"20/06/2026 11:36:04"},{"type":"diesel","price":1.899,"self":true,"updatedAt":"20/06/2026 11:36:04"}]},{"id":"41766","lat":38.03333971892869,"lon":13.453440740704536,"name":"AGF PETROLI DI FILIPPO AGNELLO","brand":"Pompe Bianche","address":"EUROPA 193 90036, MISILMERI, PA","prices":[{"type":"petrol","price":1.857,"self":false,"updatedAt":"18/06/2026 11:52:41"},{"type":"diesel","price":1.967,"self":false,"updatedAt":"18/06/2026 11:52:41"}]},{"id":"56894","lat":38.06584,"lon":13.4605,"name":"ENI ditta GP S.R.L.  ENI MISILMERI S.S 121 Direzione Agrigento","brand":"Agip Eni","address":"S.S 121 KM 250+416 SX SNC 90036, MISILMERI, PA","prices":[{"type":"petrol","price":1.857,"self":true,"updatedAt":"21/06/2026 09:26:54"},{"type":"diesel","price":1.967,"self":true,"updatedAt":"21/06/2026 09:26:56"},{"type":"lpg","price":0.827,"self":false,"updatedAt":"21/06/2026 17:16:43"}]},{"id":"33305","lat":38.01566126907777,"lon":13.453568816184998,"name":"FUELPOWER","brand":"Pompe Bianche","address":"Statale 121 Catanese, Km. 244+75, dir. AG - 90036, MISILMERI, PA","prices":[{"type":"petrol","price":1.857,"self":false,"updatedAt":"18/06/2026 10:26:17"},{"type":"diesel","price":1.967,"self":false,"updatedAt":"18/06/2026 10:26:17"},{"type":"methane","price":1.899,"self":false,"updatedAt":"18/06/2026 10:26:17"},{"type":"lpg","price":0.827,"self":false,"updatedAt":"18/06/2026 10:26:17"}]},{"id":"42494","lat":38.03299028601496,"lon":13.458018600940704,"name":"FUELPOWER SS121 KM 246+741","brand":"Pompe Bianche","address":"121 Catanese, Km. 246+741, palermo - 90036, MISILMERI, PA","prices":[{"type":"petrol","price":1.857,"self":false,"updatedAt":"19/06/2026 09:28:33"},{"type":"diesel","price":1.967,"self":false,"updatedAt":"19/06/2026 09:28:33"},{"type":"lpg","price":0.827,"self":false,"updatedAt":"19/06/2026 09:28:33"}]},{"id":"33306","lat":38.03632231248959,"lon":13.457850159134296,"name":"FUELPOWER VIALE EUROPA","brand":"Pompe Bianche","address":"VIALE EUROPA 131 90036, MISILMERI, PA","prices":[{"type":"petrol","price":1.857,"self":false,"updatedAt":"18/06/2026 10:26:35"},{"type":"diesel","price":1.967,"self":false,"updatedAt":"18/06/2026 10:26:35"}]},{"id":"59669","lat":38.04036589764713,"lon":13.459711979536953,"name":"PA049","brand":"Q8","address":"GAETANO SCARPELLO 75 90036, MISILMERI, PA","prices":[{"type":"petrol","price":1.857,"self":true,"updatedAt":"18/06/2026 11:27:06"},{"type":"diesel","price":1.967,"self":true,"updatedAt":"18/06/2026 11:27:06"}]},{"id":"42204","lat":38.06506038765392,"lon":13.461384773254395,"name":"PA113","brand":"Q8","address":"S.S.121 KM. 250+326 SNC 90036, MISILMERI, PA","prices":[{"type":"petrol","price":1.857,"self":true,"updatedAt":"18/06/2026 11:21:06"},{"type":"diesel","price":1.967,"self":true,"updatedAt":"18/06/2026 11:21:06"},{"type":"lpg","price":0.827,"self":false,"updatedAt":"16/06/2026 17:03:05"}]},{"id":"40533","lat":38.02580422573137,"lon":13.447573177909817,"name":"STAZIONE DI SERVIZIO ENI","brand":"Agip Eni","address":"CORSO VITTORIO EMANUELE 552 90036, MISILMERI, PA","prices":[{"type":"petrol","price":1.829,"self":true,"updatedAt":"21/06/2026 23:15:46"},{"type":"diesel","price":1.919,"self":true,"updatedAt":"21/06/2026 23:15:46"}]},{"id":"48607","lat":38.07919656304128,"lon":13.28668279933666,"name":"ECO ENERGY SRL ENI \"MONREALE REPUBBLICA / EX ZETA 7\"","brand":"Agip Eni","address":"DELLA REPUBBLICA (EX ZETA 7) SNC 90046, MONREALE, PA","prices":[{"type":"petrol","price":1.847,"self":true,"updatedAt":"19/06/2026 07:09:25"},{"type":"diesel","price":1.947,"self":true,"updatedAt":"19/06/2026 07:09:25"}]},{"id":"13440","lat":38.07795361376547,"lon":13.293952191401672,"name":"ENI FERRARO","brand":"Agip Eni","address":"VIA CIRCONVALLAZIONE 60 90046, MONREALE, PA","prices":[{"type":"petrol","price":1.829,"self":true,"updatedAt":"22/06/2026 00:49:51"},{"type":"diesel","price":1.919,"self":true,"updatedAt":"22/06/2026 00:49:51"}]},{"id":"47897","lat":38.06476602341358,"lon":13.266806006431574,"name":"PA116","brand":"Q8","address":"VIA CIRCONVALLAZIONE SS186 KM5 SN 90046, MONREALE, PA","prices":[{"type":"petrol","price":1.847,"self":true,"updatedAt":"19/06/2026 07:18:05"},{"type":"diesel","price":1.947,"self":true,"updatedAt":"19/06/2026 07:18:05"}]},{"id":"34863","lat":38.064748061647364,"lon":13.26678179204464,"name":"PA133","brand":"Q8","address":"C.DA LENZITTI 12 90046, MONREALE, PA","prices":[{"type":"petrol","price":1.847,"self":true,"updatedAt":"19/06/2026 10:48:08"},{"type":"diesel","price":1.947,"self":true,"updatedAt":"19/06/2026 10:48:08"}]},{"id":"51605","lat":38.14512311929334,"lon":13.335219011656818,"name":"Q8 di Prestigiacomo roberto","brand":"Q8","address":"Via Empedocle Restivo 78 90144, PALERMO, PA","prices":[{"type":"petrol","price":1.929,"self":true,"updatedAt":"18/06/2026 08:26:53"},{"type":"diesel","price":1.949,"self":true,"updatedAt":"18/06/2026 08:26:53"}]},{"id":"45755","lat":38.15351520601152,"lon":13.321279989476466,"name":"- GI.BR CARBURANTI -","brand":"Pompe Bianche","address":"TOMMASO NATALE 6/A 90147, PALERMO, PA","prices":[{"type":"petrol","price":1.819,"self":true,"updatedAt":"20/06/2026 16:13:14"},{"type":"diesel","price":1.909,"self":true,"updatedAt":"20/06/2026 16:13:14"},{"type":"lpg","price":0.789,"self":false,"updatedAt":"20/06/2026 16:13:14"}]},{"id":"60424","lat":38.1371472,"lon":13.3304017,"name":"108151 PALERMO-CRUILLAS","brand":"Esso","address":"REGIONE SICILIANA 3616 90121, PALERMO, PA","prices":[{"type":"petrol","price":1.719,"self":true,"updatedAt":"27/04/2026 16:48:02"},{"type":"diesel","price":2.039,"self":true,"updatedAt":"27/04/2026 16:48:02"}]},{"id":"57522","lat":38.1469,"lon":13.32728,"name":"19768 PALERMO","brand":"Agip Eni","address":"Via Atenasio 4850 90146, PALERMO, PA","prices":[{"type":"petrol","price":1.814,"self":true,"updatedAt":"22/06/2026 00:14:05"},{"type":"diesel","price":1.904,"self":true,"updatedAt":"22/06/2026 00:14:05"}]},{"id":"54801","lat":38.13182,"lon":13.30533,"name":"29736 Palermo Michelangelo","brand":"Agip Eni","address":"Viale Michelangelo 2315  90135, PALERMO, PA","prices":[{"type":"petrol","price":1.799,"self":true,"updatedAt":"21/06/2026 23:13:11"},{"type":"diesel","price":1.909,"self":true,"updatedAt":"21/06/2026 23:13:11"}]},{"id":"58167","lat":38.151005,"lon":13.323165,"name":"29800  PALERMO","brand":"Agip Eni","address":"Viale della Regione Siciliana Nord Ovest 5398  90146, PALERMO, PA","prices":[{"type":"petrol","price":1.814,"self":true,"updatedAt":"22/06/2026 00:15:04"},{"type":"diesel","price":1.904,"self":true,"updatedAt":"22/06/2026 00:15:04"}]},{"id":"55771","lat":38.13683078480324,"lon":13.36198990893298,"name":"2S - DUESSE CARBURANTI","brand":"Itala Petroli","address":"Via dei Cantieri 41  90142, PALERMO, PA","prices":[{"type":"petrol","price":1.827,"self":true,"updatedAt":"19/06/2026 08:49:17"},{"type":"diesel","price":1.956,"self":true,"updatedAt":"19/06/2026 08:49:17"}]},{"id":"5497","lat":38.18872242902749,"lon":13.297875801258101,"name":"39506 PALERMO","brand":"Agip Eni","address":"Via Nicoletti SNC 90151, PALERMO, PA","prices":[{"type":"petrol","price":1.814,"self":true,"updatedAt":"21/06/2026 23:18:08"},{"type":"diesel","price":1.904,"self":true,"updatedAt":"21/06/2026 23:18:08"},{"type":"lpg","price":0.732,"self":false,"updatedAt":"21/06/2026 23:18:08"}]},{"id":"5499","lat":38.100147,"lon":13.346591,"name":"39512 PALERMO Via Basile","brand":"Agip Eni","address":"via Ernesto Basile 15/17 90128, PALERMO, PA","prices":[{"type":"petrol","price":1.814,"self":true,"updatedAt":"21/06/2026 01:09:42"},{"type":"diesel","price":1.904,"self":true,"updatedAt":"21/06/2026 01:09:42"},{"type":"lpg","price":0.752,"self":false,"updatedAt":"21/06/2026 23:47:15"}]},{"id":"59716","lat":38.12991,"lon":13.345567,"name":"55183  PALERMO","brand":"Agip Eni","address":"VIA TERRASANTA  77/C, PALERMO, PA","prices":[{"type":"petrol","price":1.814,"self":true,"updatedAt":"21/06/2026 23:58:55"},{"type":"diesel","price":1.904,"self":true,"updatedAt":"21/06/2026 23:58:55"}]},{"id":"50156","lat":38.09812914276462,"lon":13.317835619190978,"name":"55206 – Palermo Calatafimi","brand":"Agip Eni","address":"CORSO CALATAFIMI 1031/B 90131, PALERMO, PA","prices":[{"type":"petrol","price":1.814,"self":true,"updatedAt":"22/06/2026 00:15:50"},{"type":"diesel","price":1.904,"self":true,"updatedAt":"22/06/2026 00:15:50"}]},{"id":"48260","lat":38.078138604409496,"lon":13.402602782209016,"name":"8428","brand":"Tamoil","address":"CIACULLI SNC 90124, PALERMO, PA","prices":[{"type":"petrol","price":1.789,"self":true,"updatedAt":"22/06/2026 00:01:20"},{"type":"diesel","price":1.879,"self":true,"updatedAt":"22/06/2026 00:01:20"}]},{"id":"43078","lat":38.12151505856977,"lon":13.349549300000035,"name":"8429","brand":"Tamoil","address":"SCIPIONE LI VOLSI SNC 90138, PALERMO, PA","prices":[{"type":"petrol","price":1.799,"self":true,"updatedAt":"21/06/2026 23:18:16"},{"type":"diesel","price":1.899,"self":true,"updatedAt":"21/06/2026 23:18:16"}]},{"id":"31328","lat":38.14575999578302,"lon":13.33847411375973,"name":"8430","brand":"Tamoil","address":"CAMPANIA SNC 90144, PALERMO, PA","prices":[{"type":"petrol","price":1.789,"self":true,"updatedAt":"21/06/2026 23:40:24"},{"type":"diesel","price":1.879,"self":true,"updatedAt":"21/06/2026 23:40:24"}]},{"id":"37802","lat":38.10093413476445,"lon":13.370843455195427,"name":"8432","brand":"Tamoil","address":"ORETO SN 90124, PALERMO, PA","prices":[{"type":"petrol","price":1.789,"self":true,"updatedAt":"21/06/2026 23:18:27"},{"type":"diesel","price":1.879,"self":true,"updatedAt":"21/06/2026 23:18:27"}]},{"id":"46303","lat":38.14746395624149,"lon":13.353821162565623,"name":"8433","brand":"Tamoil","address":"IMPERATORE FEDERICO 126 90143, PALERMO, PA","prices":[{"type":"petrol","price":1.789,"self":true,"updatedAt":"21/06/2026 12:30:06"},{"type":"diesel","price":1.879,"self":true,"updatedAt":"21/06/2026 12:30:06"}]},{"id":"43468","lat":38.10348281137876,"lon":13.377734190247793,"name":"8434","brand":"Tamoil","address":"SCAFFA SN 90124, PALERMO, PA","prices":[{"type":"petrol","price":1.789,"self":true,"updatedAt":"22/06/2026 00:01:03"},{"type":"diesel","price":1.879,"self":true,"updatedAt":"22/06/2026 00:01:03"}]},{"id":"56571","lat":38.137302,"lon":13.354352,"name":"9739 PALERMO SAMPOLO","brand":"Agip Eni","address":"Via Sampolo 5, PALERMO, PA","prices":[{"type":"petrol","price":1.814,"self":true,"updatedAt":"21/06/2026 23:45:09"},{"type":"diesel","price":1.904,"self":true,"updatedAt":"21/06/2026 23:45:09"}]},{"id":"59221","lat":38.135487,"lon":13.341267,"name":"9785 PALERMO","brand":"Agip Eni","address":"Via Giuseppe Sciuti 102  90144, PALERMO, PA","prices":[{"type":"petrol","price":1.809,"self":true,"updatedAt":"22/06/2026 00:37:52"},{"type":"diesel","price":1.909,"self":true,"updatedAt":"22/06/2026 00:37:52"}]},{"id":"56862","lat":38.128048,"lon":13.329085,"name":"9998 PALERMO Regione Siciliana","brand":"Agip Eni","address":"Viale Regione Siciliana Angolo via Leonardo da Vinci, PALERMO, PA","prices":[{"type":"petrol","price":1.814,"self":true,"updatedAt":"22/06/2026 00:10:24"},{"type":"diesel","price":1.904,"self":true,"updatedAt":"22/06/2026 00:10:24"}]},{"id":"8548","lat":38.13745611221036,"lon":13.322212450262441,"name":"AREA SERVIZIO DI MANNINO MARIA LUISA","brand":"Esso","address":"VIALE MICHELANGELO 750 90145, PALERMO, PA","prices":[{"type":"petrol","price":1.849,"self":true,"updatedAt":"17/06/2026 08:25:07"},{"type":"diesel","price":1.929,"self":true,"updatedAt":"17/06/2026 08:25:07"}]},{"id":"33592","lat":38.099894712835976,"lon":13.334523496906854,"name":"Asel Petroli s.r.l.","brand":"Pompe Bianche","address":"P. PLATANIA (VILLA TASCA) S.N.C. 90129, PALERMO, PA","prices":[{"type":"petrol","price":1.798,"self":true,"updatedAt":"19/06/2026 10:01:30"},{"type":"diesel","price":1.897,"self":true,"updatedAt":"19/06/2026 10:01:30"}]},{"id":"60549","lat":38.139016,"lon":13.344482,"name":"B&G RETE","brand":"Pompe Bianche","address":"VITTORIO ALFIERI SNC 90144, PALERMO, PA","prices":[{"type":"petrol","price":1.809,"self":true,"updatedAt":"21/06/2026 23:50:20"},{"type":"diesel","price":1.909,"self":true,"updatedAt":"21/06/2026 23:50:20"}]},{"id":"22528","lat":38.19084216369283,"lon":13.332440927624702,"name":"blu oil s.a.s di cornacchio antonio e c.","brand":"Agip Eni","address":"VIALE MARGHERITA DI SAVOIA 85/B 90149, PALERMO, PA","prices":[{"type":"petrol","price":1.814,"self":true,"updatedAt":"22/06/2026 00:32:24"},{"type":"diesel","price":1.904,"self":true,"updatedAt":"22/06/2026 00:32:24"}]},{"id":"62915","lat":38.08998283133965,"lon":13.37556951611328,"name":"CARBURGAS SRL","brand":"Pompe Bianche","address":"Viale Regione Siciliana 5005  90124, PALERMO, PA","prices":[{"type":"petrol","price":1.834,"self":true,"updatedAt":"21/06/2026 08:38:52"},{"type":"diesel","price":1.926,"self":true,"updatedAt":"21/06/2026 08:38:52"},{"type":"lpg","price":0.731,"self":true,"updatedAt":"21/06/2026 08:38:52"}]},{"id":"23672","lat":38.164145385376735,"lon":13.319412767887115,"name":"CONIGLIARO ANGELO","brand":"Esso","address":"VIA SAN LORENZO COLLI 267/D 90146, PALERMO, PA","prices":[{"type":"petrol","price":1.956,"self":false,"updatedAt":"19/06/2026 06:58:03"},{"type":"diesel","price":2.006,"self":false,"updatedAt":"19/06/2026 06:58:03"}]},{"id":"47371","lat":38.087273666903215,"lon":13.347649116567606,"name":"DAMIANO PAOLO & C. SAS","brand":"Esso","address":"VIALE REGIONE SICILIANA S E 2085 90125, PALERMO, PA","prices":[{"type":"petrol","price":1.859,"self":true,"updatedAt":"19/06/2026 08:35:14"},{"type":"diesel","price":1.959,"self":true,"updatedAt":"19/06/2026 08:35:14"}]},{"id":"30050","lat":38.089767422352516,"lon":13.383274906092835,"name":"DBS Servizi Petroliferi srl Palermo Giafar","brand":"Lukoil","address":"REG.SICILIANA/VIA GIAFAR SNC 90124, PALERMO, PA","prices":[{"type":"petrol","price":1.844,"self":true,"updatedAt":"22/06/2026 00:48:07"},{"type":"diesel","price":1.934,"self":true,"updatedAt":"22/06/2026 00:48:07"},{"type":"lpg","price":0.731,"self":false,"updatedAt":"22/06/2026 00:48:07"}]},{"id":"48761","lat":38.091045332948816,"lon":13.414231023313507,"name":"DP CARBURANTI","brand":"dp carburanti","address":"corso dei mille  1484 B 90121, PALERMO, PA","prices":[{"type":"petrol","price":1.847,"self":true,"updatedAt":"19/06/2026 07:43:49"},{"type":"diesel","price":1.947,"self":true,"updatedAt":"19/06/2026 07:43:49"}]},{"id":"60384","lat":38.09907925160408,"lon":13.404747247695923,"name":"ECO ENERGY IP \"MESSINA MARINE\"","brand":"Api-Ip","address":"Via Messina Marine 451 90100, PALERMO, PA","prices":[{"type":"petrol","price":1.819,"self":true,"updatedAt":"20/06/2026 08:46:04"},{"type":"diesel","price":1.909,"self":true,"updatedAt":"20/06/2026 08:46:04"}]},{"id":"60385","lat":38.083158235093926,"lon":13.430099487304688,"name":"ECO ENERGY IP \"MESSINA MONTAGNE\"","brand":"Api-Ip","address":"Via Messina Montagne snc 90100, PALERMO, PA","prices":[{"type":"petrol","price":1.859,"self":true,"updatedAt":"19/06/2026 11:23:24"},{"type":"diesel","price":1.929,"self":true,"updatedAt":"19/06/2026 11:23:24"}]},{"id":"49403","lat":38.08821893365742,"lon":13.36689437187915,"name":"ECO ENERGY SRL ENI \"BONAGIA - ERMELLINO DIREZ. CT\"","brand":"Agip Eni","address":"Viale Regione Siciliana sud est - Via dell'Ermellino, PALERMO, PA","prices":[{"type":"petrol","price":1.834,"self":true,"updatedAt":"21/06/2026 10:37:06"},{"type":"diesel","price":1.926,"self":true,"updatedAt":"21/06/2026 10:37:06"},{"type":"methane","price":1.937,"self":false,"updatedAt":"21/06/2026 06:54:57"}]},{"id":"48876","lat":38.090372466449125,"lon":13.30448927371421,"name":"ECO ENERGY SRL ENI \"CIRCONV. ROCCA DIREZ. MONREALE\"","brand":"Agip Eni","address":"CIRCONVALLAZIONE ROCCA (DIREZ. MONREALE) SNC 90139, PALERMO, PA","prices":[{"type":"petrol","price":1.847,"self":true,"updatedAt":"19/06/2026 07:04:00"},{"type":"diesel","price":1.947,"self":true,"updatedAt":"19/06/2026 07:04:00"},{"type":"lpg","price":0.747,"self":false,"updatedAt":"19/06/2026 07:49:03"}]},{"id":"36876","lat":38.11966443453526,"lon":13.329139798879623,"name":"ECO ENERGY SRL ENI \"REGIONE SICILIANA ANGOLO PERPIGNANO\"","brand":"Agip Eni","address":"REGIONE SICILIANA (angolo via Perpignano) SNC 90135, PALERMO, PA","prices":[{"type":"petrol","price":1.819,"self":true,"updatedAt":"22/06/2026 05:56:30"},{"type":"diesel","price":1.919,"self":true,"updatedAt":"22/06/2026 05:56:30"}]},{"id":"36888","lat":38.14377095449575,"lon":13.36097498524737,"name":"ECO ENERGY SRL IP \"AMM. RIZZO - DON ORIONE\"","brand":"Api-Ip","address":"AMMIRAGLIO RIZZO SNC 90146, PALERMO, PA","prices":[{"type":"petrol","price":1.799,"self":true,"updatedAt":"19/06/2026 07:43:03"},{"type":"diesel","price":1.899,"self":true,"updatedAt":"19/06/2026 07:43:03"}]},{"id":"36873","lat":38.11792006976579,"lon":13.289036750793457,"name":"ECO ENERGY SRL IP \"BAIDA - FALCONARA\"","brand":"Api-Ip","address":"ALLA FALCONARA (Baida) SNC 90136, PALERMO, PA","prices":[{"type":"petrol","price":1.857,"self":true,"updatedAt":"19/06/2026 07:08:29"},{"type":"diesel","price":1.957,"self":true,"updatedAt":"19/06/2026 07:08:29"}]},{"id":"36878","lat":38.10737876561868,"lon":13.354834020137787,"name":"ECO ENERGY SRL IP \"BASILE - E. TOTI\"","brand":"Api-Ip","address":"ERNESTO BASILE SNC 90128, PALERMO, PA","prices":[{"type":"petrol","price":1.839,"self":true,"updatedAt":"17/06/2026 08:04:40"},{"type":"diesel","price":1.949,"self":true,"updatedAt":"17/06/2026 08:04:40"}]},{"id":"36868","lat":38.10619169905658,"lon":13.337864302425272,"name":"ECO ENERGY SRL IP \"CALATAFIMI\"","brand":"Api-Ip","address":"CALATAFIMI 431/433 90129, PALERMO, PA","prices":[{"type":"petrol","price":1.837,"self":true,"updatedAt":"20/06/2026 07:42:34"},{"type":"diesel","price":1.937,"self":true,"updatedAt":"20/06/2026 07:42:34"}]},{"id":"36886","lat":38.126883351861395,"lon":13.310487919228766,"name":"ECO ENERGY SRL IP \"DA VINCI - CAMPI RIBOLLA\"","brand":"Api-Ip","address":"LEONARDO DA VINCI 637 bis 90135, PALERMO, PA","prices":[{"type":"petrol","price":1.855,"self":true,"updatedAt":"21/06/2026 09:32:17"},{"type":"diesel","price":1.925,"self":true,"updatedAt":"21/06/2026 08:27:16"}]},{"id":"54125","lat":38.14278550769931,"lon":13.342028901384841,"name":"ECO ENERGY SRL IP \"IV NOVEMBRE / VIA ISONZO\"","brand":"Api-Ip","address":"QUATTRO NOVEMBRE (VIA ISONZO) SNC 90144, PALERMO, PA","prices":[{"type":"petrol","price":1.797,"self":false,"updatedAt":"19/06/2026 08:50:53"},{"type":"diesel","price":1.897,"self":false,"updatedAt":"19/06/2026 08:50:53"}]},{"id":"36870","lat":38.134975491895474,"lon":13.345312172827903,"name":"ECO ENERGY SRL IP \"LEOPARDI - RAPISARDI\"","brand":"Api-Ip","address":"GIACOMO LEOPARDI 44 90144, PALERMO, PA","prices":[{"type":"petrol","price":1.797,"self":true,"updatedAt":"19/06/2026 09:18:23"},{"type":"diesel","price":1.897,"self":true,"updatedAt":"19/06/2026 09:18:23"}]},{"id":"36875","lat":38.13656282971518,"lon":13.316891791926537,"name":"ECO ENERGY SRL IP \"MICHELANGELO\"","brand":"Api-Ip","address":"MICHELANGELO 1177 90145, PALERMO, PA","prices":[{"type":"petrol","price":1.795,"self":true,"updatedAt":"20/06/2026 10:01:18"},{"type":"diesel","price":1.895,"self":true,"updatedAt":"20/06/2026 10:01:18"}]},{"id":"38499","lat":38.102287131038075,"lon":13.352241263067786,"name":"ECO ENERGY SRL IP \"MONTEGRAPPA - ROCCELLA\"","brand":"Api-Ip","address":"MONTEGRAPPA SNC 90128, PALERMO, PA","prices":[{"type":"petrol","price":1.839,"self":true,"updatedAt":"17/06/2026 07:59:04"},{"type":"diesel","price":1.949,"self":true,"updatedAt":"17/06/2026 07:59:04"}]},{"id":"39176","lat":38.110518685406845,"lon":13.323112539947033,"name":"ECO ENERGY SRL IP \"PITRE' \"","brand":"Api-Ip","address":"PITRE' SNC 90135, PALERMO, PA","prices":[{"type":"petrol","price":1.877,"self":true,"updatedAt":"21/06/2026 08:30:14"},{"type":"diesel","price":1.977,"self":true,"updatedAt":"21/06/2026 08:30:14"}]},{"id":"51398","lat":38.14412616189906,"lon":13.372153043746948,"name":"ECO ENERGY SRL IP \"PORTO TURISTICO VILLA IGIEA / ACQUASANTA\"","brand":"Api-Ip","address":"ACQUASANTA PORTO TURISTICO MARINA DI VILLA IGIEA SNC 90142, PALERMO, PA","prices":[{"type":"petrol","price":1.927,"self":false,"updatedAt":"15/06/2026 15:59:38"},{"type":"diesel","price":1.887,"self":false,"updatedAt":"15/06/2026 15:59:38"}]},{"id":"36880","lat":38.190793987794024,"lon":13.333275752122713,"name":"ECO ENERGY SRL IP \"REGINA MARGHERITA DIREZ. MONDELLO\"","brand":"Api-Ip","address":"REGINA MARGHERITA SNC 90149, PALERMO, PA","prices":[{"type":"petrol","price":1.827,"self":true,"updatedAt":"18/06/2026 09:53:41"},{"type":"diesel","price":1.929,"self":true,"updatedAt":"19/06/2026 08:29:10"}]},{"id":"46929","lat":38.089060974038304,"lon":13.38490888215417,"name":"ECO ENERGY SRL IP \"SAN CIRO - PONTE GIAFAR\"","brand":"Api-Ip","address":"REGIONE SICILIANA S.E. (VIA BRASCA) 5339 90124, PALERMO, PA","prices":[{"type":"petrol","price":1.834,"self":true,"updatedAt":"22/06/2026 07:08:57"},{"type":"diesel","price":1.926,"self":true,"updatedAt":"22/06/2026 07:08:57"},{"type":"lpg","price":0.731,"self":false,"updatedAt":"19/06/2026 18:21:22"}]},{"id":"40342","lat":38.11244524359282,"lon":13.378014663715353,"name":"ECO ENERGY SRL IP \"SANT'ERASMO\"","brand":"Api-Ip","address":"S. ERASMO (LATO MONTE) SNC 90123, PALERMO, PA","prices":[{"type":"petrol","price":1.867,"self":true,"updatedAt":"18/06/2026 08:23:43"},{"type":"diesel","price":1.967,"self":true,"updatedAt":"18/06/2026 08:23:43"}]},{"id":"36871","lat":38.15998610726969,"lon":13.32331269979477,"name":"ECO ENERGY SRL IP \"STRASBURGO - VICOLO PANTELLERIA\"","brand":"Api-Ip","address":"STRASBURGO 484 90146, PALERMO, PA","prices":[{"type":"petrol","price":1.818,"self":true,"updatedAt":"22/06/2026 07:42:36"},{"type":"diesel","price":1.918,"self":true,"updatedAt":"22/06/2026 07:42:36"}]},{"id":"39177","lat":38.11294072216414,"lon":13.3773284219505,"name":"ECO ENERGY SRL IP \"TUMMINELLO - VILLA GIULIA\"","brand":"Api-Ip","address":"TUMMINELLO SNC 90123, PALERMO, PA","prices":[{"type":"petrol","price":1.867,"self":true,"updatedAt":"18/06/2026 08:13:52"},{"type":"diesel","price":1.967,"self":true,"updatedAt":"18/06/2026 08:13:52"}]},{"id":"36887","lat":38.12167062231123,"lon":13.346385061740875,"name":"ECO ENERGY SRL IP \"ZOPPO DI GANGI - RE FEDERICO\"","brand":"Api-Ip","address":"ZOPPO DI GANGI SNC 90138, PALERMO, PA","prices":[{"type":"petrol","price":1.827,"self":true,"updatedAt":"19/06/2026 07:44:20"},{"type":"diesel","price":1.927,"self":true,"updatedAt":"19/06/2026 07:44:20"}]},{"id":"44188","lat":38.13523049367836,"lon":13.358477387731568,"name":"ECOLGAS PIAZZA GIACHERY","brand":"Esso","address":"GIACHERY SNC 90142, PALERMO, PA","prices":[{"type":"petrol","price":1.819,"self":true,"updatedAt":"19/06/2026 17:17:51"},{"type":"diesel","price":1.919,"self":true,"updatedAt":"19/06/2026 17:17:51"}]},{"id":"42588","lat":38.144171772071836,"lon":13.34906363168102,"name":"ECOLGAS VIA VINCENZO FUXA","brand":"Esso","address":"VINCENZO FUXA SNC 90143, PALERMO, PA","prices":[{"type":"petrol","price":1.799,"self":true,"updatedAt":"21/06/2026 20:55:03"},{"type":"diesel","price":1.899,"self":true,"updatedAt":"21/06/2026 20:55:03"}]},{"id":"62061","lat":38.135054,"lon":13.357665,"name":"ENGY S \"GIACKERY\"","brand":"Api-Ip","address":"P.za Antonino Caponnetto snc 90100, PALERMO, PA","prices":[{"type":"petrol","price":1.819,"self":true,"updatedAt":"18/06/2026 18:00:27"},{"type":"diesel","price":1.919,"self":true,"updatedAt":"18/06/2026 18:00:27"}]},{"id":"60991","lat":38.12977,"lon":13.3555,"name":"ENGY S \"OMODEI\"","brand":"Api-Ip","address":"Via Francesco Omodei 11 90139, PALERMO, PA","prices":[{"type":"petrol","price":1.847,"self":true,"updatedAt":"19/06/2026 09:01:46"},{"type":"diesel","price":1.997,"self":true,"updatedAt":"19/06/2026 09:01:46"}]},{"id":"36987","lat":38.15114435876185,"lon":13.370519008810447,"name":"eni","brand":"Agip Eni","address":"VIA PAPA SERGIO 44 90142, PALERMO, PA","prices":[{"type":"petrol","price":1.819,"self":true,"updatedAt":"22/06/2026 06:26:14"},{"type":"diesel","price":1.909,"self":true,"updatedAt":"22/06/2026 06:26:14"}]},{"id":"56728","lat":38.12449,"lon":13.36369,"name":"ENI  MORANA","brand":"Agip Eni","address":"F. CRISPI ANG. VIA ONORATO SNC 90139, PALERMO, PA","prices":[{"type":"petrol","price":1.819,"self":true,"updatedAt":"22/06/2026 05:34:07"},{"type":"diesel","price":1.909,"self":true,"updatedAt":"22/06/2026 05:34:07"}]},{"id":"21715","lat":38.09827209605098,"lon":13.407576978206635,"name":"ENI F.lli VACCARO snc","brand":"Agip Eni","address":"MESSINA MARINE 459 90121, PALERMO, PA","prices":[{"type":"petrol","price":1.819,"self":true,"updatedAt":"22/06/2026 00:11:39"},{"type":"diesel","price":1.909,"self":true,"updatedAt":"22/06/2026 00:11:39"}]},{"id":"59351","lat":38.08476926139434,"lon":13.35497040992585,"name":"ENI- VIA TEODORO MONETA","brand":"Agip Eni","address":"Via Ernesto Teodoro Moneta 15  90125, PALERMO, PA","prices":[{"type":"petrol","price":1.809,"self":true,"updatedAt":"21/06/2026 23:57:45"},{"type":"diesel","price":1.899,"self":true,"updatedAt":"21/06/2026 23:57:44"}]},{"id":"59702","lat":38.09626,"lon":13.3125,"name":"ESSO","brand":"Esso","address":"C.so Calatafimi 1057 90132, PALERMO, PA","prices":[{"type":"petrol","price":1.859,"self":true,"updatedAt":"20/06/2026 12:43:27"},{"type":"diesel","price":1.939,"self":true,"updatedAt":"20/06/2026 12:43:27"}]},{"id":"54897","lat":38.138100830064886,"lon":13.350352048873901,"name":"ESSO","brand":"Esso","address":"VIA MARCHESE DI VILLABIANCA 101 90143, PALERMO (PA), PALERMO, PA","prices":[{"type":"petrol","price":1.799,"self":true,"updatedAt":"22/06/2026 07:31:25"},{"type":"diesel","price":1.899,"self":true,"updatedAt":"22/06/2026 07:31:25"}]},{"id":"54304","lat":38.091166,"lon":13.381913,"name":"ESSO","brand":"Esso","address":"REGIONE SICILIANA S E 5146/A 90124, PALERMO, PA","prices":[{"type":"petrol","price":1.838,"self":true,"updatedAt":"17/06/2026 07:49:32"},{"type":"diesel","price":1.928,"self":true,"updatedAt":"17/06/2026 07:49:32"}]},{"id":"31066","lat":38.119845458150174,"lon":13.340358634594509,"name":"esso","brand":"Esso","address":"P.ZZA PRINCIPE DI CAMPOREALE  90131, PALERMO, PA","prices":[{"type":"petrol","price":1.829,"self":true,"updatedAt":"18/06/2026 10:51:56"},{"type":"diesel","price":1.929,"self":true,"updatedAt":"18/06/2026 10:51:56"}]},{"id":"43419","lat":38.179488373381375,"lon":13.293530198741905,"name":"ESSO DI GULLI PIETRO","brand":"Esso","address":"VIA UGO LA MALFA 9596 90146, PALERMO (PA) 9596 90146, PALERMO, PA","prices":[{"type":"petrol","price":1.799,"self":true,"updatedAt":"19/06/2026 07:06:24"},{"type":"diesel","price":1.899,"self":true,"updatedAt":"19/06/2026 07:06:24"}]},{"id":"38883","lat":38.100616706304216,"lon":13.400572389364243,"name":"ESSO LA MARCA ALESSANDRO","brand":"Esso","address":"VIA MESSINA MARINE 435/D 90123, PALERMO, PA","prices":[{"type":"petrol","price":1.839,"self":true,"updatedAt":"19/06/2026 09:27:49"},{"type":"diesel","price":1.929,"self":true,"updatedAt":"19/06/2026 09:27:49"}]},{"id":"46582","lat":38.11020206168343,"lon":13.35061490535736,"name":"Esso Leonardo Alessio","brand":"Esso","address":"PIAZZA INDIPENDENZA 7 90129, PALERMO, PA","prices":[{"type":"petrol","price":1.819,"self":false,"updatedAt":"22/06/2026 07:31:18"},{"type":"diesel","price":1.899,"self":false,"updatedAt":"22/06/2026 07:31:18"}]},{"id":"53183","lat":38.10183795083215,"lon":13.370342552661896,"name":"EUROIL PALERMO ORETO","brand":"Sicilpetroli","address":"ORETO 311 90124, PALERMO, PA","prices":[{"type":"petrol","price":1.789,"self":false,"updatedAt":"20/06/2026 08:54:19"},{"type":"diesel","price":1.879,"self":false,"updatedAt":"20/06/2026 08:54:19"}]},{"id":"51438","lat":38.12328665503141,"lon":13.346696239709548,"name":"FALCONE ANTONINO P.ZZA LOLLI","brand":"Esso","address":"PIAZZA LOLLI SNC 90141, PALERMO, PA","prices":[{"type":"petrol","price":1.899,"self":false,"updatedAt":"22/06/2026 07:02:09"},{"type":"diesel","price":1.999,"self":false,"updatedAt":"22/06/2026 07:02:09"}]},{"id":"52956","lat":38.10932039849432,"lon":13.310953720834732,"name":"FALCONE GIUSEPPE","brand":"Q8","address":"VIA PITRE' GIUSEPPE 280/A 90135, PALERMO, PA","prices":[{"type":"petrol","price":1.854,"self":false,"updatedAt":"20/06/2026 09:35:09"},{"type":"diesel","price":1.914,"self":false,"updatedAt":"20/06/2026 09:35:09"}]},{"id":"61569","lat":38.18883350180006,"lon":13.305798510998072,"name":"FUEL","brand":"357","address":"Viale dell'Olimpo 30/E 90147, PALERMO, PA","prices":[{"type":"petrol","price":1.799,"self":true,"updatedAt":"18/06/2026 14:05:31"},{"type":"diesel","price":1.899,"self":true,"updatedAt":"18/06/2026 14:05:31"}]},{"id":"61564","lat":38.17448275493529,"lon":13.296863436698914,"name":"fuel","brand":"357","address":"Viale della Regione Siciliana Nord Ovest 9127 90147, PALERMO, PA","prices":[{"type":"petrol","price":1.799,"self":true,"updatedAt":"18/06/2026 14:06:19"},{"type":"diesel","price":1.899,"self":true,"updatedAt":"18/06/2026 14:06:19"}]},{"id":"37576","lat":38.09381548275944,"lon":13.361147940158844,"name":"FUEL POWER MONDINO","brand":"Pompe Bianche","address":"VIA DELL ORSA MAGGIORE  SNC 90100, PALERMO, PA","prices":[{"type":"petrol","price":1.799,"self":false,"updatedAt":"20/06/2026 10:46:06"},{"type":"diesel","price":1.899,"self":false,"updatedAt":"20/06/2026 10:46:06"}]},{"id":"33304","lat":38.14039348832011,"lon":13.336185974863042,"name":"FUELPOWER ALPI","brand":"Pompe Bianche","address":"VIA DELLE ALPI 51/A 90144, PALERMO, PA","prices":[{"type":"petrol","price":1.799,"self":false,"updatedAt":"18/06/2026 15:41:09"},{"type":"diesel","price":1.899,"self":false,"updatedAt":"18/06/2026 15:41:09"}]},{"id":"37575","lat":38.09984101760264,"lon":13.392674624919891,"name":"FUELPOWER DIAZ","brand":"Pompe Bianche","address":"via armando diaz  60/a 90100, PALERMO, PA","prices":[{"type":"petrol","price":1.827,"self":false,"updatedAt":"18/06/2026 10:06:53"},{"type":"diesel","price":1.917,"self":false,"updatedAt":"18/06/2026 10:06:53"}]},{"id":"44138","lat":38.144402074566095,"lon":13.345088000000032,"name":"FUELPOWER DON BOSCO","brand":"Pompe Bianche","address":"PIAZZA DON BOSCO SNC 90143, PALERMO, PA","prices":[{"type":"petrol","price":1.799,"self":false,"updatedAt":"18/06/2026 15:42:12"},{"type":"diesel","price":1.899,"self":false,"updatedAt":"18/06/2026 15:42:12"}]},{"id":"38099","lat":38.192314654935046,"lon":13.350565284490585,"name":"FUELPOWER MOTONAUTICA","brand":"Pompe Bianche","address":"LUNG. CRISTOFORO COLOMBO  4521 90100, PALERMO, PA","prices":[{"type":"petrol","price":2.099,"self":false,"updatedAt":"19/06/2026 16:54:22"},{"type":"diesel","price":2.179,"self":false,"updatedAt":"19/06/2026 16:54:22"}]},{"id":"56182","lat":38.189,"lon":13.3194,"name":"FUELPOWER OLIMPO","brand":"Pompe Bianche","address":"Viale dell'Olimpo 7  90146, PALERMO, PA","prices":[{"type":"petrol","price":1.827,"self":false,"updatedAt":"18/06/2026 12:33:17"},{"type":"diesel","price":1.929,"self":false,"updatedAt":"18/06/2026 12:33:17"},{"type":"lpg","price":0.792,"self":false,"updatedAt":"18/06/2026 12:33:17"}]},{"id":"47552","lat":38.164524000123,"lon":13.311091000123,"name":"FUELPOWER UGO LA MALFA","brand":"Pompe Bianche","address":"VIA UGO LA MALFA 137 90100, PALERMO, PA","prices":[{"type":"petrol","price":1.825,"self":false,"updatedAt":"19/06/2026 16:49:06"},{"type":"diesel","price":1.919,"self":false,"updatedAt":"19/06/2026 16:49:06"}]},{"id":"57774","lat":38.15121627558483,"lon":13.33146953885272,"name":"FUELPOWER VIALE STRASBURGO","brand":"Pompe Bianche","address":"Viale Strasburgo 98  90146, PALERMO, PA","prices":[{"type":"petrol","price":1.855,"self":false,"updatedAt":"18/06/2026 10:10:44"},{"type":"diesel","price":1.915,"self":false,"updatedAt":"18/06/2026 10:10:44"}]},{"id":"57078","lat":38.089819417532986,"lon":13.37189221070862,"name":"G P s.r.l Viale Reg. Siciliana Sud - Est, Ang. Via VF 12","brand":"Agip Eni","address":"Viale Reg. Siciliana S - E, Ang. Via VF 12 SNC 90100, PALERMO, PA","prices":[{"type":"petrol","price":1.837,"self":false,"updatedAt":"21/06/2026 08:06:58"},{"type":"diesel","price":1.927,"self":false,"updatedAt":"21/06/2026 08:06:58"},{"type":"lpg","price":0.731,"self":false,"updatedAt":"21/06/2026 08:06:58"}]},{"id":"49367","lat":38.13016798569221,"lon":13.360871076583857,"name":"G.P  S.R.L IP 43790 Piazza Ucciardone \"lato mare\"","brand":"Api-Ip","address":"UCCIARDONE (LATO MARE) SNC 90139, PALERMO, PA","prices":[{"type":"petrol","price":1.926,"self":true,"updatedAt":"20/06/2026 10:21:23"},{"type":"diesel","price":1.997,"self":true,"updatedAt":"20/06/2026 10:21:23"}]},{"id":"56112","lat":38.14899138846124,"lon":13.375737213710769,"name":"G.P S.r.l ENI 39531 Porto Arenella Diga Foranea","brand":"Agip Eni","address":"DIGA FORANEA SNC 90142, PALERMO, PA","prices":[{"type":"petrol","price":2.099,"self":false,"updatedAt":"20/06/2026 10:22:16"},{"type":"diesel","price":2.179,"self":false,"updatedAt":"20/06/2026 10:22:16"}]},{"id":"36757","lat":38.18504314413033,"lon":13.302747894442746,"name":"G.P SRL ENI 29801\"Via Lanza Di Scalea n. 2353","brand":"Agip Eni","address":"GIUSEPPE LANZA DI SCALEA 2353 90147, PALERMO, PA","prices":[{"type":"petrol","price":1.837,"self":true,"updatedAt":"20/06/2026 10:22:27"},{"type":"diesel","price":1.927,"self":true,"updatedAt":"20/06/2026 10:22:27"},{"type":"methane","price":1.937,"self":false,"updatedAt":"20/06/2026 10:20:42"}]},{"id":"47768","lat":38.08850784703822,"lon":13.365007638931274,"name":"G.P SRL ENI 39524 \"REGIONE SICILIANA (BONAGIA DIREZ. TP)\"","brand":"Agip Eni","address":"REGIONE SICILIANA S.E. 3290 90125, PALERMO, PA","prices":[{"type":"petrol","price":1.896,"self":true,"updatedAt":"20/06/2026 10:21:11"},{"type":"diesel","price":1.936,"self":true,"updatedAt":"20/06/2026 10:21:11"},{"type":"methane","price":1.937,"self":false,"updatedAt":"20/06/2026 10:21:11"},{"type":"lpg","price":0.731,"self":false,"updatedAt":"20/06/2026 10:21:11"}]},{"id":"44385","lat":38.15096576761043,"lon":13.322998881340027,"name":"G.P SRL ENI 39525 Viale Regione Siciliana n. 5580","brand":"Agip Eni","address":"REG. SICILIANA NORD OVEST 5580 90146, PALERMO, PA","prices":[{"type":"petrol","price":1.863,"self":true,"updatedAt":"20/06/2026 10:20:56"},{"type":"diesel","price":1.948,"self":true,"updatedAt":"20/06/2026 10:20:56"},{"type":"methane","price":1.937,"self":false,"updatedAt":"20/06/2026 10:20:56"},{"type":"lpg","price":0.789,"self":false,"updatedAt":"20/06/2026 10:20:56"}]},{"id":"51313","lat":38.12968716784113,"lon":13.334060311317444,"name":"G.P Srl Eni 39526 Via L.do da Vinci 66/D","brand":"Agip Eni","address":"LEONARDO DA VINCI 66/D 90145, PALERMO, PA","prices":[{"type":"petrol","price":1.838,"self":true,"updatedAt":"20/06/2026 10:50:17"},{"type":"diesel","price":1.938,"self":true,"updatedAt":"20/06/2026 10:50:17"}]},{"id":"44386","lat":38.135174796948455,"lon":13.357909917831421,"name":"G.P SRL ENI 55204 \"GIACHERY - CAPONNETTO\"","brand":"Agip Eni","address":"GIACCHERY SNC 90142, PALERMO, PA","prices":[{"type":"petrol","price":1.926,"self":true,"updatedAt":"20/06/2026 10:21:02"},{"type":"diesel","price":1.987,"self":true,"updatedAt":"20/06/2026 10:21:02"}]},{"id":"38174","lat":38.188143054379374,"lon":13.288734331727028,"name":"G.P SRL ENI 9770 \"MANDORLE-TOMMASO NATALE\"","brand":"Agip Eni","address":"MANDORLE SNC 90147, PALERMO, PA","prices":[{"type":"petrol","price":1.977,"self":false,"updatedAt":"20/06/2026 10:20:49"},{"type":"diesel","price":2.197,"self":false,"updatedAt":"20/06/2026 10:20:49"}]},{"id":"59451","lat":38.12319918094359,"lon":13.321225262832645,"name":"G.P. S.R.L  Via  G. Evangelista di Blasi","brand":"Pompe Bianche","address":"EVANGELISTA DI BLASI 171 90135, PALERMO, PA","prices":[{"type":"petrol","price":2.088,"self":true,"updatedAt":"20/06/2026 10:20:30"},{"type":"diesel","price":2.197,"self":true,"updatedAt":"20/06/2026 10:20:30"}]},{"id":"29292","lat":38.12586331325431,"lon":13.338535278404493,"name":"GAN- Gruppo Gandolfo","brand":"GAN","address":"VIA VIA G. AURISPA ANGOLO VIA SERRADIFALCO SNC 90145, PALERMO (PA) SNC 90145, PALERMO, PA","prices":[{"type":"petrol","price":1.829,"self":true,"updatedAt":"18/06/2026 10:50:45"},{"type":"diesel","price":1.929,"self":true,"updatedAt":"18/06/2026 10:50:45"}]},{"id":"54731","lat":38.13048469298272,"lon":13.360324501991272,"name":"GAN- Gruppo Gandolfo Ucciardone","brand":"GAN","address":"UCCIARDONE (LATO MONTE) 8 90139, PALERMO, PA","prices":[{"type":"petrol","price":1.937,"self":true,"updatedAt":"19/06/2026 09:54:20"},{"type":"diesel","price":1.997,"self":true,"updatedAt":"19/06/2026 09:54:20"}]},{"id":"55486","lat":38.10953269051738,"lon":13.356796401622537,"name":"GAN- GULIZZI PAOLO","brand":"Agip Eni","address":"ALESSANDRO VANNI 1 90134, PALERMO, PA","prices":[{"type":"petrol","price":1.869,"self":false,"updatedAt":"18/06/2026 12:04:07"},{"type":"diesel","price":1.969,"self":false,"updatedAt":"18/06/2026 12:04:07"}]},{"id":"62005","lat":38.09266439836976,"lon":13.33638310432434,"name":"GAN- SRL","brand":"Esso","address":"VIA GAETANO COSTA SNC 90129, PALERMO, PA","prices":[{"type":"petrol","price":1.814,"self":true,"updatedAt":"20/06/2026 16:48:01"},{"type":"diesel","price":1.904,"self":true,"updatedAt":"20/06/2026 16:48:01"},{"type":"lpg","price":0.749,"self":false,"updatedAt":"20/06/2026 16:48:01"}]},{"id":"53045","lat":38.10432005790824,"lon":13.376881778240204,"name":"GAN- SRL ENI CORSO DEI MILLE (PONTE AMMIRAGLIO)","brand":"Agip Eni","address":"Corso dei Mille  90123, PALERMO, PA","prices":[{"type":"petrol","price":1.789,"self":true,"updatedAt":"19/06/2026 13:22:28"},{"type":"diesel","price":1.879,"self":true,"updatedAt":"19/06/2026 13:22:28"}]},{"id":"52212","lat":38.11070069911125,"lon":13.350159871292213,"name":"GAN- SRL ENI PIAZZA INDIPENDENZA","brand":"Agip Eni","address":"PIAZZA INDIPENDENZA SNC 90129, PALERMO, PA","prices":[{"type":"petrol","price":1.819,"self":true,"updatedAt":"20/06/2026 08:37:38"},{"type":"diesel","price":1.899,"self":true,"updatedAt":"20/06/2026 08:37:38"}]},{"id":"53042","lat":38.1094882,"lon":13.3090055,"name":"GAN- SRL ENI PIAZZA PIETRO MICCA","brand":"Agip Eni","address":"Piazza Pietro Micca SN 90100, PALERMO, PA","prices":[{"type":"petrol","price":1.805,"self":true,"updatedAt":"19/06/2026 09:42:28"},{"type":"diesel","price":1.895,"self":true,"updatedAt":"19/06/2026 09:42:28"}]},{"id":"51849","lat":38.11965957285924,"lon":13.340774263435389,"name":"GAN- SRL ENI PIAZZA PRINCIPE DI CAMPOREALE","brand":"Agip Eni","address":"PIAZZA PRINCIPE DI CAMPOREALE SN 90138, PALERMO, PA","prices":[{"type":"petrol","price":1.829,"self":true,"updatedAt":"18/06/2026 10:50:19"},{"type":"diesel","price":1.929,"self":true,"updatedAt":"18/06/2026 10:50:19"}]},{"id":"53360","lat":38.13900163360319,"lon":13.337152898311615,"name":"GAN- SRL ENI VIA DELLE ALPI N. 8","brand":"Agip Eni","address":"DELLE ALPI 8 90144, PALERMO, PA","prices":[{"type":"petrol","price":1.809,"self":true,"updatedAt":"18/06/2026 12:18:00"},{"type":"diesel","price":1.919,"self":true,"updatedAt":"18/06/2026 12:18:00"}]},{"id":"58847","lat":38.10022749102151,"lon":13.347358703613281,"name":"GAN- SRL ENI VIA ERNESTO BASILE N. 204","brand":"Agip Eni","address":"Via Ernesto Basile 204  90128, PALERMO, PA","prices":[{"type":"petrol","price":1.812,"self":true,"updatedAt":"19/06/2026 11:41:16"},{"type":"diesel","price":1.902,"self":true,"updatedAt":"19/06/2026 11:41:16"}]},{"id":"53051","lat":38.139345497131636,"lon":13.335361182689667,"name":"GAN- SRL ENI VIA G. ZAPPALA (ANG. VIA DELLE MAGNOLIE)","brand":"Agip Eni","address":"Via Giovanni Zappalà (Ang. Via delle Magnolie)  90100, PALERMO, PA","prices":[{"type":"petrol","price":1.809,"self":false,"updatedAt":"18/06/2026 12:13:58"},{"type":"diesel","price":1.919,"self":false,"updatedAt":"18/06/2026 12:13:58"}]},{"id":"53054","lat":38.13763882112695,"lon":13.332153260707855,"name":"GAN- SRL ENI VIA GALILEO GALILEI N. 98","brand":"Agip Eni","address":"GALILEO GALILEI 98 90145, PALERMO, PA","prices":[{"type":"petrol","price":1.837,"self":true,"updatedAt":"19/06/2026 09:08:41"},{"type":"diesel","price":1.937,"self":true,"updatedAt":"19/06/2026 09:08:41"}]},{"id":"53047","lat":38.140687182250836,"lon":13.350982367992401,"name":"GAN- SRL ENI VIA GIUSEPPE ALESSI","brand":"Agip Eni","address":"Via Giuseppe Alessi sn 90143, PALERMO, PA","prices":[{"type":"petrol","price":1.789,"self":true,"updatedAt":"19/06/2026 13:46:24"},{"type":"diesel","price":1.879,"self":true,"updatedAt":"19/06/2026 13:46:24"}]},{"id":"52210","lat":38.08234146684868,"lon":13.431706059252004,"name":"GAN- SRL ENI VIA MESSINA MONTAGNE N.11","brand":"Agip Eni","address":"VIA MESSINA MONTAGNE 11 90121, PALERMO, PA","prices":[{"type":"petrol","price":1.859,"self":true,"updatedAt":"17/06/2026 16:14:22"},{"type":"diesel","price":1.959,"self":true,"updatedAt":"17/06/2026 16:14:22"}]},{"id":"53046","lat":38.0992312255052,"lon":13.372421264648438,"name":"GAN- SRL ENI VIA ORETO","brand":"Agip Eni","address":"Via Oreto SN 90124, PALERMO, PA","prices":[{"type":"petrol","price":1.789,"self":true,"updatedAt":"19/06/2026 13:13:41"},{"type":"diesel","price":1.879,"self":true,"updatedAt":"19/06/2026 13:13:41"}]},{"id":"53014","lat":38.16217012872389,"lon":13.314315646313458,"name":"GAN- SRL ENI VIA UGO LA MALFA N. 84","brand":"Agip Eni","address":"UGO LA MALFA 84 90146, PALERMO, PA","prices":[{"type":"petrol","price":1.819,"self":true,"updatedAt":"18/06/2026 13:14:01"},{"type":"diesel","price":1.919,"self":true,"updatedAt":"18/06/2026 13:14:01"}]},{"id":"52211","lat":38.145186385125086,"lon":13.338810903037368,"name":"GAN- SRL ENI VIALE CAMPANIA","brand":"Agip Eni","address":"VIALE CAMPANIA SNC 90144, PALERMO, PA","prices":[{"type":"petrol","price":1.787,"self":true,"updatedAt":"19/06/2026 13:19:23"},{"type":"diesel","price":1.877,"self":true,"updatedAt":"19/06/2026 13:19:23"}]},{"id":"52213","lat":38.13666414103649,"lon":13.331218890052927,"name":"GAN- SRL ENI VIALE REGIONE SICILIANA N. 3719","brand":"Agip Eni","address":"VIALE REGIONE SICILIANA 3719 90124, PALERMO, PA","prices":[{"type":"petrol","price":1.837,"self":true,"updatedAt":"19/06/2026 09:11:34"},{"type":"diesel","price":1.937,"self":true,"updatedAt":"19/06/2026 09:11:34"}]},{"id":"52209","lat":38.15707372495204,"lon":13.326429560955976,"name":"GAN- SRL ENI VIALE STRASBURGO N. 195","brand":"Agip Eni","address":"VIALE STRASBURGO 195 90146, PALERMO, PA","prices":[{"type":"petrol","price":1.857,"self":true,"updatedAt":"16/06/2026 16:25:04"},{"type":"diesel","price":1.967,"self":true,"updatedAt":"16/06/2026 08:30:00"}]},{"id":"53041","lat":38.15912757828072,"lon":13.324369490146637,"name":"GAN- SRL ENI VIALE STRASBURGO N. 251","brand":"Agip Eni","address":"Viale Strasburgo 251 90146, PALERMO, PA","prices":[{"type":"petrol","price":1.857,"self":true,"updatedAt":"16/06/2026 16:22:34"},{"type":"diesel","price":1.967,"self":true,"updatedAt":"22/06/2026 07:58:10"}]},{"id":"52208","lat":38.15640355503289,"lon":13.326717428863049,"name":"GAN- SRL ENI VIALE STRASBURGO N. 326","brand":"Agip Eni","address":"VIALE STRASBURGO 326 ANG.VIA FRANC 326 90146, PALERMO, PA","prices":[{"type":"petrol","price":1.857,"self":true,"updatedAt":"16/06/2026 16:25:00"},{"type":"diesel","price":1.967,"self":true,"updatedAt":"16/06/2026 08:34:57"}]},{"id":"51853","lat":38.10098128011673,"lon":13.338624514946526,"name":"GAN- SRL IP PIAZZA GEN. E. TURBA","brand":"Api-Ip","address":"PIAZZA GENERALE TURBA SNC 90128, PALERMO, PA","prices":[{"type":"petrol","price":1.819,"self":true,"updatedAt":"20/06/2026 08:36:29"},{"type":"diesel","price":1.899,"self":true,"updatedAt":"20/06/2026 08:36:29"}]},{"id":"51854","lat":38.10339843380206,"lon":13.353825744816271,"name":"GAN- SRL IP VIA CARMELO LAZZARO","brand":"Api-Ip","address":"VIA CARMELO LAZZARO SNC 90127, PALERMO, PA","prices":[{"type":"petrol","price":1.839,"self":true,"updatedAt":"17/06/2026 09:39:41"},{"type":"diesel","price":1.949,"self":true,"updatedAt":"17/06/2026 09:39:41"}]},{"id":"51823","lat":38.17003642792631,"lon":13.328156546841154,"name":"GAN- SRL IP VIA DUCA DEGLI ABRUZZI","brand":"Api-Ip","address":"VIA DUCA DEGLI ABRUZZI SNC 90146, PALERMO, PA","prices":[{"type":"petrol","price":1.899,"self":true,"updatedAt":"18/06/2026 09:16:25"},{"type":"diesel","price":1.979,"self":true,"updatedAt":"18/06/2026 09:16:25"}]},{"id":"51817","lat":38.12303697444989,"lon":13.365283430997259,"name":"GAN- SRL IP VIA FILIPPO PATTI","brand":"Api-Ip","address":"VIA FILIPPO PATTI SNC 90133, PALERMO, PA","prices":[{"type":"petrol","price":1.865,"self":true,"updatedAt":"19/06/2026 08:41:08"},{"type":"diesel","price":1.965,"self":true,"updatedAt":"19/06/2026 08:41:08"}]},{"id":"51855","lat":38.12665236623076,"lon":13.315978752516452,"name":"GAN- SRL IP VIA L. DA VINCI 394/B","brand":"Api-Ip","address":"VIA LEONARDO DA VINCI 394/B 90135, PALERMO, PA","prices":[{"type":"petrol","price":1.805,"self":false,"updatedAt":"19/06/2026 09:49:16"},{"type":"diesel","price":1.895,"self":false,"updatedAt":"19/06/2026 09:49:16"}]},{"id":"59565","lat":38.1377591839134,"lon":13.335703597171834,"name":"GAN- SRL VIA ZAPPALA'","brand":"Agip Eni","address":"G. ZAPPALA' SN 90144, PALERMO, PA","prices":[{"type":"petrol","price":1.809,"self":true,"updatedAt":"18/06/2026 12:09:14"},{"type":"diesel","price":1.919,"self":true,"updatedAt":"18/06/2026 12:09:14"}]},{"id":"17829","lat":38.126943446027674,"lon":13.314434587955475,"name":"Gi.a.g  carburanti","brand":"Pompe Bianche","address":"VIA LEONARDO DA VINCI 597 90135, PALERMO, PA","prices":[{"type":"petrol","price":1.799,"self":true,"updatedAt":"21/06/2026 15:46:57"},{"type":"diesel","price":1.929,"self":true,"updatedAt":"21/06/2026 15:46:57"}]},{"id":"14235","lat":38.16009742291062,"lon":13.329966371560273,"name":"GIAG","brand":"Pompe Bianche","address":"via Filippo di Giovanni 10A 90146, PALERMO, PA","prices":[{"type":"petrol","price":1.899,"self":true,"updatedAt":"19/06/2026 07:11:33"},{"type":"diesel","price":1.979,"self":true,"updatedAt":"19/06/2026 07:11:33"}]},{"id":"41221","lat":38.08679263358078,"lon":13.344048868647747,"name":"GIULIANO CARBURANTI","brand":"Pompe Bianche","address":"via villagrazia angolo via sales 168 90100, PALERMO, PA","prices":[{"type":"petrol","price":1.849,"self":true,"updatedAt":"20/06/2026 19:58:39"},{"type":"diesel","price":1.949,"self":true,"updatedAt":"20/06/2026 19:58:39"}]},{"id":"51126","lat":38.1346823154292,"lon":13.313408843724803,"name":"giuseppe giuliano 19731","brand":"Agip Eni","address":"viale michelangelo 1622 90146, PALERMO, PA","prices":[{"type":"petrol","price":2.115,"self":true,"updatedAt":"17/06/2026 07:32:05"},{"type":"diesel","price":2.286,"self":true,"updatedAt":"17/06/2026 07:32:05"}]},{"id":"60664","lat":38.0936557,"lon":13.3874724,"name":"GREEN POWER CARBURANTI S.R.L","brand":"GP GREEN POWER","address":"Via Emiro Giafar 207/209, PALERMO, PA","prices":[{"type":"petrol","price":1.788,"self":false,"updatedAt":"19/06/2026 17:30:57"},{"type":"diesel","price":1.878,"self":false,"updatedAt":"19/06/2026 17:30:57"},{"type":"lpg","price":0.699,"self":false,"updatedAt":"19/06/2026 17:30:57"}]},{"id":"9617","lat":38.133363859262175,"lon":13.340023973541292,"name":"GUGLIELMINO GIOSI & C. SNC","brand":"Agip Eni","address":"VIA UMBERTO GIORDANO  5 90144, PALERMO, PA","prices":[{"type":"petrol","price":1.819,"self":true,"updatedAt":"22/06/2026 05:56:04"},{"type":"diesel","price":1.909,"self":true,"updatedAt":"22/06/2026 05:56:04"}]},{"id":"44925","lat":38.126632000123,"lon":13.328953000123,"name":"GUIDO CAPOBIANCO","brand":"Agip Eni","address":"Via Uditore SNC 90145, PALERMO, PA","prices":[{"type":"petrol","price":1.819,"self":true,"updatedAt":"22/06/2026 00:49:41"},{"type":"diesel","price":1.909,"self":true,"updatedAt":"22/06/2026 00:49:41"}]},{"id":"62323","lat":38.1292789573455,"lon":13.350553140753169,"name":"Impianto IP","brand":"Api-Ip","address":"Via G. La Farina snc 90141, PALERMO, PA","prices":[{"type":"petrol","price":1.864,"self":true,"updatedAt":"22/06/2026 07:31:59"},{"type":"diesel","price":1.974,"self":true,"updatedAt":"22/06/2026 07:31:59"}]},{"id":"37231","lat":38.12904730646096,"lon":13.330730736176292,"name":"Impianto Q8 Romano Stefano","brand":"Q8","address":"VIA LEONARDO DA VINCI 173 90145, PALERMO, PA","prices":[{"type":"petrol","price":1.879,"self":true,"updatedAt":"19/06/2026 19:23:40"},{"type":"diesel","price":1.959,"self":true,"updatedAt":"19/06/2026 19:23:40"}]},{"id":"56387","lat":38.12420834298999,"lon":13.348149500846857,"name":"IP","brand":"Api-Ip","address":"PIAZZA VIRGILIO ANGOLO VIA SELINUNTE SN 90141, PALERMO (PA) SNC 90141, PALERMO, PA","prices":[{"type":"petrol","price":1.897,"self":false,"updatedAt":"16/06/2026 07:56:58"},{"type":"diesel","price":1.997,"self":false,"updatedAt":"16/06/2026 07:56:58"}]},{"id":"58682","lat":38.09611347506876,"lon":13.335432299066934,"name":"IP","brand":"Api-Ip","address":"Viale della Regione Siciliana Sud Est 893 90129, PALERMO, PA","prices":[{"type":"petrol","price":1.849,"self":true,"updatedAt":"20/06/2026 18:15:28"},{"type":"diesel","price":1.949,"self":true,"updatedAt":"20/06/2026 18:15:28"}]},{"id":"17527","lat":38.14619780438535,"lon":13.338157869808242,"name":"ip gruppo api di benedetto guglielmino","brand":"Api-Ip","address":"CAMPANIA 55 90144, PALERMO, PA","prices":[{"type":"petrol","price":1.787,"self":true,"updatedAt":"22/06/2026 06:50:24"},{"type":"diesel","price":1.877,"self":true,"updatedAt":"22/06/2026 06:50:24"}]},{"id":"42457","lat":38.127446999171916,"lon":13.32542202095567,"name":"italpetroli srl","brand":"Pompe Bianche","address":"via L Da Vinci 210 90100, PALERMO, PA","prices":[{"type":"petrol","price":1.785,"self":false,"updatedAt":"19/06/2026 11:21:49"},{"type":"diesel","price":1.885,"self":false,"updatedAt":"19/06/2026 11:21:49"}]},{"id":"37389","lat":38.14446718412312,"lon":13.339260444045067,"name":"lo bianco esso","brand":"Esso","address":"VIALE CAMPANIA  90144, PALERMO, PA","prices":[{"type":"petrol","price":1.849,"self":false,"updatedAt":"16/06/2026 10:52:30"},{"type":"diesel","price":1.929,"self":false,"updatedAt":"16/06/2026 10:52:30"}]},{"id":"59990","lat":38.093978921216674,"lon":13.364595775522137,"name":"LUKOIL - PALERMO","brand":"Lukoil","address":"DELL'ORSA MAGGIORE 9/9-A 90125, PALERMO, PA","prices":[{"type":"petrol","price":1.799,"self":true,"updatedAt":"22/06/2026 06:46:55"},{"type":"diesel","price":1.899,"self":true,"updatedAt":"22/06/2026 06:46:55"},{"type":"methane","price":1.937,"self":false,"updatedAt":"22/06/2026 06:46:55"}]},{"id":"62990","lat":38.12572892785362,"lon":13.314056823773178,"name":"LZ","brand":"357","address":"Via Giovanni Evangelista Di Blasi SNC 90135, PALERMO, PA","prices":[{"type":"petrol","price":1.785,"self":true,"updatedAt":"19/06/2026 11:33:40"},{"type":"diesel","price":1.885,"self":true,"updatedAt":"19/06/2026 11:33:40"}]},{"id":"50672","lat":38.13194840583261,"lon":13.323623420832064,"name":"MOIL Palermo","brand":"Pompe Bianche","address":"VIA UDITORE 14/P 90145, PALERMO, PA","prices":[{"type":"petrol","price":1.799,"self":true,"updatedAt":"19/06/2026 10:16:55"},{"type":"diesel","price":1.899,"self":true,"updatedAt":"19/06/2026 10:16:55"}]},{"id":"58905","lat":38.124412311273566,"lon":13.37212085723877,"name":"molo ct bersagliere Palermo","brand":"Agip Eni","address":"CT BERSAGLIERE (MOLO SUD) SNC 90133, PALERMO, PA","prices":[{"type":"diesel","price":2.219,"self":false,"updatedAt":"19/06/2026 10:45:30"}]},{"id":"24082","lat":38.11385041955412,"lon":13.329769723938398,"name":"Montalbano Maurizio Q8","brand":"Q8","address":"REGIONE SICILIANA  90135, PALERMO, PA","prices":[{"type":"petrol","price":1.839,"self":true,"updatedAt":"20/06/2026 09:14:38"},{"type":"diesel","price":1.939,"self":true,"updatedAt":"20/06/2026 09:14:38"}]},{"id":"62508","lat":38.1168401,"lon":13.3445182,"name":"MY FUEL","brand":"Pompe Bianche","address":"Via Guglielmo Il Buono snc 90138, PALERMO, PA","prices":[{"type":"petrol","price":1.797,"self":true,"updatedAt":"19/06/2026 07:21:21"},{"type":"diesel","price":1.877,"self":true,"updatedAt":"19/06/2026 07:21:21"}]},{"id":"43932","lat":38.14755359581263,"lon":13.333592458631028,"name":"MY FUEL","brand":"Pompe Bianche","address":"VIA DELLE MADONIE 6/A 90144, PALERMO, PA","prices":[{"type":"petrol","price":1.817,"self":true,"updatedAt":"19/06/2026 07:19:34"},{"type":"diesel","price":1.897,"self":true,"updatedAt":"19/06/2026 07:19:34"}]},{"id":"43933","lat":38.1544438452601,"lon":13.33803833423283,"name":"MY FUEL","brand":"Pompe Bianche","address":"VIA VILLA SOFIA SNC 90144, PALERMO, PA","prices":[{"type":"petrol","price":1.817,"self":false,"updatedAt":"19/06/2026 07:20:15"},{"type":"diesel","price":1.897,"self":false,"updatedAt":"19/06/2026 07:20:15"}]},{"id":"58832","lat":38.12226850064173,"lon":13.372163772583008,"name":"NAUTILUS AVIATION SPA","brand":"Pompe Bianche","address":"PORTO PALERMO SNC 90100, PALERMO, PA","prices":[{"type":"petrol","price":2.099,"self":false,"updatedAt":"15/06/2026 10:09:17"},{"type":"diesel","price":2.179,"self":false,"updatedAt":"15/06/2026 10:09:17"}]},{"id":"37204","lat":38.133395,"lon":13.330464,"name":"NEW OIL CENTER","brand":"Agip Eni","address":"VIALE REGIONE SICILIANA 3385 90143, PALERMO, PA","prices":[{"type":"petrol","price":1.819,"self":true,"updatedAt":"22/06/2026 06:02:16"},{"type":"diesel","price":1.909,"self":true,"updatedAt":"22/06/2026 06:02:16"}]},{"id":"42734","lat":38.170328722028934,"lon":13.328026289395439,"name":"PA022","brand":"EOS","address":"VIA DUCA DEGLI ABRUZZI SNC 90146, PALERMO, PA","prices":[{"type":"petrol","price":1.899,"self":false,"updatedAt":"19/06/2026 15:21:08"},{"type":"diesel","price":1.979,"self":false,"updatedAt":"19/06/2026 15:21:08"}]},{"id":"50713","lat":38.0828825224145,"lon":13.430410027503962,"name":"PA037","brand":"Q8","address":"Via Messina Montagne  90121, PALERMO, PA","prices":[{"type":"petrol","price":1.859,"self":true,"updatedAt":"18/06/2026 16:27:06"},{"type":"diesel","price":1.929,"self":true,"updatedAt":"19/06/2026 10:45:07"}]},{"id":"46276","lat":38.13650468364597,"lon":13.317376375198364,"name":"PA038","brand":"Q8","address":"VIALE MICHELANGELO 1182 90145, PALERMO, PA","prices":[{"type":"petrol","price":1.795,"self":true,"updatedAt":"19/06/2026 11:21:05"},{"type":"diesel","price":1.895,"self":true,"updatedAt":"19/06/2026 11:21:05"}]},{"id":"45497","lat":38.09745481167074,"lon":13.334861695766449,"name":"PA040","brand":"Q8","address":"VIALE REGIONE SICILIANA S E 760 90129, PALERMO, PA","prices":[{"type":"petrol","price":1.797,"self":true,"updatedAt":"19/06/2026 10:57:05"},{"type":"diesel","price":1.899,"self":true,"updatedAt":"19/06/2026 10:57:05"}]},{"id":"54062","lat":38.182122787238285,"lon":13.333950675563335,"name":"PA041","brand":"EOS","address":"MARGHERITA DI SAVOIA 91 90146, PALERMO, PA","prices":[{"type":"petrol","price":1.789,"self":false,"updatedAt":"19/06/2026 10:42:05"},{"type":"diesel","price":1.899,"self":false,"updatedAt":"19/06/2026 10:42:05"}]},{"id":"40242","lat":38.13194946073313,"lon":13.323639514086153,"name":"PA042","brand":"EOS","address":"VIA UDITORE 14 90145, PALERMO, PA","prices":[{"type":"petrol","price":1.795,"self":true,"updatedAt":"19/06/2026 10:45:06"},{"type":"diesel","price":1.895,"self":true,"updatedAt":"19/06/2026 10:45:06"}]},{"id":"46212","lat":38.14920082285968,"lon":13.370811939239502,"name":"PA046","brand":"Q8","address":"VIA PAPA SERGIO I SNC 90142, PALERMO, PA","prices":[{"type":"petrol","price":1.849,"self":true,"updatedAt":"18/06/2026 11:30:04"},{"type":"diesel","price":1.949,"self":true,"updatedAt":"18/06/2026 11:30:04"}]},{"id":"45496","lat":38.157935776006916,"lon":13.317440748214722,"name":"PA050","brand":"Q8","address":"VIA UGO LA MALFA 6771 90146, PALERMO, PA","prices":[{"type":"petrol","price":1.819,"self":true,"updatedAt":"18/06/2026 11:39:05"},{"type":"diesel","price":1.919,"self":true,"updatedAt":"18/06/2026 11:39:05"}]},{"id":"50361","lat":38.0876832758095,"lon":13.348114490509028,"name":"PA060","brand":"Q8","address":"Viale Regione Siciliana, Ponte Corleone  90100, PALERMO, PA","prices":[{"type":"petrol","price":1.849,"self":true,"updatedAt":"18/06/2026 15:45:05"},{"type":"diesel","price":1.949,"self":true,"updatedAt":"18/06/2026 15:45:05"}]},{"id":"46274","lat":38.15864441323772,"lon":13.317108154296875,"name":"PA061","brand":"Q8","address":"VIA UGO LA MALFA 26 90146, PALERMO, PA","prices":[{"type":"petrol","price":1.829,"self":true,"updatedAt":"18/06/2026 11:33:06"},{"type":"diesel","price":1.929,"self":true,"updatedAt":"18/06/2026 11:33:06"}]},{"id":"41953","lat":38.142734181512566,"lon":13.333926067567404,"name":"PA064","brand":"EOS","address":"VIALE DELLE ALPI ANG. V. UMBRIA SNC 90144, PALERMO, PA","prices":[{"type":"petrol","price":1.789,"self":true,"updatedAt":"20/06/2026 11:24:04"},{"type":"diesel","price":1.899,"self":true,"updatedAt":"20/06/2026 11:24:04"}]},{"id":"47725","lat":38.172128298507104,"lon":13.299086391925806,"name":"PA066","brand":"Q8","address":"VIALE REGIONE SICILIANA N O 9127 90147, PALERMO, PA","prices":[{"type":"petrol","price":1.799,"self":true,"updatedAt":"19/06/2026 10:48:06"},{"type":"diesel","price":1.899,"self":true,"updatedAt":"19/06/2026 10:48:06"}]},{"id":"44961","lat":38.11167387231801,"lon":13.330111503601074,"name":"PA072","brand":"EOS","address":"VIALE REG. SICILIANA/VIA PITRE' SNC 90135, PALERMO, PA","prices":[{"type":"petrol","price":1.819,"self":true,"updatedAt":"21/06/2026 07:30:04"},{"type":"diesel","price":1.919,"self":true,"updatedAt":"21/06/2026 07:30:04"}]},{"id":"46275","lat":38.16775484986008,"lon":13.366289138793945,"name":"PA100","brand":"EOS","address":"LUNGOMARE CRISTOFORO COLOMBO SN 90149, PALERMO, PA","prices":[{"type":"petrol","price":1.789,"self":true,"updatedAt":"19/06/2026 19:36:06"},{"type":"diesel","price":1.889,"self":true,"updatedAt":"19/06/2026 19:36:06"}]},{"id":"46835","lat":38.12566063953271,"lon":13.311034734616783,"name":"PA108","brand":"EOS","address":"VIA CASTELLANA 14 90135, PALERMO, PA","prices":[{"type":"petrol","price":1.795,"self":true,"updatedAt":"19/06/2026 10:48:09"},{"type":"diesel","price":1.895,"self":true,"updatedAt":"18/06/2026 12:24:05"}]},{"id":"42553","lat":38.09156491047357,"lon":13.43160348161473,"name":"PA111","brand":"Q8","address":"VIA GALLETTI 247 90121, PALERMO, PA","prices":[{"type":"petrol","price":1.835,"self":true,"updatedAt":"19/06/2026 10:45:04"},{"type":"diesel","price":1.915,"self":true,"updatedAt":"19/06/2026 10:45:04"}]},{"id":"61964","lat":38.09837822643455,"lon":13.391238445369623,"name":"PA112","brand":"Q8","address":"GIAFAR EMIRO 9 90123, PALERMO, PA","prices":[{"type":"petrol","price":1.819,"self":true,"updatedAt":"17/06/2026 11:21:07"},{"type":"diesel","price":1.919,"self":true,"updatedAt":"17/06/2026 11:21:07"}]},{"id":"38044","lat":38.090120253929776,"lon":13.38232934474945,"name":"PA117","brand":"Q8","address":"VIALE REGIONE SICILIANA SNC 90124, PALERMO, PA","prices":[{"type":"petrol","price":1.844,"self":true,"updatedAt":"19/06/2026 15:15:07"},{"type":"diesel","price":1.934,"self":true,"updatedAt":"19/06/2026 15:15:07"}]},{"id":"42554","lat":38.0877432282675,"lon":13.348232518663053,"name":"PA118","brand":"Q8","address":"VIALE REGIONE SICILIANA S.E. 2000 90125, PALERMO, PA","prices":[{"type":"petrol","price":1.849,"self":true,"updatedAt":"17/06/2026 11:57:06"},{"type":"diesel","price":1.949,"self":true,"updatedAt":"17/06/2026 11:57:06"}]},{"id":"59315","lat":38.1292224,"lon":13.3546339,"name":"PA123","brand":"Q8","address":"ISIDORO LA LUMIA SNC 90139, PALERMO, PA","prices":[{"type":"petrol","price":1.849,"self":true,"updatedAt":"18/06/2026 11:36:05"},{"type":"diesel","price":1.949,"self":true,"updatedAt":"18/06/2026 11:36:05"}]},{"id":"47727","lat":38.14425519711554,"lon":13.335864841938013,"name":"PA124","brand":"EOS","address":"VIA EMPEDOCLE RESTIVO SN 90144, PALERMO, PA","prices":[{"type":"petrol","price":1.789,"self":true,"updatedAt":"19/06/2026 10:45:06"},{"type":"diesel","price":1.899,"self":true,"updatedAt":"19/06/2026 10:45:06"}]},{"id":"47165","lat":38.12700844425107,"lon":13.323387205600733,"name":"PA126","brand":"EOS","address":"VIALE LEONARDO DA VINCI 252 90135, PALERMO, PA","prices":[{"type":"petrol","price":1.795,"self":true,"updatedAt":"19/06/2026 10:00:05"},{"type":"diesel","price":1.895,"self":true,"updatedAt":"19/06/2026 09:12:05"}]},{"id":"51797","lat":38.14470998015819,"lon":13.332228362560272,"name":"PA127","brand":"Q8","address":"DELLE ALPI SNC 90144, PALERMO, PA","prices":[{"type":"petrol","price":1.829,"self":true,"updatedAt":"17/06/2026 11:24:07"},{"type":"diesel","price":1.929,"self":true,"updatedAt":"17/06/2026 11:24:07"}]},{"id":"46506","lat":38.144702398136985,"lon":13.330283164978027,"name":"PA128","brand":"Q8","address":"VIALE REGIONE SICILIANA N O 4561 90145, PALERMO, PA","prices":[{"type":"petrol","price":1.829,"self":true,"updatedAt":"17/06/2026 11:42:06"},{"type":"diesel","price":1.929,"self":true,"updatedAt":"17/06/2026 11:42:06"}]},{"id":"49438","lat":38.17104444996436,"lon":13.313283324241633,"name":"PA137","brand":"Q8","address":"VIA GIUSEPPE LANZA DI SCALEA 686 90146, PALERMO, PA","prices":[{"type":"petrol","price":1.819,"self":false,"updatedAt":"19/06/2026 10:48:06"},{"type":"diesel","price":1.929,"self":false,"updatedAt":"19/06/2026 10:48:06"},{"type":"lpg","price":0.729,"self":false,"updatedAt":"19/06/2026 09:57:05"}]},{"id":"60783","lat":38.091353198976215,"lon":13.408611703315335,"name":"PA139","brand":"Q8","address":"LAUDICINA ANTONINO SNC 90121, PALERMO, PA","prices":[{"type":"petrol","price":1.849,"self":true,"updatedAt":"18/06/2026 09:03:06"},{"type":"diesel","price":1.929,"self":true,"updatedAt":"18/06/2026 09:03:06"}]},{"id":"49039","lat":38.10499382139809,"lon":13.3631727131444,"name":"PACE NICOLA","brand":"Q8","address":"VIA ROCCO JEMMA ADIACENTE AL 3 SN 90127, PALERMO, PA","prices":[{"type":"petrol","price":1.899,"self":true,"updatedAt":"18/06/2026 17:55:21"},{"type":"diesel","price":1.999,"self":true,"updatedAt":"18/06/2026 17:55:21"}]},{"id":"6784","lat":38.17717395339102,"lon":13.335607803075845,"name":"PALERMO V.REG.MARGHERITA DI SAVOIA-MONDELLO","brand":"Q8","address":"V.REG.MARGHERITA DI SAVOIA-MONDELLO SNC 90146, PALERMO, PA","prices":[{"type":"petrol","price":1.799,"self":true,"updatedAt":"20/06/2026 08:17:23"},{"type":"diesel","price":1.889,"self":true,"updatedAt":"20/06/2026 08:17:23"}]},{"id":"26121","lat":38.096606226852,"lon":13.412503915344246,"name":"PALERMO VIA LAUDICINA","brand":"Q8","address":"VIA A. LAUDICINA  90122, PALERMO, PA","prices":[{"type":"petrol","price":1.819,"self":true,"updatedAt":"20/06/2026 01:41:45"},{"type":"diesel","price":1.909,"self":true,"updatedAt":"20/06/2026 01:41:45"}]},{"id":"25137","lat":38.18911196741004,"lon":13.297261009787007,"name":"PALERMO VIA NICOLETTI","brand":"Q8","address":"VIA NICOLETTI  90151, PALERMO, PA","prices":[{"type":"petrol","price":1.799,"self":true,"updatedAt":"19/06/2026 14:08:23"},{"type":"diesel","price":1.889,"self":true,"updatedAt":"19/06/2026 14:08:23"}]},{"id":"53027","lat":38.1085487,"lon":13.3471888,"name":"POMPA BIANCA","brand":"Pompe Bianche","address":"VIA PIAZZA CAPPUCCINI SN 90129, PALERMO (PA)  90134, PALERMO, PA","prices":[{"type":"petrol","price":1.794,"self":false,"updatedAt":"19/06/2026 06:55:56"},{"type":"diesel","price":1.889,"self":false,"updatedAt":"19/06/2026 06:55:56"}]},{"id":"33521","lat":38.12477807109917,"lon":13.337791779748954,"name":"Pompa Bianca","brand":"Pompe Bianche","address":"VIA FELICE BISAZZA SNC 90145, PALERMO, PA","prices":[{"type":"petrol","price":1.826,"self":true,"updatedAt":"19/06/2026 11:36:04"},{"type":"diesel","price":1.926,"self":true,"updatedAt":"19/06/2026 11:36:04"}]},{"id":"51437","lat":38.131195742445136,"lon":13.338154156545299,"name":"PV-108132 FALCONE ANTONINO","brand":"Esso","address":"PIAZZA OTTAVIO ZIINO 1/B 90145, PALERMO, PA","prices":[{"type":"petrol","price":1.819,"self":true,"updatedAt":"22/06/2026 07:01:58"},{"type":"diesel","price":1.909,"self":true,"updatedAt":"22/06/2026 07:01:58"}]},{"id":"51439","lat":38.10225424436713,"lon":13.339770320938372,"name":"PV-108156 FALCONE ANTONINO","brand":"Esso","address":"VIA LARGO TRAINA 1/BIS 90129, PALERMO, PA","prices":[{"type":"petrol","price":1.799,"self":true,"updatedAt":"22/06/2026 07:02:20"},{"type":"diesel","price":1.899,"self":true,"updatedAt":"22/06/2026 07:02:20"}]},{"id":"47544","lat":38.106588000123,"lon":13.385384000123,"name":"Q8","brand":"Q8","address":"VIA MESSINA MARINE 92 90123, PALERMO, PA","prices":[{"type":"petrol","price":1.867,"self":true,"updatedAt":"19/06/2026 07:43:21"},{"type":"diesel","price":1.967,"self":true,"updatedAt":"19/06/2026 07:43:21"}]},{"id":"58631","lat":38.11155013110078,"lon":13.330085178906245,"name":"Q8","brand":"Q8","address":"REGIONE SICILIANA N O 857 90135, PALERMO, PA","prices":[{"type":"petrol","price":1.819,"self":true,"updatedAt":"20/06/2026 09:10:38"},{"type":"diesel","price":1.919,"self":true,"updatedAt":"20/06/2026 09:10:38"}]},{"id":"51941","lat":38.10280901008787,"lon":13.352445162698164,"name":"Q8","brand":"Q8","address":"PIAZZA MONTEGRAPPA SNC 90128, PALERMO, PA","prices":[{"type":"petrol","price":1.939,"self":false,"updatedAt":"18/06/2026 11:37:13"},{"type":"diesel","price":1.999,"self":false,"updatedAt":"18/06/2026 11:37:13"}]},{"id":"56119","lat":38.13474019598617,"lon":13.358330421565249,"name":"Q8 kuwait petroleum italia spa","brand":"Q8","address":"Piazza Antonino Caponnetto SNC 90142, PALERMO, PA","prices":[{"type":"petrol","price":1.929,"self":false,"updatedAt":"18/06/2026 11:22:08"},{"type":"diesel","price":2.039,"self":false,"updatedAt":"18/06/2026 11:22:08"}]},{"id":"44586","lat":38.18924486186048,"lon":13.304965919492815,"name":"R.T.L. DISTRIBUTORE SAS","brand":"Esso","address":"VIALE DELL OLIMPO 53 90151, PALERMO, PA","prices":[{"type":"petrol","price":1.839,"self":true,"updatedAt":"20/06/2026 07:37:48"},{"type":"diesel","price":1.929,"self":true,"updatedAt":"20/06/2026 07:37:48"}]},{"id":"50983","lat":38.1371001702138,"lon":13.318765759468073,"name":"Salemi Srl","brand":"Pompe Bianche","address":"Viale Michelangelo 867 90145, PALERMO, PA","prices":[{"type":"petrol","price":1.794,"self":true,"updatedAt":"20/06/2026 11:45:44"},{"type":"diesel","price":1.894,"self":true,"updatedAt":"20/06/2026 11:45:44"}]},{"id":"53324","lat":38.1943808,"lon":13.3234688,"name":"SALVOIL GALATEA","brand":"Api-Ip","address":"GALATEA 34 90151, PALERMO, PA","prices":[{"type":"petrol","price":1.849,"self":false,"updatedAt":"19/06/2026 11:05:47"},{"type":"diesel","price":1.928,"self":false,"updatedAt":"19/06/2026 11:05:47"}]},{"id":"53327","lat":38.1943808,"lon":13.3234688,"name":"SALVOIL TRABUCCO","brand":"Api-Ip","address":"TRABUCCO SNC 90146, PALERMO, PA","prices":[{"type":"petrol","price":1.849,"self":false,"updatedAt":"19/06/2026 11:06:36"},{"type":"diesel","price":1.928,"self":false,"updatedAt":"19/06/2026 11:06:36"}]},{"id":"53323","lat":38.1943808,"lon":13.3234688,"name":"SALVOIL VIA UMBERTO MADDALENA","brand":"Api-Ip","address":"UMBERTO MADDALENA SNC 90136, PALERMO, PA","prices":[{"type":"petrol","price":1.849,"self":false,"updatedAt":"19/06/2026 11:05:36"},{"type":"diesel","price":1.928,"self":false,"updatedAt":"19/06/2026 11:05:36"}]},{"id":"53320","lat":38.189146969281566,"lon":13.324775407538558,"name":"SALVOIL VIA VENERE","brand":"Agip Eni","address":"VENERE SNC 90149, PALERMO, PA","prices":[{"type":"petrol","price":1.827,"self":true,"updatedAt":"19/06/2026 08:53:03"},{"type":"diesel","price":1.929,"self":true,"updatedAt":"19/06/2026 08:53:03"},{"type":"lpg","price":0.792,"self":false,"updatedAt":"19/06/2026 08:53:03"}]},{"id":"53326","lat":38.12671942297655,"lon":13.315063683986663,"name":"SALVOIL VINCI","brand":"Agip Eni","address":"LEONARDO DA VINCI 396 90135, PALERMO, PA","prices":[{"type":"petrol","price":1.804,"self":true,"updatedAt":"19/06/2026 11:06:21"},{"type":"diesel","price":1.894,"self":true,"updatedAt":"19/06/2026 11:06:21"}]},{"id":"56068","lat":38.139218484996505,"lon":13.343970214086085,"name":"SICILPETROLI Palermo Di Blasi","brand":"Sicilpetroli","address":"VIA FRANCESCO PAOLO DI BLASI SN 90144, PALERMO (PA)  90144, PALERMO, PA","prices":[{"type":"petrol","price":1.789,"self":true,"updatedAt":"22/06/2026 00:51:18"},{"type":"diesel","price":1.899,"self":true,"updatedAt":"22/06/2026 00:51:18"}]},{"id":"46595","lat":38.10112974171836,"lon":13.399263950209843,"name":"STAZIONE CARBURANTI Q8","brand":"Q8","address":"VIA MESSINA MARINE 435/A 90123, PALERMO, PA","prices":[{"type":"petrol","price":1.839,"self":true,"updatedAt":"22/06/2026 06:59:38"},{"type":"diesel","price":1.929,"self":true,"updatedAt":"22/06/2026 06:59:38"}]},{"id":"38844","lat":38.082323879909836,"lon":13.433562219142914,"name":"STAZIONE DI SERVIZIO ESSO G.R. CARBURANTI S.R.L.","brand":"Esso","address":"VIA MESSINA MONTAGNE 36 90121, PALERMO, PA","prices":[{"type":"petrol","price":1.839,"self":true,"updatedAt":"20/06/2026 20:10:51"},{"type":"diesel","price":1.919,"self":true,"updatedAt":"20/06/2026 20:10:51"}]},{"id":"38687","lat":38.19773320851791,"lon":13.32899697124958,"name":"Stazione di Servizio Ferraro Fabio","brand":"Agip Eni","address":"Viale Principe di Scalea 32 90151, PALERMO, PA","prices":[{"type":"petrol","price":1.819,"self":true,"updatedAt":"22/06/2026 00:15:54"},{"type":"diesel","price":1.909,"self":true,"updatedAt":"22/06/2026 00:15:53"}]},{"id":"57632","lat":38.1463503,"lon":13.3445639,"name":"STAZIONE ENI","brand":"Agip Eni","address":"LEONI 12 90143, PALERMO, PA","prices":[{"type":"petrol","price":1.814,"self":true,"updatedAt":"21/06/2026 00:53:03"},{"type":"diesel","price":1.904,"self":true,"updatedAt":"21/06/2026 00:53:03"}]},{"id":"41053","lat":38.130301054924324,"lon":13.300186588954944,"name":"Tornabene Antonio","brand":"Agip Eni","address":"Largo iccara snc  90135, PALERMO, PA","prices":[{"type":"petrol","price":1.829,"self":true,"updatedAt":"22/06/2026 00:11:21"},{"type":"diesel","price":1.939,"self":true,"updatedAt":"22/06/2026 00:11:21"}]},{"id":"51793","lat":38.09749807107217,"lon":13.316035196185112,"name":"TRAPANESE ALESSANDRO","brand":"Q8","address":"corso calatafimi 1035 90131, PALERMO, PA","prices":[{"type":"petrol","price":1.839,"self":true,"updatedAt":"20/06/2026 22:28:11"},{"type":"diesel","price":1.929,"self":true,"updatedAt":"20/06/2026 22:28:11"}]},{"id":"62960","lat":38.19090788380886,"lon":13.291951400000004,"name":"V. ROSARIO NICOLETTI","brand":"Esso","address":"V. Rosario Nicoletti 25  90147, PALERMO, PA","prices":[{"type":"petrol","price":1.799,"self":true,"updatedAt":"20/06/2026 05:59:52"},{"type":"diesel","price":1.889,"self":true,"updatedAt":"20/06/2026 05:59:52"}]},{"id":"60109","lat":38.129900728999985,"lon":13.344755732159282,"name":"VIA LA MALFA","brand":"Agip Eni","address":"via UGO LA MALFA 93 90146, PALERMO, PA","prices":[{"type":"petrol","price":1.829,"self":true,"updatedAt":"21/06/2026 23:47:50"},{"type":"diesel","price":1.959,"self":true,"updatedAt":"21/06/2026 23:47:50"}]},{"id":"62856","lat":38.17191315688887,"lon":13.312564681016145,"name":"VIA LANZA DI SCALEA","brand":"Esso","address":"Via Lanza di Scalea  90100, PALERMO, PA","prices":[{"type":"petrol","price":1.849,"self":false,"updatedAt":"20/06/2026 05:59:56"},{"type":"diesel","price":1.969,"self":false,"updatedAt":"20/06/2026 05:59:56"}]},{"id":"63053","lat":38.1265346,"lon":13.3179077,"name":"Via Leonardo da Vinci 392","brand":"Esso","address":"Via Leonardo da Vinci 392  90100, PALERMO, PA","prices":[{"type":"petrol","price":1.795,"self":true,"updatedAt":"20/06/2026 05:59:50"},{"type":"diesel","price":1.895,"self":true,"updatedAt":"20/06/2026 05:59:50"}]},{"id":"62700","lat":38.138462314921625,"lon":13.358480053355608,"name":"Via Montepellegrino 109/111","brand":"Esso","address":"Via Montepellegrino 109  90100, PALERMO, PA","prices":[{"type":"petrol","price":1.789,"self":true,"updatedAt":"20/06/2026 05:59:55"},{"type":"diesel","price":1.879,"self":true,"updatedAt":"20/06/2026 05:59:55"}]},{"id":"62559","lat":38.1004583,"lon":13.3710336,"name":"Via Oreto 315","brand":"Esso","address":"Via Oreto 315   90100, PALERMO, PA","prices":[{"type":"petrol","price":1.789,"self":false,"updatedAt":"20/06/2026 05:59:54"},{"type":"diesel","price":1.879,"self":false,"updatedAt":"20/06/2026 05:59:54"}]},{"id":"56293","lat":38.11569,"lon":13.3614868,"name":"FGS","brand":"FGS","address":"Via Duca Lancia di Brolo  90028, POLIZZI GENEROSA, PA","prices":[{"type":"petrol","price":1.919,"self":false,"updatedAt":"15/06/2026 14:48:36"},{"type":"diesel","price":2.049,"self":false,"updatedAt":"15/06/2026 14:48:36"}]},{"id":"40069","lat":38.07889862266731,"lon":13.439602694477458,"name":"D'agostino Stefano & c S.A.s","brand":"Agip Eni","address":"PIAZZA UMBERTO I 43/A 90039, VILLABATE, PA","prices":[{"type":"petrol","price":1.829,"self":true,"updatedAt":"22/06/2026 00:11:11"},{"type":"diesel","price":1.919,"self":true,"updatedAt":"22/06/2026 00:11:11"}]},{"id":"49173","lat":38.084329491233255,"lon":13.433843851089478,"name":"LG Fuel","brand":"Pompe Bianche","address":"VIA POMARA SNC 90039, VILLABATE, PA","prices":[{"type":"petrol","price":1.836,"self":true,"updatedAt":"18/06/2026 20:10:55"},{"type":"diesel","price":1.916,"self":true,"updatedAt":"18/06/2026 20:10:55"}]},{"id":"49434","lat":38.08061926108716,"lon":13.431512415409083,"name":"PA136","brand":"Q8","address":"VIA G. MATTEOTTI SNC 90039, VILLABATE, PA","prices":[{"type":"petrol","price":1.859,"self":true,"updatedAt":"18/06/2026 11:36:04"},{"type":"diesel","price":1.949,"self":true,"updatedAt":"18/06/2026 11:36:04"},{"type":"lpg","price":0.729,"self":true,"updatedAt":"19/06/2026 09:51:06"}]}]