[{"id":"46656","lat":38.26560161068764,"lon":15.630700513720512,"name":"09652","brand":"Agip Eni","address":"VIA CONSOLORE POMPEA GRANATARI SNC 98164, MESSINA, ME","prices":[{"type":"petrol","price":1.824,"self":true,"updatedAt":"29/06/2026 00:10:20"},{"type":"diesel","price":1.894,"self":true,"updatedAt":"29/06/2026 00:10:20"},{"type":"lpg","price":0.812,"self":false,"updatedAt":"29/06/2026 00:10:20"}]},{"id":"9248","lat":38.258082385469166,"lon":15.60711419673919,"name":"BN PETROLI","brand":"BN petroli","address":"VIA CONSOLARE POMPEA  38 98100, MESSINA, ME","prices":[{"type":"petrol","price":1.829,"self":true,"updatedAt":"27/06/2026 13:34:26"},{"type":"diesel","price":1.919,"self":true,"updatedAt":"27/06/2026 13:34:26"}]},{"id":"59236","lat":38.26400655527166,"lon":15.626321489010623,"name":"DB CARBURANTI MESSINA","brand":"DBCarburanti","address":"Località Torre Faro SN 98164, MESSINA, ME","prices":[{"type":"petrol","price":1.799,"self":false,"updatedAt":"25/06/2026 10:21:48"},{"type":"diesel","price":1.899,"self":false,"updatedAt":"25/06/2026 10:21:48"}]},{"id":"60588","lat":38.25358700068636,"lon":15.594537796463332,"name":"Impianto carburanti IP Nuova Panoramica","brand":"Api-Ip","address":"Via Nuova Panoramica  98168, MESSINA, ME","prices":[{"type":"petrol","price":1.829,"self":true,"updatedAt":"29/06/2026 00:12:37"},{"type":"diesel","price":1.899,"self":true,"updatedAt":"29/06/2026 09:42:11"},{"type":"methane","price":1.859,"self":false,"updatedAt":"30/06/2026 00:16:13"}]},{"id":"57675","lat":38.2554564,"lon":15.6020717,"name":"Rifornimento Q8","brand":"Q8","address":"GIUSEPPE ARENA 12 98166, MESSINA, ME","prices":[{"type":"petrol","price":1.829,"self":true,"updatedAt":"26/06/2026 16:15:56"},{"type":"diesel","price":1.899,"self":true,"updatedAt":"26/06/2026 16:15:56"}]},{"id":"22529","lat":38.250837726152504,"lon":15.592132656869467,"name":"Stazione di Servizio Agip di Mangano Carmelo","brand":"Agip Eni","address":"VIA C.POMPEA, 98100, MESSINA, ME","prices":[{"type":"petrol","price":1.829,"self":true,"updatedAt":"29/06/2026 00:51:09"},{"type":"diesel","price":1.889,"self":true,"updatedAt":"29/06/2026 19:20:12"}]},{"id":"16557","lat":38.2705639,"lon":15.6322437,"name":"PM CARBURANTI SNC (ESSO)","brand":"Esso","address":"SS 113 KM 202+560 DIREZIONE CEFALU'  90010, CAMPOFELICE DI ROCCELLA, PA","prices":[{"type":"petrol","price":1.849,"self":true,"updatedAt":"27/06/2026 07:49:56"},{"type":"diesel","price":1.919,"self":true,"updatedAt":"27/06/2026 07:49:56"}]}]