[{"id":"59754","lat":38.55595171681523,"lon":15.965709686279297,"name":"DI GRILLO LUCIA","brand":"Pompe Bianche","address":"DELLA LIBERTA' SNC 89844, LIMBADI, VV","prices":[{"type":"petrol","price":1.799,"self":true,"updatedAt":"27/06/2026 11:00:35"},{"type":"diesel","price":1.859,"self":true,"updatedAt":"27/06/2026 11:00:35"}]},{"id":"10349","lat":38.55933867025667,"lon":15.9629788393554,"name":"stazione di servizio Q8","brand":"Q8","address":"VIALE EUROPA 11 89844, LIMBADI, VV","prices":[{"type":"petrol","price":1.809,"self":false,"updatedAt":"25/06/2026 18:42:43"},{"type":"diesel","price":1.879,"self":false,"updatedAt":"25/06/2026 18:42:43"}]},{"id":"56826","lat":38.56265,"lon":15.92395,"name":"ENERGAS","brand":"Energas","address":"CASA BIANCA SNC 89844, NICOTERA, VV","prices":[{"type":"petrol","price":1.789,"self":true,"updatedAt":"24/06/2026 10:36:15"},{"type":"diesel","price":1.859,"self":true,"updatedAt":"24/06/2026 10:36:15"},{"type":"lpg","price":0.799,"self":false,"updatedAt":"24/06/2026 10:36:15"}]},{"id":"29541","lat":38.554424310451864,"lon":15.936208069324493,"name":"SOLANO FUEL","brand":"Pompe Bianche","address":"VIA LA CORTE 33 89844, NICOTERA, VV","prices":[{"type":"petrol","price":1.789,"self":true,"updatedAt":"28/06/2026 20:03:15"},{"type":"diesel","price":1.829,"self":true,"updatedAt":"28/06/2026 20:03:15"}]},{"id":"48549","lat":38.554413146298074,"lon":15.939181775463105,"name":"Stazione di Servizio IP  Nicotera","brand":"Api-Ip","address":"via Foschea  89844, NICOTERA, VV","prices":[{"type":"petrol","price":1.799,"self":true,"updatedAt":"27/06/2026 12:07:58"},{"type":"diesel","price":1.839,"self":true,"updatedAt":"27/06/2026 12:07:58"}]},{"id":"44204","lat":38.68733544445662,"lon":15.935969352722168,"name":"STAZIONE DI SERVIZIO S.A.S. DI VANNA FOA' & C.","brand":"Esso","address":"EX S.S.522 KM. 29 SNC 89861, PARGHELIA, VV","prices":[{"type":"petrol","price":1.829,"self":true,"updatedAt":"27/06/2026 07:35:10"},{"type":"diesel","price":1.919,"self":true,"updatedAt":"27/06/2026 07:35:10"}]},{"id":"59851","lat":38.659027751562455,"lon":15.856663106917065,"name":"CONAD SUPERMERCATI RICADI","brand":"CONAD","address":"PROVINCIALE C.DA BILUSCIA SNC 89866, RICADI, VV","prices":[{"type":"petrol","price":1.739,"self":true,"updatedAt":"28/06/2026 22:00:43"},{"type":"diesel","price":1.819,"self":true,"updatedAt":"28/06/2026 22:00:43"}]},{"id":"38512","lat":38.62482512249798,"lon":15.881825610995293,"name":"Easy Service Ricadi","brand":"Energas","address":"Strada Provinciale Località Conturi  89866, RICADI, VV","prices":[{"type":"petrol","price":1.759,"self":true,"updatedAt":"29/06/2026 00:38:36"},{"type":"diesel","price":1.839,"self":true,"updatedAt":"29/06/2026 00:38:36"},{"type":"lpg","price":0.799,"self":false,"updatedAt":"29/06/2026 00:38:36"}]},{"id":"26539","lat":38.63455354807206,"lon":15.851043909788132,"name":"tamoil","brand":"Tamoil","address":"Via vaisette snc 89866, RICADI, VV","prices":[{"type":"petrol","price":1.789,"self":true,"updatedAt":"28/06/2026 01:01:22"},{"type":"diesel","price":1.859,"self":true,"updatedAt":"28/06/2026 01:01:22"}]},{"id":"15711","lat":38.623821522474024,"lon":15.866046201223412,"name":"Zanetta S.R.L.","brand":"Esso","address":"MONACI SNC 89866, RICADI, VV","prices":[{"type":"petrol","price":1.759,"self":true,"updatedAt":"28/06/2026 20:15:58"},{"type":"diesel","price":1.859,"self":true,"updatedAt":"28/06/2026 20:15:58"},{"type":"lpg","price":0.799,"self":false,"updatedAt":"28/06/2026 20:15:58"}]},{"id":"62837","lat":38.67172,"lon":15.88636,"name":"ESSO 18","brand":"Esso","address":"VIA S. FRANCESCHIELLO 3, TROPEA, VV","prices":[{"type":"petrol","price":1.829,"self":true,"updatedAt":"29/06/2026 00:53:28"},{"type":"diesel","price":1.899,"self":true,"updatedAt":"29/06/2026 00:53:28"}]},{"id":"14880","lat":38.67460074359128,"lon":15.896951258182526,"name":"filardi pasquale","brand":"Agip Eni","address":"viale stazione  89861, TROPEA, VV","prices":[{"type":"petrol","price":1.829,"self":true,"updatedAt":"29/06/2026 07:20:08"},{"type":"diesel","price":1.889,"self":true,"updatedAt":"29/06/2026 07:20:08"}]},{"id":"47543","lat":38.67483475002186,"lon":15.892788469791412,"name":"Q8","brand":"Q8","address":"via libertà 89 89861, TROPEA, VV","prices":[{"type":"petrol","price":1.829,"self":true,"updatedAt":"26/06/2026 12:27:03"},{"type":"diesel","price":1.899,"self":true,"updatedAt":"26/06/2026 12:27:03"}]},{"id":"32424","lat":38.654118851580066,"lon":15.981813411045096,"name":"ZUNGRI - MAZZINI","brand":"Api-Ip","address":"VIA MAZZINI  88030, ZUNGRI, VV","prices":[{"type":"petrol","price":1.819,"self":true,"updatedAt":"28/06/2026 09:01:01"},{"type":"diesel","price":1.899,"self":true,"updatedAt":"28/06/2026 09:01:01"}]}]