[{"id":"23260","lat":38.849686518555984,"lon":16.244414001703262,"name":"IL CANNETO","brand":"Tamoil","address":"STRADA STATALE 18 KM 384  88022, CURINGA, CZ","prices":[{"type":"petrol","price":1.819,"self":true,"updatedAt":"01/07/2026 00:18:01"},{"type":"diesel","price":1.869,"self":true,"updatedAt":"01/07/2026 00:18:01"},{"type":"lpg","price":0.719,"self":false,"updatedAt":"01/07/2026 00:18:01"}]},{"id":"16974","lat":38.995906835828,"lon":16.13329142332077,"name":"GALLO MARIO & C SAS","brand":"Esso","address":"Statale 18 Tirrena Inferiore, Km. 386, dir. FALERNA SCALO - 88042, FALERNA, CZ","prices":[{"type":"petrol","price":1.829,"self":true,"updatedAt":"30/06/2026 09:37:58"},{"type":"diesel","price":1.909,"self":true,"updatedAt":"30/06/2026 09:37:59"},{"type":"lpg","price":0.829,"self":false,"updatedAt":"30/06/2026 09:37:59"}]},{"id":"6726","lat":38.98492492166622,"lon":16.14006457301639,"name":"FALERNA SCALO S.S. 18 KM 391+130 IMP.Q8","brand":"Q8","address":"S.S. 18 KM 391+130  IMP.Q8 SNC 88040, FALERNA, CZ","prices":[{"type":"petrol","price":1.819,"self":true,"updatedAt":"01/07/2026 01:42:55"},{"type":"diesel","price":1.899,"self":true,"updatedAt":"01/07/2026 01:42:55"}]},{"id":"39110","lat":38.94974233551213,"lon":16.21283233165741,"name":"CREA PETROLI","brand":"Pompe Bianche","address":"LOCALITA' COMUNELLI SNC 88040, GIZZERIA, CZ","prices":[{"type":"petrol","price":1.785,"self":true,"updatedAt":"30/06/2026 19:05:54"},{"type":"diesel","price":1.845,"self":true,"updatedAt":"30/06/2026 19:05:54"}]},{"id":"43727","lat":38.96841117079657,"lon":16.149963635582026,"name":"3035","brand":"Tamoil","address":"18 KM 363+200 SN 88040, GIZZERIA, CZ","prices":[{"type":"petrol","price":1.829,"self":true,"updatedAt":"30/06/2026 23:22:38"},{"type":"diesel","price":1.889,"self":true,"updatedAt":"30/06/2026 12:52:30"}]},{"id":"7421","lat":38.931192496265865,"lon":16.214310228824615,"name":"eni 18550 SS18 Gizzeria Lido","brand":"Agip Eni","address":"Statale 18 Tirrena Inferiore, Km. 400+960, dir. GIZZERIA LIDO  88040, GIZZERIA, CZ","prices":[{"type":"petrol","price":1.829,"self":true,"updatedAt":"01/07/2026 00:39:13"},{"type":"diesel","price":1.889,"self":true,"updatedAt":"01/07/2026 00:39:13"}]},{"id":"9846","lat":38.93903727799015,"lon":16.203291714191437,"name":"Q8","brand":"Q8","address":"SS 18 KM 399 + 630  88040, GIZZERIA, CZ","prices":[{"type":"petrol","price":1.829,"self":false,"updatedAt":"27/06/2026 11:26:03"},{"type":"diesel","price":1.919,"self":false,"updatedAt":"27/06/2026 11:26:03"}]},{"id":"20603","lat":38.927745525232055,"lon":16.226602792739868,"name":"esso andricciola caterina","brand":"Esso","address":"VIA S.S. 18 SANTA EUFEMIA  88046, LAMEZIA TERME, CZ","prices":[{"type":"petrol","price":1.839,"self":true,"updatedAt":"01/07/2026 06:28:30"},{"type":"diesel","price":1.919,"self":true,"updatedAt":"01/07/2026 06:28:30"}]},{"id":"56744","lat":38.91191485030759,"lon":16.247609853744507,"name":"F STATION","brand":"fstation","address":"F. D'AMICO  AEREOPORTO SNC 88046, LAMEZIA TERME, CZ","prices":[{"type":"petrol","price":1.827,"self":true,"updatedAt":"27/06/2026 12:01:22"},{"type":"diesel","price":1.887,"self":true,"updatedAt":"27/06/2026 12:01:22"},{"type":"lpg","price":0.769,"self":false,"updatedAt":"27/06/2026 12:01:22"}]},{"id":"3526","lat":38.93004825394379,"lon":16.236682534217834,"name":"LAMEZIA EST","brand":"Agip Eni","address":"Autostrada A3 SALERNO-REGGIO CALABRIA, Km. 317.511, dir. Nord - -, LAMEZIA TERME, CZ","prices":[{"type":"petrol","price":1.919,"self":true,"updatedAt":"30/06/2026 23:23:33"},{"type":"diesel","price":1.989,"self":true,"updatedAt":"30/06/2026 23:23:33"},{"type":"lpg","price":0.899,"self":false,"updatedAt":"30/06/2026 23:23:33"}]},{"id":"33198","lat":38.9293192557986,"lon":16.23706877231598,"name":"LAMEZIA OVEST","brand":"Esso","address":"Autostrada A2 AUTOSTRADA DEL MEDITERRANEO,  Km. 317,511, dir. sud 88040, LAMEZIA TERME, CZ","prices":[{"type":"petrol","price":1.869,"self":true,"updatedAt":"01/07/2026 07:31:25"},{"type":"diesel","price":1.949,"self":true,"updatedAt":"01/07/2026 07:31:25"}]},{"id":"38511","lat":38.77678667052901,"lon":16.210953444242477,"name":"Easy Service Pizzo Calabro","brand":"Energas","address":"Contrada Colamaio SS 18   89812, PIZZO, VV","prices":[{"type":"petrol","price":1.829,"self":true,"updatedAt":"01/07/2026 00:42:47"},{"type":"diesel","price":1.889,"self":true,"updatedAt":"01/07/2026 00:42:47"},{"type":"lpg","price":0.719,"self":false,"updatedAt":"01/07/2026 00:19:04"}]},{"id":"22313","lat":38.76005439273488,"lon":16.195825785398483,"name":"eni imp.18522","brand":"Agip Eni","address":"CONTRADA MARINELLA SNC 89812, PIZZO, VV","prices":[{"type":"petrol","price":1.829,"self":true,"updatedAt":"01/07/2026 00:21:01"},{"type":"diesel","price":1.889,"self":true,"updatedAt":"01/07/2026 00:21:01"}]},{"id":"3646","lat":38.750769956328995,"lon":16.193088591098785,"name":"PIZZO EST","brand":"Agip Eni","address":"Autostrada A2 AUTOSTRADA DEL MEDITERRANEO,  Km. 342.216, dir. Nord - 89812, PIZZO, VV","prices":[{"type":"petrol","price":1.915,"self":true,"updatedAt":"01/07/2026 00:16:25"},{"type":"diesel","price":1.964,"self":true,"updatedAt":"01/07/2026 00:16:25"}]}]