[{"id":"12443","lat":39.18222188276986,"lon":8.504071086645126,"name":"CARBONIA VIA DALMAZIA","brand":"Q8","address":"VIA DALMAZIA  09013, CARBONIA, SU","prices":[{"type":"petrol","price":1.754,"self":true,"updatedAt":"23/06/2026 01:40:52"},{"type":"diesel","price":1.864,"self":true,"updatedAt":"23/06/2026 01:40:52"}]},{"id":"6690","lat":39.1529575162734,"lon":8.513282146661822,"name":"CARBONIA VIA LUBIANA P.V. Q8","brand":"Q8","address":"VIA LUBIANA P.V. Q8 SNC 09013, CARBONIA, SU","prices":[{"type":"petrol","price":1.754,"self":true,"updatedAt":"23/06/2026 01:40:51"},{"type":"diesel","price":1.864,"self":true,"updatedAt":"23/06/2026 01:40:51"}]},{"id":"37336","lat":39.16938025639347,"lon":8.51082019507885,"name":"CONAD SUPERSTORE CARBONIA","brand":"CONAD","address":"VIA STAZIONE S.N.C. 09013, CARBONIA, SU","prices":[{"type":"petrol","price":1.767,"self":true,"updatedAt":"22/06/2026 07:13:32"},{"type":"diesel","price":1.877,"self":true,"updatedAt":"22/06/2026 07:13:32"}]},{"id":"12581","lat":39.171978000123,"lon":8.522228000123,"name":"Eni 17511 di Gessa Ivan & J. SAS","brand":"Agip Eni","address":"VIA CAGLIARI 123 123 09013, CARBONIA, SU","prices":[{"type":"petrol","price":1.809,"self":true,"updatedAt":"23/06/2026 00:11:43"},{"type":"diesel","price":1.919,"self":true,"updatedAt":"23/06/2026 00:11:43"}]},{"id":"16227","lat":39.16695160291298,"lon":8.525817096233368,"name":"Eni F.lli Bindo - Carbonia -","brand":"Agip Eni","address":"PIAZZA MATTEOTTI SNC, 09013 - -, CARBONIA, SU","prices":[{"type":"petrol","price":1.719,"self":true,"updatedAt":"23/06/2026 00:14:22"},{"type":"diesel","price":1.609,"self":true,"updatedAt":"23/06/2026 00:14:22"}]},{"id":"59301","lat":39.161969,"lon":8.525344,"name":"ESSO CARBONIA VIA DELLA VITTORIA","brand":"Esso","address":"DELLA VITTORIA 63 09013, CARBONIA, SU","prices":[{"type":"petrol","price":1.779,"self":true,"updatedAt":"23/06/2026 07:46:03"},{"type":"diesel","price":1.899,"self":true,"updatedAt":"23/06/2026 07:46:03"}]},{"id":"57099","lat":39.153922,"lon":8.516343,"name":"ESSO CARBONIA VIA LUBIANA","brand":"Esso","address":"LUBIANA SN 09013, CARBONIA, SU","prices":[{"type":"petrol","price":1.779,"self":true,"updatedAt":"23/06/2026 07:25:47"},{"type":"diesel","price":1.899,"self":true,"updatedAt":"23/06/2026 07:25:47"},{"type":"lpg","price":0.779,"self":false,"updatedAt":"23/06/2026 07:25:47"}]},{"id":"55831","lat":39.149248326308225,"lon":8.511121273040771,"name":"STAZIONE SERVIZIO ESSO MASSIMILIANO COCCO","brand":"Esso","address":"SS126 Dir  09013, CARBONIA, SU","prices":[{"type":"petrol","price":1.779,"self":true,"updatedAt":"22/06/2026 09:24:39"},{"type":"diesel","price":1.899,"self":true,"updatedAt":"22/06/2026 09:24:39"}]},{"id":"56512","lat":39.06934282617359,"lon":8.628716500114647,"name":"Q8 IBBA MICHELE","brand":"Q8","address":"SS 195 km 83,905  09010, GIBA, SU","prices":[{"type":"petrol","price":1.799,"self":true,"updatedAt":"22/06/2026 17:49:43"},{"type":"diesel","price":1.999,"self":true,"updatedAt":"22/06/2026 17:49:43"}]},{"id":"48925","lat":39.047573233868846,"lon":8.630328691971263,"name":"3775","brand":"Tamoil","address":"195 KM. 80,63 SN 09010, MASAINAS, SU","prices":[{"type":"petrol","price":1.769,"self":true,"updatedAt":"23/06/2026 00:17:15"},{"type":"diesel","price":1.879,"self":true,"updatedAt":"23/06/2026 00:17:15"}]},{"id":"56733","lat":39.167187594036776,"lon":8.669035678762542,"name":"distributore IP","brand":"Api-Ip","address":"via carbonia  66 09010, NARCAO, SU","prices":[{"type":"petrol","price":1.829,"self":true,"updatedAt":"23/06/2026 07:47:24"},{"type":"diesel","price":1.939,"self":true,"updatedAt":"23/06/2026 07:47:24"},{"type":"lpg","price":0.901,"self":false,"updatedAt":"23/06/2026 07:47:24"}]},{"id":"61376","lat":39.1580554,"lon":8.7408333,"name":"NUXIS SS 293 KM 52,743","brand":"Q8","address":"SS 293 KM 52,743  09010, NUXIS, SU","prices":[{"type":"petrol","price":1.754,"self":true,"updatedAt":"23/06/2026 01:40:48"},{"type":"diesel","price":1.864,"self":true,"updatedAt":"23/06/2026 01:40:48"}]},{"id":"30175","lat":39.11237089999999,"lon":8.5229203,"name":"7582 San Giovanni Suergiu","brand":"Agip Eni","address":"Vico Porto Botte  09010, SAN GIOVANNI SUERGIU, SU","prices":[{"type":"petrol","price":1.819,"self":true,"updatedAt":"22/06/2026 23:40:31"},{"type":"diesel","price":1.919,"self":true,"updatedAt":"22/06/2026 23:40:31"}]},{"id":"30823","lat":39.12645420836387,"lon":8.51173147559166,"name":"8450","brand":"Tamoil","address":"S.S. 126 - KM 10,408 SN 09010, SAN GIOVANNI SUERGIU, SU","prices":[{"type":"petrol","price":1.769,"self":true,"updatedAt":"22/06/2026 00:14:57"},{"type":"diesel","price":1.879,"self":true,"updatedAt":"22/06/2026 00:14:57"}]},{"id":"10184","lat":39.10808119036582,"lon":8.526039719581604,"name":"IP","brand":"Api-Ip","address":"Statale 195 Sulcitana, Km. 97100, dir. giba - 09010, SAN GIOVANNI SUERGIU, SU","prices":[{"type":"petrol","price":1.829,"self":true,"updatedAt":"19/06/2026 15:23:23"},{"type":"diesel","price":1.939,"self":true,"updatedAt":"19/06/2026 15:23:23"}]},{"id":"9421","lat":39.00362147724099,"lon":8.643271028995514,"name":"SOSTA MARE - TAMOIL","brand":"Tamoil","address":"Statale 195 Sulcitana, Km. 75+407, dir. Giba - 09010, SANT'ANNA ARRESI, SU","prices":[{"type":"petrol","price":1.789,"self":true,"updatedAt":"22/06/2026 00:50:14"},{"type":"diesel","price":1.899,"self":true,"updatedAt":"22/06/2026 00:50:14"}]},{"id":"59131","lat":39.0993578,"lon":8.70569831,"name":"3762","brand":"Tamoil","address":"SP. 1 DI SANTADI KM. 28+231, SANTADI, SU","prices":[{"type":"petrol","price":1.789,"self":true,"updatedAt":"23/06/2026 00:17:03"},{"type":"diesel","price":1.879,"self":true,"updatedAt":"23/06/2026 00:17:03"}]},{"id":"43460","lat":39.10027595802373,"lon":8.704690933227539,"name":"porcina vincenzo e c. snc Porcina","brand":"Tamoil","address":"sp1 km 28,470  09010, SANTADI, SU","prices":[{"type":"petrol","price":1.769,"self":true,"updatedAt":"22/06/2026 14:40:29"},{"type":"diesel","price":1.869,"self":true,"updatedAt":"22/06/2026 14:40:29"}]},{"id":"53470","lat":39.1062164,"lon":8.6881306,"name":"Distributore carburanti dei F.lli Collu s.n.c","brand":"Tamoil","address":"STATALE 293 KM. 60,245 S.N.C. 09010, VILLAPERUCCIO, SU","prices":[{"type":"petrol","price":1.959,"self":true,"updatedAt":"16/06/2026 11:15:04"},{"type":"diesel","price":2.099,"self":true,"updatedAt":"16/06/2026 11:15:04"}]}]