[{"id":"32687","lat":39.11609553602497,"lon":16.165602654218674,"name":"Aloisio Petroli","brand":"Pompe Bianche","address":"PIAZZA SANTA MARIA SNC 87031, AIELLO CALABRO, CS","prices":[{"type":"petrol","price":1.999,"self":false,"updatedAt":"26/06/2026 07:51:43"},{"type":"diesel","price":2.099,"self":false,"updatedAt":"26/06/2026 07:51:43"}]},{"id":"25889","lat":39.102198414942286,"lon":16.247717142105103,"name":"METALLO FUEL  24 h (Altilia)","brand":"Pompe Bianche","address":"PETRARIZZI SNC 87040, ALTILIA, CS","prices":[{"type":"petrol","price":1.899,"self":true,"updatedAt":"20/06/2026 09:01:36"},{"type":"diesel","price":1.969,"self":true,"updatedAt":"20/06/2026 09:01:36"},{"type":"lpg","price":0.779,"self":false,"updatedAt":"20/06/2026 09:01:36"}]},{"id":"24177","lat":39.142252515769265,"lon":16.06748342514038,"name":"AMANTEA - C.DA ACQUICELLA","brand":"Api-Ip","address":"Statale 18 Tirrena Inferiore, Km. 368, dir. nord - -, AMANTEA, CS","prices":[{"type":"petrol","price":1.829,"self":true,"updatedAt":"26/06/2026 09:01:28"},{"type":"diesel","price":1.899,"self":true,"updatedAt":"26/06/2026 09:01:28"}]},{"id":"60947","lat":39.11469516922744,"lon":16.07688891220093,"name":"IP SERVICE","brand":"Api-Ip","address":"STATALE 18 KM 371+300 SNC 87032, AMANTEA, CS","prices":[{"type":"petrol","price":1.839,"self":true,"updatedAt":"26/06/2026 09:17:17"},{"type":"diesel","price":1.909,"self":true,"updatedAt":"26/06/2026 09:17:17"}]},{"id":"8933","lat":39.075511001844056,"lon":16.090087741613388,"name":"KUWAIT PETROLEUM ITALIA SPA","brand":"Q8","address":"SS18 VIA EUROPA, AMANTEA, CS","prices":[{"type":"petrol","price":1.859,"self":true,"updatedAt":"25/06/2026 13:40:32"},{"type":"diesel","price":1.969,"self":true,"updatedAt":"25/06/2026 13:40:32"}]},{"id":"23303","lat":39.11664680227925,"lon":16.076455414295197,"name":"Pompa Bianca Amantea - Cav. Metallo srl","brand":"Pompe Bianche","address":"VIA RIDOLFO MIRABELLI SNC, 87032, AMANTEA, CS","prices":[{"type":"petrol","price":1.79,"self":true,"updatedAt":"24/06/2026 10:32:22"},{"type":"diesel","price":2.18,"self":true,"updatedAt":"24/06/2026 10:32:22"}]},{"id":"54569","lat":39.05163244115087,"lon":16.095617462347416,"name":"STAZIONE DI SERVIZIO DOMENICO METALLO S.R.L.","brand":"Pompe Bianche","address":"VARIANTE SS 18 SNC 87032, AMANTEA, CS","prices":[{"type":"petrol","price":1.879,"self":true,"updatedAt":"23/06/2026 12:28:34"},{"type":"diesel","price":1.969,"self":true,"updatedAt":"23/06/2026 12:28:34"},{"type":"lpg","price":0.859,"self":true,"updatedAt":"23/06/2026 12:28:34"}]},{"id":"19301","lat":39.13364091685257,"lon":16.071184873580933,"name":"Stazione di Servizio ESSO","brand":"Esso","address":"Statale 18 Tirrena Inferiore, Km. 343, dir. SUD snc 87032, AMANTEA, CS","prices":[{"type":"petrol","price":1.849,"self":true,"updatedAt":"25/06/2026 13:58:34"},{"type":"diesel","price":1.959,"self":true,"updatedAt":"25/06/2026 13:58:34"}]},{"id":"9457","lat":39.1552022573201,"lon":16.065675616264343,"name":"ESSO","brand":"Esso","address":"Statale 18 Tirrena Inferiore, Km. 340, dir. nord  87030, BELMONTE CALABRO, CS","prices":[{"type":"petrol","price":1.849,"self":true,"updatedAt":"24/06/2026 06:00:44"},{"type":"diesel","price":1.959,"self":true,"updatedAt":"24/06/2026 06:00:44"}]},{"id":"43719","lat":39.062747466872665,"lon":16.145265005828378,"name":"IMPIANTO CLETO","brand":"Pompe Bianche","address":"Via Marina di Savuto 163 87030, CLETO, CS","prices":[{"type":"petrol","price":1.79,"self":true,"updatedAt":"24/06/2026 10:32:32"},{"type":"diesel","price":2.09,"self":true,"updatedAt":"24/06/2026 10:32:32"}]},{"id":"60774","lat":39.22427,"lon":16.06079,"name":"Rugiero Sas Di Rugiero Valentina & C.","brand":"Tamoil","address":"SS18 Km 332+961 87030, FIUMEFREDDO BRUZIO, CS","prices":[{"type":"petrol","price":1.819,"self":true,"updatedAt":"26/06/2026 14:04:38"},{"type":"diesel","price":1.899,"self":true,"updatedAt":"26/06/2026 00:08:43"}]},{"id":"32565","lat":39.14373016329754,"lon":16.2358611079693,"name":"GRIMALDI - IV NOVEMBRE 20","brand":"Api-Ip","address":"VIA IV NOVEMBRE 20 87034, GRIMALDI, CS","prices":[{"type":"petrol","price":1.819,"self":true,"updatedAt":"26/06/2026 09:01:20"},{"type":"diesel","price":1.919,"self":true,"updatedAt":"26/06/2026 09:01:20"}]},{"id":"25888","lat":39.17309041861174,"lon":16.1458787406467,"name":"METALLO FUEL 24H (Lago)","brand":"Pompe Bianche","address":"EX SS278 LOCALITA' MANIERI SNC 87035, LAGO, CS","prices":[{"type":"petrol","price":1.899,"self":true,"updatedAt":"20/06/2026 09:01:30"},{"type":"diesel","price":1.999,"self":true,"updatedAt":"20/06/2026 09:01:30"}]},{"id":"62220","lat":39.07405029968551,"lon":16.232501065570702,"name":"Q8","brand":"Q8","address":"V. Michele Berardelli 2  88040, MARTIRANO LOMBARDO, CZ","prices":[{"type":"petrol","price":1.979,"self":true,"updatedAt":"22/06/2026 22:35:16"},{"type":"diesel","price":1.999,"self":true,"updatedAt":"22/06/2026 22:35:16"}]},{"id":"13731","lat":39.014049438527316,"lon":16.11783924610245,"name":"agip","brand":"Agip Eni","address":"Statale 18 Tirrena Inferiore, Km. 384, dir. nord - 88047, NOCERA TERINESE, CZ","prices":[{"type":"petrol","price":1.899,"self":true,"updatedAt":"27/06/2026 00:13:45"},{"type":"diesel","price":1.999,"self":true,"updatedAt":"27/06/2026 00:13:44"}]},{"id":"47042","lat":39.03460188935964,"lon":16.16149241638732,"name":"AUTO SERVICE GANINO SRL","brand":"Pompe Bianche","address":"Via Santa Caterina 158 88047, NOCERA TERINESE, CZ","prices":[{"type":"petrol","price":1.999,"self":true,"updatedAt":"26/06/2026 18:00:05"},{"type":"diesel","price":2.099,"self":true,"updatedAt":"26/06/2026 18:00:05"}]}]