[{"id":"51798","lat":39.169470915197174,"lon":8.986348354536892,"name":"8442","brand":"Tamoil","address":"STR.PROV.COLLEGAMENTO S.S. 195 SN 09012, CAPOTERRA, CA","prices":[{"type":"petrol","price":1.779,"self":true,"updatedAt":"25/06/2026 12:12:40"},{"type":"diesel","price":1.899,"self":true,"updatedAt":"25/06/2026 12:12:40"}]},{"id":"41858","lat":39.17756270862054,"lon":8.982900125547758,"name":"CAPOTERRA-ISOLA GAS","brand":"ISOLA GAS","address":"PROLUNGAMENTO VIA TRENTO SNC 09012, CAPOTERRA, CA","prices":[{"type":"petrol","price":1.827,"self":true,"updatedAt":"24/06/2026 07:11:22"},{"type":"diesel","price":1.927,"self":true,"updatedAt":"24/06/2026 07:11:22"}]},{"id":"55876","lat":39.172658646975314,"lon":8.979045982713307,"name":"STAZIONE DI SERVIZIO IP","brand":"Api-Ip","address":"VIA CAGLIARI  23/B 09012, CAPOTERRA, CA","prices":[{"type":"petrol","price":1.799,"self":true,"updatedAt":"24/06/2026 17:23:19"},{"type":"diesel","price":1.919,"self":true,"updatedAt":"24/06/2026 17:23:19"}]},{"id":"49154","lat":39.008867618413376,"lon":8.995868906745955,"name":"distributore eni marini laura","brand":"Agip Eni","address":"195 Sulcitana, Km. 29, cagliari  09050, PULA, CA","prices":[{"type":"petrol","price":1.839,"self":true,"updatedAt":"26/06/2026 00:24:37"},{"type":"diesel","price":1.909,"self":true,"updatedAt":"26/06/2026 00:24:37"}]},{"id":"33185","lat":39.1097307936484,"lon":8.998206406831741,"name":"SARROCH S.S. 195 KM 16+195","brand":"Q8","address":"S.S. 195 KM 16+195  09018, SARROCH, CA","prices":[{"type":"petrol","price":1.799,"self":true,"updatedAt":"26/06/2026 07:45:28"},{"type":"diesel","price":1.879,"self":true,"updatedAt":"26/06/2026 07:45:28"},{"type":"lpg","price":0.737,"self":false,"updatedAt":"26/06/2026 07:45:28"}]}]