[{"id":"21803","lat":39.490058820871205,"lon":16.38236327244192,"name":"BRANDI ANGELO OSVALDO","brand":"Tamoil","address":"VIA DELLE FILANDE ( EX AMENDOLA ) 2 87041, ACRI, CS","prices":[{"type":"petrol","price":1.869,"self":true,"updatedAt":"24/06/2026 14:04:31"},{"type":"diesel","price":1.989,"self":true,"updatedAt":"24/06/2026 14:04:31"}]},{"id":"36565","lat":39.49131891858079,"lon":16.3823264837265,"name":"ENI ACRI","brand":"Agip Eni","address":"VIA PASTRENGO 2 87041, ACRI, CS","prices":[{"type":"petrol","price":1.829,"self":true,"updatedAt":"25/06/2026 01:10:32"},{"type":"diesel","price":1.919,"self":true,"updatedAt":"25/06/2026 01:10:32"}]},{"id":"28393","lat":39.49803983538372,"lon":16.383209519049046,"name":"ESSOACRI DI BRANCA A. & C. SAS","brand":"Esso","address":"VIA ALDO MORO 218 87041, ACRI, CS","prices":[{"type":"petrol","price":1.889,"self":true,"updatedAt":"23/06/2026 10:44:02"},{"type":"diesel","price":1.999,"self":true,"updatedAt":"23/06/2026 10:44:02"}]},{"id":"34082","lat":39.498177475056224,"lon":16.41739800466894,"name":"STAZIONE DI SERVIZIO DI FUSARO MAURO","brand":"Q8","address":"VIA LOC. SETTARIE - 87041, ACRI (CS) SNC 87041, ACRI, CS","prices":[{"type":"petrol","price":1.939,"self":true,"updatedAt":"23/06/2026 20:17:33"},{"type":"diesel","price":2.029,"self":true,"updatedAt":"23/06/2026 20:17:33"},{"type":"lpg","price":0.909,"self":false,"updatedAt":"23/06/2026 20:17:33"}]},{"id":"21690","lat":39.471799391658976,"lon":16.373818976285065,"name":"STAZIONE DI SERVIZIO VALLANA 1 DI VALLANA GAETANO","brand":"Pompe Bianche","address":"CONTRADA SERRICELLA  87041, ACRI, CS","prices":[{"type":"petrol","price":1.909,"self":true,"updatedAt":"23/06/2026 18:47:55"},{"type":"diesel","price":2.049,"self":true,"updatedAt":"23/06/2026 18:47:55"}]},{"id":"31160","lat":39.4978314000498,"lon":16.390086114406586,"name":"TAMOIL FERRARO ACRI","brand":"Tamoil","address":"Via della Resistenza 14 87041, ACRI, CS","prices":[{"type":"petrol","price":1.869,"self":true,"updatedAt":"25/06/2026 00:44:50"},{"type":"diesel","price":1.989,"self":true,"updatedAt":"25/06/2026 00:44:50"}]},{"id":"32704","lat":39.284917724639946,"lon":16.3375649826678,"name":"Mele Paolo","brand":"Q8","address":"Via Cona  87059, CASALI DEL MANCO, CS","prices":[{"type":"petrol","price":1.899,"self":true,"updatedAt":"24/06/2026 09:21:00"},{"type":"diesel","price":1.999,"self":true,"updatedAt":"24/06/2026 09:21:00"}]},{"id":"17401","lat":39.36143767477788,"lon":16.262028068304062,"name":"ENI P.V. 08647 TALARICO AMEDEO & C. sas","brand":"Agip Eni","address":"VIA PONTE CRATI 25 87040, CASTIGLIONE COSENTINO, CS","prices":[{"type":"petrol","price":1.829,"self":true,"updatedAt":"24/06/2026 01:01:01"},{"type":"diesel","price":1.919,"self":true,"updatedAt":"24/06/2026 01:01:01"}]},{"id":"60950","lat":39.304688,"lon":16.250698,"name":"8655 COSENZA","brand":"Agip Eni","address":"Via Gregorio Caloprese  87100, COSENZA, CS","prices":[{"type":"petrol","price":1.829,"self":true,"updatedAt":"24/06/2026 23:58:24"},{"type":"diesel","price":1.909,"self":true,"updatedAt":"24/06/2026 07:56:28"}]},{"id":"54001","lat":39.3066881,"lon":16.2565033,"name":"Carofiglio Domenico","brand":"Agip Eni","address":"POPILIA 138 / C 87100, COSENZA, CS","prices":[{"type":"petrol","price":1.829,"self":true,"updatedAt":"25/06/2026 00:59:06"},{"type":"diesel","price":1.919,"self":true,"updatedAt":"25/06/2026 00:59:06"}]},{"id":"34814","lat":39.303694565065946,"lon":16.254892721772194,"name":"COSENZA - MANCINI","brand":"Api-Ip","address":"Via Giacomo Mancini  87100, COSENZA, CS","prices":[{"type":"petrol","price":1.819,"self":true,"updatedAt":"24/06/2026 09:13:44"},{"type":"diesel","price":1.899,"self":true,"updatedAt":"24/06/2026 09:13:44"}]},{"id":"30187","lat":39.30637812449416,"lon":16.250653490424156,"name":"COSENZA - NICOLA SERRA","brand":"Api-Ip","address":"VIA NICOLA SERRA  87100, COSENZA, CS","prices":[{"type":"petrol","price":1.819,"self":true,"updatedAt":"24/06/2026 09:16:39"},{"type":"diesel","price":1.899,"self":true,"updatedAt":"24/06/2026 09:16:39"}]},{"id":"6730","lat":39.289206518435996,"lon":16.263706618419974,"name":"COSENZA PIAZZA F.LLI BANDIERA IMP.Q8","brand":"Q8","address":"PIAZZA F.LLI BANDIERA IMP.Q8 SNC 87100, COSENZA, CS","prices":[{"type":"petrol","price":1.789,"self":true,"updatedAt":"23/06/2026 18:06:14"},{"type":"diesel","price":1.899,"self":true,"updatedAt":"23/06/2026 18:06:14"}]},{"id":"45263","lat":39.317247000123,"lon":16.252017000123,"name":"COSENZA VIALE MANCINI","brand":"Q8","address":"VIALE MANCINI  87100, COSENZA, CS","prices":[{"type":"petrol","price":1.819,"self":true,"updatedAt":"22/06/2026 17:34:41"},{"type":"diesel","price":1.919,"self":true,"updatedAt":"22/06/2026 11:08:40"}]},{"id":"17663","lat":39.31493929806132,"lon":16.250131130218506,"name":"CS COSMAI","brand":"Api-Ip","address":"VIA BORSELLINO (ANGOLO COSMAI) SNC 87100, COSENZA, CS","prices":[{"type":"petrol","price":1.819,"self":true,"updatedAt":"24/06/2026 09:13:26"},{"type":"diesel","price":1.899,"self":true,"updatedAt":"24/06/2026 09:13:26"}]},{"id":"38730","lat":39.303224049758654,"lon":16.26313179731369,"name":"Easy Service Cosenza","brand":"Energas","address":"Loc. Gergeri SNC 87100, COSENZA, CS","prices":[{"type":"petrol","price":1.819,"self":true,"updatedAt":"25/06/2026 01:12:15"},{"type":"diesel","price":1.899,"self":true,"updatedAt":"25/06/2026 01:12:15"},{"type":"lpg","price":0.899,"self":false,"updatedAt":"25/06/2026 00:23:20"}]},{"id":"59421","lat":39.30931494546895,"lon":16.25695193809813,"name":"METALLO PETROLI COSENZA","brand":"Pompe Bianche","address":"Via Popilia snc 87100, COSENZA, CS","prices":[{"type":"petrol","price":1.817,"self":false,"updatedAt":"22/06/2026 20:37:12"},{"type":"diesel","price":1.897,"self":false,"updatedAt":"22/06/2026 20:37:12"}]},{"id":"9392","lat":39.31621499331457,"lon":16.252882757533257,"name":"STAZIONE DI SERVIZIO ENI DI TROTTA LEONARDO","brand":"Agip Eni","address":"VIALE GIACOMO MANCINI SNC 87100, COSENZA, CS","prices":[{"type":"petrol","price":1.829,"self":true,"updatedAt":"24/06/2026 23:57:23"},{"type":"diesel","price":1.919,"self":true,"updatedAt":"24/06/2026 23:57:23"}]},{"id":"16966","lat":39.32424272564348,"lon":16.25578540368872,"name":"TAMOIL","brand":"Tamoil","address":"VIALE CRATI BUSENTO SNC 87100, COSENZA, CS","prices":[{"type":"petrol","price":1.819,"self":true,"updatedAt":"25/06/2026 01:00:12"},{"type":"diesel","price":1.899,"self":true,"updatedAt":"25/06/2026 01:00:12"}]},{"id":"44583","lat":39.45434977396794,"lon":16.262904751958693,"name":"Elledì SRL stazione di servizio IP","brand":"Api-Ip","address":"660 di Acri, Km. 0, luzzi - 87040, LUZZI, CS","prices":[{"type":"petrol","price":1.809,"self":true,"updatedAt":"23/06/2026 20:23:19"},{"type":"diesel","price":1.914,"self":true,"updatedAt":"23/06/2026 20:23:19"}]},{"id":"7446","lat":39.434804627879664,"lon":16.261726319789886,"name":"STAZ. RIF. AGIP DI EGIDIO CORALLO","brand":"Agip Eni","address":"CONTRADA GIDORA  87040, LUZZI, CS","prices":[{"type":"petrol","price":1.829,"self":true,"updatedAt":"25/06/2026 00:58:32"},{"type":"diesel","price":1.919,"self":true,"updatedAt":"25/06/2026 00:58:32"}]},{"id":"33790","lat":39.34762132273638,"lon":16.257480135534678,"name":"IP","brand":"Api-Ip","address":"C/DA SANTA ROSA SNC 87036, RENDE, CS","prices":[{"type":"petrol","price":1.809,"self":true,"updatedAt":"23/06/2026 19:02:27"},{"type":"diesel","price":1.914,"self":true,"updatedAt":"23/06/2026 19:02:27"},{"type":"methane","price":1.518,"self":false,"updatedAt":"23/06/2026 19:02:27"},{"type":"lpg","price":0.869,"self":false,"updatedAt":"23/06/2026 19:02:27"}]},{"id":"61112","lat":39.3901991,"lon":16.2632463,"name":"IP Station  ( CS )","brand":"Api-Ip","address":"Contrada Pianette  87040, ROSE, CS","prices":[{"type":"petrol","price":1.819,"self":true,"updatedAt":"23/06/2026 12:06:05"},{"type":"diesel","price":1.924,"self":true,"updatedAt":"23/06/2026 12:06:05"}]},{"id":"54875","lat":39.3901991,"lon":16.2632463,"name":"IP Station  ( CS )","brand":"Api-Ip","address":"Contrada Pianette  87040, ROSE, CS","prices":[{"type":"petrol","price":1.809,"self":true,"updatedAt":"23/06/2026 12:07:06"},{"type":"diesel","price":1.914,"self":true,"updatedAt":"23/06/2026 12:07:06"}]},{"id":"6732","lat":39.29950031727219,"lon":16.30816308836063,"name":"PIANETTE DI ROVITO VIALE DELLA RESISTENZA","brand":"Q8","address":"VIALE DELLA RESISTENZA - PIANETTE DI ROVITO SNC 87050, ROVITO, CS","prices":[{"type":"petrol","price":1.839,"self":true,"updatedAt":"23/06/2026 18:36:11"},{"type":"diesel","price":1.944,"self":true,"updatedAt":"23/06/2026 18:36:11"}]},{"id":"38787","lat":39.34885897320221,"lon":16.263701766729355,"name":"Fuel Srls","brand":"Esso","address":"Strada Provinciale Destra Crati snc 87047, SAN PIETRO IN GUARANO, CS","prices":[{"type":"petrol","price":1.819,"self":true,"updatedAt":"25/06/2026 01:08:07"},{"type":"diesel","price":1.899,"self":true,"updatedAt":"25/06/2026 01:08:06"},{"type":"lpg","price":0.889,"self":false,"updatedAt":"25/06/2026 01:08:07"}]},{"id":"58142","lat":39.3391537,"lon":16.4440064,"name":"ENI STATION CAMIGLIATELLO SILANO 08693","brand":"Agip Eni","address":"Via Roma  87058, SPEZZANO DELLA SILA, CS","prices":[{"type":"petrol","price":1.829,"self":true,"updatedAt":"24/06/2026 23:58:38"},{"type":"diesel","price":1.919,"self":true,"updatedAt":"24/06/2026 23:58:38"}]},{"id":"53336","lat":39.333866,"lon":16.466689,"name":"FC carburanti di Francesco Cardamone","brand":"Agip Eni","address":"S.S. 107 LOCALITA' GIORDANELLO SNC 87058, SPEZZANO DELLA SILA, CS","prices":[{"type":"petrol","price":1.829,"self":true,"updatedAt":"25/06/2026 00:16:19"},{"type":"diesel","price":1.919,"self":true,"updatedAt":"25/06/2026 00:16:19"},{"type":"lpg","price":0.702,"self":true,"updatedAt":"21/03/2026 06:56:25"}]},{"id":"33138","lat":39.296678219701896,"lon":16.343291387338695,"name":"TROTTA CARBURANTI DI TROTTA LEONARDO & C. S.A.S","brand":"Agip Eni","address":"VIA ROMA SN 87058, SPEZZANO DELLA SILA, CS","prices":[{"type":"petrol","price":1.829,"self":true,"updatedAt":"25/06/2026 00:59:16"},{"type":"diesel","price":1.919,"self":true,"updatedAt":"25/06/2026 00:59:16"}]},{"id":"6120","lat":39.31327458648611,"lon":16.26268118619919,"name":"carim carburanti ESSO","brand":"Esso","address":"VIA B.F. MARINO 24 87040, ZUMPANO, CS","prices":[{"type":"petrol","price":1.829,"self":true,"updatedAt":"23/06/2026 21:05:04"},{"type":"diesel","price":1.919,"self":true,"updatedAt":"23/06/2026 21:05:04"},{"type":"lpg","price":0.899,"self":false,"updatedAt":"23/06/2026 21:05:04"}]},{"id":"54466","lat":39.3087714,"lon":16.3463791,"name":"GO CARBURANTI","brand":"GO","address":"Via Don Giovanni Minzoni NC 89022, CITTANOVA, RC","prices":[{"type":"petrol","price":1.799,"self":true,"updatedAt":"24/06/2026 17:36:08"},{"type":"diesel","price":1.899,"self":true,"updatedAt":"24/06/2026 17:36:08"}]}]