[{"id":"53063","lat":39.490109204888164,"lon":16.243719640380863,"name":"BESIDIAE PETROLI SRL","brand":"Q8","address":"LOC. TORRE GRANDE  87043, BISIGNANO, CS","prices":[{"type":"petrol","price":1.799,"self":true,"updatedAt":"23/06/2026 18:53:36"},{"type":"diesel","price":1.929,"self":true,"updatedAt":"23/06/2026 18:53:36"}]},{"id":"16469","lat":39.26370440611082,"lon":16.22043639421463,"name":"Q8 Carolei","brand":"Q8","address":"VIA SAN MARCO  87030, CAROLEI, CS","prices":[{"type":"petrol","price":1.819,"self":true,"updatedAt":"25/06/2026 16:54:26"},{"type":"diesel","price":1.899,"self":true,"updatedAt":"25/06/2026 16:54:26"}]},{"id":"29270","lat":39.32281781499985,"lon":16.248612999916077,"name":"7156","brand":"Tamoil","address":"COSMAI SNC 87100, COSENZA, CS","prices":[{"type":"petrol","price":1.819,"self":true,"updatedAt":"29/06/2026 00:45:44"},{"type":"diesel","price":1.879,"self":true,"updatedAt":"29/06/2026 00:45:44"}]},{"id":"45659","lat":39.30862700414883,"lon":16.23134023558191,"name":"7689","brand":"Tamoil","address":"DEGLI STADI SNC SN 87100, COSENZA, CS","prices":[{"type":"petrol","price":1.819,"self":true,"updatedAt":"29/06/2026 00:16:26"},{"type":"diesel","price":1.879,"self":true,"updatedAt":"29/06/2026 00:16:26"}]},{"id":"36472","lat":39.30309187579899,"lon":16.247865493923996,"name":"COSENZA - REPUBBLICA","brand":"Api-Ip","address":"VIA DELLA REPUBBLICA ANG.VIA P.ROSSI  87100, COSENZA, CS","prices":[{"type":"petrol","price":1.817,"self":true,"updatedAt":"28/06/2026 09:15:52"},{"type":"diesel","price":1.877,"self":true,"updatedAt":"28/06/2026 09:15:52"}]},{"id":"30117","lat":39.31259801099555,"lon":16.246746316532835,"name":"COSENZA - VIA PANEBIANCO","brand":"Q8","address":"VIA PANEBIANCO  87100, COSENZA, CS","prices":[{"type":"petrol","price":1.819,"self":true,"updatedAt":"22/06/2026 17:34:45"},{"type":"diesel","price":1.919,"self":true,"updatedAt":"22/06/2026 11:08:44"}]},{"id":"51149","lat":39.30746340938471,"lon":16.247348105814126,"name":"SERVICE AREA DI SEMINARIO ANTONIO & C. S.A.S.","brand":"Esso","address":"VIA PANEBIANCO 1 87100, COSENZA, CS","prices":[{"type":"petrol","price":1.819,"self":true,"updatedAt":"25/06/2026 11:53:35"},{"type":"diesel","price":1.899,"self":true,"updatedAt":"25/06/2026 11:53:35"}]},{"id":"59433","lat":39.31349040773638,"lon":16.23756766319275,"name":"STAZIONE DISERVIZIO FE.GI.SNC","brand":"Api-Ip","address":"MAGNA GRECIA SN 87100, COSENZA, CS","prices":[{"type":"petrol","price":1.839,"self":true,"updatedAt":"22/06/2026 11:43:08"},{"type":"diesel","price":1.949,"self":true,"updatedAt":"22/06/2026 11:43:08"},{"type":"lpg","price":0.899,"self":false,"updatedAt":"22/06/2026 11:43:08"}]},{"id":"53329","lat":39.298630391243265,"lon":16.247501717794194,"name":"Stazione ESSO viale della Repubblica","brand":"Esso","address":"Viale della Repubblica 30 87100, COSENZA, CS","prices":[{"type":"petrol","price":1.829,"self":true,"updatedAt":"23/06/2026 15:56:01"},{"type":"diesel","price":1.919,"self":true,"updatedAt":"23/06/2026 15:56:01"}]},{"id":"39543","lat":39.28431094119075,"lon":16.245175749063492,"name":"EASY DIPIGNANO","brand":"Esso","address":"SP 79 KM 0+800 SNC 87040, DIPIGNANO, CS","prices":[{"type":"petrol","price":1.849,"self":true,"updatedAt":"29/06/2026 00:03:56"},{"type":"diesel","price":1.959,"self":true,"updatedAt":"29/06/2026 00:03:56"}]},{"id":"44144","lat":39.273386223687346,"lon":16.058677502170212,"name":"SS FALCONARA","brand":"Esso","address":"CONTRADA MALPERTUSO SNC 87030, FALCONARA ALBANESE, CS","prices":[{"type":"petrol","price":1.849,"self":true,"updatedAt":"24/06/2026 12:41:37"},{"type":"diesel","price":1.969,"self":true,"updatedAt":"24/06/2026 12:41:37"},{"type":"lpg","price":0.859,"self":false,"updatedAt":"24/06/2026 12:41:37"}]},{"id":"55083","lat":39.4067968,"lon":16.0104448,"name":"ENI","brand":"Agip Eni","address":"SS 18 VAR. KM 0+670,50 SNC 87024, FUSCALDO, CS","prices":[{"type":"petrol","price":1.829,"self":true,"updatedAt":"29/06/2026 00:45:17"},{"type":"diesel","price":1.899,"self":true,"updatedAt":"28/06/2026 21:40:07"}]},{"id":"34528","lat":39.391656039226696,"lon":16.01946383714676,"name":"SS A TUTTO GAS s.a.s di Chianello Samanta & C.","brand":"Api-Ip","address":"Statale 18 Tirrena Inferiore, Km. 313+200, dir. nord  87024, FUSCALDO, CS","prices":[{"type":"petrol","price":1.827,"self":true,"updatedAt":"26/06/2026 09:18:32"},{"type":"diesel","price":1.917,"self":true,"updatedAt":"26/06/2026 09:18:32"}]},{"id":"41903","lat":39.444713416961356,"lon":16.24500799782831,"name":"AREA DI SERVIZIO 3P DI PILUSO MARIA GIOVANNA E F.LLI SAS","brand":"Pompe Bianche","address":"CONTRADA BORGO - STRADA PROVINCIALE 110 SNC 87010, LATTARICO, CS","prices":[{"type":"petrol","price":1.819,"self":true,"updatedAt":"26/06/2026 17:00:38"},{"type":"diesel","price":1.899,"self":true,"updatedAt":"26/06/2026 17:00:38"},{"type":"lpg","price":0.879,"self":false,"updatedAt":"26/06/2026 17:00:38"}]},{"id":"51480","lat":39.435748856066716,"lon":16.177896559238434,"name":"S.P.S. PETROLI -LATTARICO-","brand":"Pompe Bianche","address":"C.DA CAMPO DI FIENO SNC 87010, LATTARICO, CS","prices":[{"type":"petrol","price":1.969,"self":true,"updatedAt":"18/05/2026 16:01:44"},{"type":"diesel","price":1.979,"self":true,"updatedAt":"18/05/2026 16:01:44"},{"type":"lpg","price":0.769,"self":false,"updatedAt":"18/05/2026 16:01:44"}]},{"id":"63243","lat":39.4392129,"lon":16.175731,"name":"TOIL","brand":"Toil","address":"Campo di fieno  snc 87010, LATTARICO, CS","prices":[{"type":"petrol","price":1.839,"self":true,"updatedAt":"27/06/2026 09:01:11"},{"type":"diesel","price":1.949,"self":true,"updatedAt":"27/06/2026 09:01:11"},{"type":"lpg","price":0.859,"self":true,"updatedAt":"27/06/2026 09:01:11"}]},{"id":"38799","lat":39.30631274898381,"lon":16.165052130818367,"name":"Easy Service Marano Marchesato","brand":"Energas","address":"Via Alcide De Gasperi S.N.C. 87040, MARANO MARCHESATO, CS","prices":[{"type":"petrol","price":1.819,"self":true,"updatedAt":"29/06/2026 00:04:23"},{"type":"diesel","price":1.889,"self":true,"updatedAt":"29/06/2026 00:04:23"},{"type":"lpg","price":0.859,"self":false,"updatedAt":"29/06/2026 00:04:23"}]},{"id":"47603","lat":39.286413000123,"lon":16.216007000123,"name":"ESSO MENDICINO","brand":"Esso","address":"VIA DELLA CONCORDIA 180 87040, MENDICINO, CS","prices":[{"type":"petrol","price":1.819,"self":true,"updatedAt":"29/06/2026 00:25:29"},{"type":"diesel","price":1.879,"self":true,"updatedAt":"29/06/2026 00:25:29"}]},{"id":"43665","lat":39.42971093297006,"lon":16.222843552774407,"name":"2971","brand":"Tamoil","address":"ALESSANDRO MANZONI - 87046, MONTALTO UFFUGO, CS","prices":[{"type":"petrol","price":1.799,"self":true,"updatedAt":"28/06/2026 01:15:46"},{"type":"diesel","price":1.899,"self":true,"updatedAt":"28/06/2026 01:15:46"}]},{"id":"49999","lat":39.4308532570577,"lon":16.19682348098563,"name":"2976","brand":"Tamoil","address":"PIANETTE SNC 87046, MONTALTO UFFUGO, CS","prices":[{"type":"petrol","price":1.779,"self":true,"updatedAt":"29/06/2026 00:42:10"},{"type":"diesel","price":1.879,"self":true,"updatedAt":"29/06/2026 00:42:10"}]},{"id":"41917","lat":39.405248253137806,"lon":16.239542439579964,"name":"3395","brand":"Tamoil","address":"BENEDETTO CROCE S.P. 241 SN 87046, MONTALTO UFFUGO, CS","prices":[{"type":"petrol","price":1.779,"self":true,"updatedAt":"29/06/2026 00:35:10"},{"type":"diesel","price":1.879,"self":true,"updatedAt":"29/06/2026 00:35:10"}]},{"id":"56437","lat":39.4003334,"lon":16.2336181,"name":"7155","brand":"Tamoil","address":"Via Pietro Mascagni  87046, MONTALTO UFFUGO, CS","prices":[{"type":"petrol","price":1.779,"self":true,"updatedAt":"29/06/2026 00:17:10"},{"type":"diesel","price":1.879,"self":true,"updatedAt":"29/06/2026 00:17:10"}]},{"id":"55374","lat":39.3744782,"lon":16.2402055,"name":"BPOWER SRL","brand":"Pompe Bianche","address":"SANTA MARIA DI SETTIMO 175 87046, MONTALTO UFFUGO, CS","prices":[{"type":"petrol","price":1.798,"self":true,"updatedAt":"23/06/2026 20:30:48"},{"type":"diesel","price":1.898,"self":true,"updatedAt":"23/06/2026 20:30:48"},{"type":"methane","price":1.538,"self":false,"updatedAt":"23/06/2026 20:30:48"}]},{"id":"38613","lat":39.42874228913558,"lon":16.23538694906256,"name":"Easy Service Montalto Uffugo","brand":"Energas","address":"corso italia  87040, MONTALTO UFFUGO, CS","prices":[{"type":"petrol","price":1.779,"self":true,"updatedAt":"29/06/2026 00:04:37"},{"type":"diesel","price":1.879,"self":true,"updatedAt":"29/06/2026 00:04:37"}]},{"id":"60747","lat":39.3996161,"lon":16.2273074,"name":"IBLEA PETROLI SRL - MONTALTO UFFUGO","brand":"Iblea Petroli","address":"Via Pietro Mascagni SNC 87046, MONTALTO UFFUGO, CS","prices":[{"type":"petrol","price":1.799,"self":true,"updatedAt":"29/06/2026 00:23:02"},{"type":"diesel","price":1.899,"self":true,"updatedAt":"29/06/2026 00:23:02"}]},{"id":"26861","lat":39.41769153823852,"lon":16.239337921142578,"name":"Q8","brand":"Q8","address":"Statale 19 delle Calabrie, Km. 260, dir. nord - 87040, MONTALTO UFFUGO, CS","prices":[{"type":"petrol","price":1.779,"self":true,"updatedAt":"29/06/2026 07:25:34"},{"type":"diesel","price":1.879,"self":true,"updatedAt":"29/06/2026 07:25:34"},{"type":"lpg","price":0.908,"self":false,"updatedAt":"29/06/2026 07:25:34"}]},{"id":"60932","lat":39.40187645881074,"lon":16.133000403642654,"name":"Russo Petroli Srls","brand":"europetroli","address":"SANTA LIBERATA SNC 87046, MONTALTO UFFUGO, CS","prices":[{"type":"petrol","price":1.797,"self":true,"updatedAt":"25/06/2026 18:28:40"},{"type":"diesel","price":1.897,"self":true,"updatedAt":"25/06/2026 18:28:40"}]},{"id":"27161","lat":39.43724411118169,"lon":16.237432956695557,"name":"STAZIONE DI SERVIZIO ESSO MONTALTO","brand":"Esso","address":"VIA G.VERDI SNC 87046, MONTALTO UFFUGO, CS","prices":[{"type":"petrol","price":1.819,"self":true,"updatedAt":"25/06/2026 11:42:49"},{"type":"diesel","price":1.919,"self":true,"updatedAt":"25/06/2026 11:42:49"}]},{"id":"15179","lat":39.35824398318245,"lon":16.041260808706284,"name":"esso","brand":"Esso","address":"VIA DEL CANNONE 18 87027, PAOLA, CS","prices":[{"type":"petrol","price":1.899,"self":true,"updatedAt":"26/06/2026 08:36:28"},{"type":"diesel","price":1.999,"self":true,"updatedAt":"26/06/2026 08:36:28"}]},{"id":"55837","lat":39.383136396371896,"lon":16.02744578922396,"name":"ESSO PAOLA","brand":"Esso","address":"SS 18 - LOCALITA' SOTTERRA SNC 87027, PAOLA, CS","prices":[{"type":"petrol","price":1.829,"self":true,"updatedAt":"28/06/2026 23:24:47"},{"type":"diesel","price":1.909,"self":true,"updatedAt":"28/06/2026 23:24:47"},{"type":"methane","price":1.649,"self":false,"updatedAt":"28/06/2026 23:24:47"}]},{"id":"17827","lat":39.35984547424835,"lon":16.040762071163954,"name":"Fabrizio Carelli & C. Sas","brand":"Agip Eni","address":"Via Nazionale 11 87027, PAOLA, CS","prices":[{"type":"petrol","price":1.829,"self":true,"updatedAt":"28/06/2026 01:17:32"},{"type":"diesel","price":1.899,"self":true,"updatedAt":"28/06/2026 18:40:12"}]},{"id":"57781","lat":39.35241864543814,"lon":16.050639152526855,"name":"IP PAOLA","brand":"Api-Ip","address":"S.S. 18 KM 320+800 SN 87027, PAOLA, CS","prices":[{"type":"petrol","price":1.829,"self":true,"updatedAt":"26/06/2026 09:18:42"},{"type":"diesel","price":1.919,"self":true,"updatedAt":"26/06/2026 09:18:42"}]},{"id":"17897","lat":39.363979251325475,"lon":16.041905879974365,"name":"Q8","brand":"Q8","address":"NAZIONALE SNC 87027, PAOLA, CS","prices":[{"type":"petrol","price":1.829,"self":true,"updatedAt":"26/06/2026 12:29:42"},{"type":"diesel","price":1.919,"self":true,"updatedAt":"26/06/2026 12:29:42"}]},{"id":"48769","lat":39.327482364255964,"lon":16.20699389316742,"name":"2970","brand":"Tamoil","address":"LOC. SURDO - 87036, RENDE, CS","prices":[{"type":"petrol","price":1.819,"self":true,"updatedAt":"29/06/2026 00:44:39"},{"type":"diesel","price":1.879,"self":true,"updatedAt":"29/06/2026 00:44:39"}]},{"id":"50455","lat":39.44451981447303,"lon":16.245070887842225,"name":"AREA DI SERVIZIO 3P DI PILUSO MARIA GIOVANNA E F.LLI SAS","brand":"Pompe Bianche","address":"VIA ROALD AMUNDSEN SNC 87036, RENDE, CS","prices":[{"type":"petrol","price":1.819,"self":true,"updatedAt":"26/06/2026 17:00:21"},{"type":"diesel","price":1.899,"self":true,"updatedAt":"26/06/2026 17:00:21"},{"type":"lpg","price":0.859,"self":false,"updatedAt":"26/06/2026 17:00:21"}]},{"id":"48164","lat":39.33617159549471,"lon":16.24773263931274,"name":"Brunoil","brand":"Esso","address":"Viale Francesco e Carolina Principe  87036, RENDE, CS","prices":[{"type":"petrol","price":1.959,"self":true,"updatedAt":"21/05/2026 08:03:51"},{"type":"diesel","price":1.989,"self":true,"updatedAt":"21/05/2026 08:03:51"}]},{"id":"3760","lat":39.34531177254666,"lon":16.23553454875946,"name":"COSENZA EST","brand":"4.0","address":"A3 SALERNO-REGGIO CALABRIA, Km. 254.265, Nord -, RENDE, CS","prices":[{"type":"petrol","price":1.869,"self":true,"updatedAt":"24/06/2026 07:47:43"},{"type":"diesel","price":1.929,"self":true,"updatedAt":"24/06/2026 07:47:43"},{"type":"lpg","price":0.859,"self":false,"updatedAt":"24/06/2026 07:47:43"}]},{"id":"42859","lat":39.3451266330193,"lon":16.234677784061432,"name":"COSENZA OVEST","brand":"4.0","address":"A3 SALERNO-REGGIO CALABRIA, Km. 255, sud - 87036, RENDE, CS","prices":[{"type":"petrol","price":1.869,"self":true,"updatedAt":"27/06/2026 13:14:32"},{"type":"diesel","price":1.929,"self":true,"updatedAt":"27/06/2026 13:14:32"}]},{"id":"38656","lat":39.34469239670901,"lon":16.23323455452919,"name":"Easy Service Piano Monello","brand":"Energas","address":"107 Silana Crotonese, Km. 25+500, Crotone - 87036, RENDE, CS","prices":[{"type":"petrol","price":1.809,"self":true,"updatedAt":"29/06/2026 00:05:11"},{"type":"diesel","price":1.914,"self":true,"updatedAt":"29/06/2026 00:05:11"},{"type":"lpg","price":0.859,"self":false,"updatedAt":"29/06/2026 00:05:11"}]},{"id":"38657","lat":39.33676033229744,"lon":16.240609288215637,"name":"Easy Service Rende, Via Bilotti","brand":"Energas","address":"Via Carlo Bilotti SNC 87036, RENDE, CS","prices":[{"type":"petrol","price":1.809,"self":true,"updatedAt":"29/06/2026 00:05:35"},{"type":"diesel","price":1.914,"self":true,"updatedAt":"29/06/2026 00:05:35"}]},{"id":"61181","lat":39.35322583186115,"lon":16.24358348930361,"name":"ENI P.V. 08680 TALARICO AMEDEO & C. sas","brand":"Agip Eni","address":"A  VOLTA 47/A 87036, RENDE, CS","prices":[{"type":"petrol","price":1.829,"self":true,"updatedAt":"28/06/2026 01:08:31"},{"type":"diesel","price":1.899,"self":true,"updatedAt":"28/06/2026 01:08:31"}]},{"id":"27104","lat":39.32867881603096,"lon":16.244354993104935,"name":"ESSO","brand":"Esso","address":"Via J. F. Kennedy  96 87036, RENDE, CS","prices":[{"type":"petrol","price":1.809,"self":true,"updatedAt":"26/06/2026 12:34:34"},{"type":"diesel","price":1.899,"self":true,"updatedAt":"26/06/2026 12:34:34"}]},{"id":"25092","lat":39.34749717564078,"lon":16.204536259174347,"name":"IP","brand":"Api-Ip","address":"Statale 107 Silana Crotonese, Km. 32,674, dir. ovest -, RENDE, CS","prices":[{"type":"petrol","price":1.809,"self":true,"updatedAt":"26/06/2026 08:21:08"},{"type":"diesel","price":1.914,"self":true,"updatedAt":"26/06/2026 08:21:08"},{"type":"lpg","price":0.869,"self":false,"updatedAt":"26/06/2026 08:21:08"}]},{"id":"34440","lat":39.36372934984588,"lon":16.241346040753175,"name":"Metallo Petroli Rende","brand":"Pompe Bianche","address":"Via C. Colombo snc 87036, RENDE, CS","prices":[{"type":"petrol","price":1.817,"self":true,"updatedAt":"22/06/2026 20:37:38"},{"type":"diesel","price":1.917,"self":true,"updatedAt":"22/06/2026 20:37:38"},{"type":"methane","price":1.799,"self":true,"updatedAt":"22/06/2026 20:37:38"}]},{"id":"6728","lat":39.34726998079117,"lon":16.191469766270416,"name":"RENDE LOC. ARCAVACATA S.S. 107","brand":"Q8","address":"LOC. ARCAVACATA S.S. 107 SNC 87036, RENDE, CS","prices":[{"type":"petrol","price":1.809,"self":true,"updatedAt":"22/06/2026 11:08:41"},{"type":"diesel","price":1.914,"self":true,"updatedAt":"22/06/2026 11:08:41"}]},{"id":"32491","lat":39.329362650475304,"lon":16.220115199685097,"name":"RENDE LOCALITA SAPORITO","brand":"Q8","address":"LOCALITA SAPORITO  87036, RENDE, CS","prices":[{"type":"petrol","price":1.809,"self":true,"updatedAt":"26/06/2026 07:45:37"},{"type":"diesel","price":1.889,"self":true,"updatedAt":"26/06/2026 07:45:37"}]},{"id":"32492","lat":39.38009781483269,"lon":16.234546623942606,"name":"RENDE SP 241 LOC. SETTIMO","brand":"Q8","address":"SP 241 LOC. SETTIMO  87036, RENDE, CS","prices":[{"type":"petrol","price":1.819,"self":true,"updatedAt":"22/06/2026 17:34:44"},{"type":"diesel","price":1.924,"self":true,"updatedAt":"22/06/2026 17:34:44"}]},{"id":"6785","lat":39.35229749618907,"lon":16.23660217605743,"name":"RENDE VIA BRAILLE","brand":"Q8","address":"VIA BRAILLE SNC 87036, RENDE, CS","prices":[{"type":"petrol","price":1.809,"self":true,"updatedAt":"22/06/2026 11:08:44"},{"type":"diesel","price":1.914,"self":true,"updatedAt":"22/06/2026 11:08:44"}]},{"id":"8001","lat":39.34493456794176,"lon":16.244234293699265,"name":"Stazione di servizio di Livadoti","brand":"Q8","address":"Statale 19 delle Calabrie, Km. 289+450, dir. nord - -, RENDE, CS","prices":[{"type":"petrol","price":1.809,"self":true,"updatedAt":"26/06/2026 19:10:16"},{"type":"diesel","price":1.909,"self":true,"updatedAt":"26/06/2026 19:10:16"}]},{"id":"51559","lat":39.341485925219835,"lon":16.239272927616376,"name":"STAZIONE DI SERVIZIO ESSO","brand":"Esso","address":"VIA MOSCA SNC 87010, RENDE, CS","prices":[{"type":"petrol","price":1.829,"self":true,"updatedAt":"29/06/2026 07:01:43"},{"type":"diesel","price":1.919,"self":true,"updatedAt":"29/06/2026 07:01:43"}]},{"id":"55078","lat":39.3351011584957,"lon":16.136613211673755,"name":"ESSO SAN FILI","brand":"Esso","address":"LOC. MACCHIA DELLA POSTA SNC 87037, SAN FILI, CS","prices":[{"type":"petrol","price":1.809,"self":true,"updatedAt":"29/06/2026 00:25:42"},{"type":"diesel","price":1.919,"self":true,"updatedAt":"29/06/2026 00:25:42"}]},{"id":"13119","lat":39.30538731577692,"lon":16.05203926563263,"name":"totalerg","brand":"Api-Ip","address":"VIA C. COLOMBO  87038, SAN LUCIDO, CS","prices":[{"type":"petrol","price":1.837,"self":true,"updatedAt":"29/06/2026 06:26:02"},{"type":"diesel","price":1.927,"self":true,"updatedAt":"29/06/2026 06:26:02"}]}]