[{"id":"53569","lat":39.30747206565293,"lon":8.969178199768066,"name":"Effedi snc di Antonio e Luca Desogus","brand":"Esso","address":"VIA NAZIONALE KM 14,00 S.N. 09033, DECIMOMANNU, CA","prices":[{"type":"petrol","price":1.784,"self":true,"updatedAt":"23/06/2026 08:29:13"},{"type":"diesel","price":1.894,"self":true,"updatedAt":"23/06/2026 08:29:13"}]},{"id":"17112","lat":39.30496911307737,"lon":8.97320955991745,"name":"FUEL SERVICE DECIMO SAS DI MARCELLINO MAMELI","brand":"Agip Eni","address":"VIA NAZIONALE S.N.C. 09033, DECIMOMANNU, CA","prices":[{"type":"petrol","price":1.814,"self":true,"updatedAt":"24/06/2026 00:21:26"},{"type":"diesel","price":1.914,"self":true,"updatedAt":"24/06/2026 00:21:26"}]},{"id":"37472","lat":39.29474941029791,"lon":8.950216772946987,"name":"Eni 07514","brand":"Agip Eni","address":"via Stazione 47 09068, UTA, CA","prices":[{"type":"petrol","price":1.829,"self":true,"updatedAt":"24/06/2026 00:32:20"},{"type":"diesel","price":1.919,"self":true,"updatedAt":"24/06/2026 00:32:20"}]},{"id":"11041","lat":39.30014310140881,"lon":8.944049924612045,"name":"Q8 DI ANGIONI MARIA PATRIZIA","brand":"Q8","address":"VIA STAZIONE 9 09010, UTA, CA","prices":[{"type":"petrol","price":1.864,"self":true,"updatedAt":"24/06/2026 07:32:21"},{"type":"diesel","price":1.974,"self":true,"updatedAt":"24/06/2026 07:32:21"}]},{"id":"6695","lat":39.33305559972909,"lon":8.918499596958895,"name":"DECIMOPUTZU VIA VILLA SPECIOSA 40","brand":"Q8","address":"VIA VILLA SPECIOSA 40 09010, DECIMOPUTZU, SU","prices":[{"type":"petrol","price":1.787,"self":true,"updatedAt":"24/06/2026 01:42:39"},{"type":"diesel","price":1.887,"self":true,"updatedAt":"24/06/2026 01:42:39"}]},{"id":"14904","lat":39.336907656596566,"lon":8.904735624298155,"name":"TAMOIL","brand":"Tamoil","address":"VIA SAN BASILIO S.N.C. 09010, DECIMOPUTZU, SU","prices":[{"type":"petrol","price":1.819,"self":true,"updatedAt":"23/06/2026 23:54:44"},{"type":"diesel","price":1.919,"self":true,"updatedAt":"23/06/2026 23:54:43"}]},{"id":"47419","lat":39.48629518536636,"lon":8.899972509940563,"name":"8448","brand":"Tamoil","address":"S.S. 293 KM. 6,288 SN 09030, SAMASSI, SU","prices":[{"type":"petrol","price":1.839,"self":true,"updatedAt":"23/06/2026 23:54:56"},{"type":"diesel","price":1.929,"self":true,"updatedAt":"23/06/2026 13:35:49"}]},{"id":"35127","lat":39.41624210491168,"lon":8.924440294504166,"name":"8479","brand":"Tamoil","address":"SS 196 KM 4,202 SN 09038, SERRAMANNA, SU","prices":[{"type":"petrol","price":1.799,"self":true,"updatedAt":"23/06/2026 23:48:02"},{"type":"diesel","price":1.899,"self":true,"updatedAt":"23/06/2026 13:42:10"}]},{"id":"32488","lat":39.41297609166618,"lon":8.925500437617302,"name":"SERRAMANNA SS.196 KM.3+849","brand":"Q8","address":"SS.196 KM.3+849  09038, SERRAMANNA, SU","prices":[{"type":"petrol","price":1.777,"self":true,"updatedAt":"23/06/2026 01:40:51"},{"type":"diesel","price":1.917,"self":true,"updatedAt":"23/06/2026 01:40:51"}]},{"id":"29697","lat":39.41708399374236,"lon":8.924314230680466,"name":"Totalerg","brand":"Api-Ip","address":"VIA CAGLIARI 40/A 09038, SERRAMANNA, SU","prices":[{"type":"petrol","price":1.799,"self":true,"updatedAt":"20/06/2026 08:07:15"},{"type":"diesel","price":1.919,"self":true,"updatedAt":"20/06/2026 08:07:15"}]},{"id":"48268","lat":39.484166617918845,"lon":8.980463526571988,"name":"ESSO - SERRENTI S.S. 131 KM 32+493","brand":"Esso","address":"S.S. 131 KM 32+493  09057, SERRENTI, SU","prices":[{"type":"petrol","price":1.829,"self":true,"updatedAt":"23/06/2026 07:47:17"},{"type":"diesel","price":1.899,"self":true,"updatedAt":"23/06/2026 07:47:17"},{"type":"lpg","price":0.859,"self":false,"updatedAt":"23/06/2026 07:47:17"}]},{"id":"39238","lat":39.29913041036353,"lon":8.820616006851196,"name":"FEDERICO MURA IMPIANTO TAMOIL 8455","brand":"Tamoil","address":"EX  S.S. 130 KM 27,105 SNC 09010, SILIQUA, SU","prices":[{"type":"petrol","price":1.819,"self":true,"updatedAt":"24/06/2026 00:48:48"},{"type":"diesel","price":1.919,"self":true,"updatedAt":"24/06/2026 00:48:48"}]},{"id":"28782","lat":39.369181148541735,"lon":8.802135586738586,"name":"Area servizio Tamoil di Lai Davide","brand":"Tamoil","address":"Statale 293 di Giba, Km. 22,200, dir. Samassi - 09010, VALLERMOSA, SU","prices":[{"type":"petrol","price":1.819,"self":true,"updatedAt":"24/06/2026 00:23:49"},{"type":"diesel","price":1.919,"self":true,"updatedAt":"24/06/2026 00:23:49"}]},{"id":"42986","lat":39.494514,"lon":8.7630313,"name":"Isa Station Industry","brand":"NonnaIsa Station","address":"STRADA PROV. 61 KM. 4,2 SNC 09039, VILLACIDRO (SU) SNC 09039, VILLACIDRO, SU","prices":[{"type":"petrol","price":1.839,"self":true,"updatedAt":"23/06/2026 08:26:06"},{"type":"diesel","price":1.949,"self":true,"updatedAt":"23/06/2026 08:26:06"}]},{"id":"33510","lat":39.49102126385747,"lon":8.763222098350525,"name":"NonnaIsa Station VILLACIDRO","brand":"NonnaIsa Station","address":"VIA SP 14/BIS KM 4 - Z.I . C/O  CENTRO COM.  S.IGNAZIO SN 09039, VILLACIDRO (SU) SNC 09039, VILLACIDRO, SU","prices":[{"type":"petrol","price":1.819,"self":true,"updatedAt":"23/06/2026 08:25:54"},{"type":"diesel","price":1.899,"self":true,"updatedAt":"23/06/2026 08:25:54"}]},{"id":"56955","lat":39.487144618157096,"lon":8.757699564093842,"name":"Q8","brand":"Q8","address":"Strada provinciale 61 km 2.300 snc 09039, VILLACIDRO, SU","prices":[{"type":"petrol","price":1.819,"self":true,"updatedAt":"24/06/2026 07:47:31"},{"type":"diesel","price":1.919,"self":true,"updatedAt":"24/06/2026 07:47:31"}]},{"id":"53344","lat":39.48713316386011,"lon":8.757694538860102,"name":"Q8 6531 LAMPIS VINCENZA","brand":"Q8","address":"PROV.LE S.GAVINO KM 0.8 SN 09039, VILLACIDRO, SU","prices":[{"type":"petrol","price":1.839,"self":true,"updatedAt":"23/06/2026 06:59:55"},{"type":"diesel","price":1.949,"self":true,"updatedAt":"23/06/2026 06:59:55"}]},{"id":"59049","lat":39.385468,"lon":8.923525,"name":"17854  VILLASOR","brand":"Agip Eni","address":"S.S.196 KM 9+885, VILLASOR, SU","prices":[{"type":"petrol","price":1.829,"self":true,"updatedAt":"24/06/2026 00:15:36"},{"type":"diesel","price":1.919,"self":true,"updatedAt":"24/06/2026 00:15:36"},{"type":"lpg","price":0.722,"self":false,"updatedAt":"24/06/2026 00:15:36"}]},{"id":"63177","lat":39.374243729108656,"lon":8.942974220293534,"name":"ESSO - VILLASOR","brand":"Esso","address":"SS196 KM 7.580 09030, VILLASOR, SU","prices":[{"type":"petrol","price":2,"self":true,"updatedAt":"16/06/2026 22:01:57"},{"type":"diesel","price":2,"self":true,"updatedAt":"16/06/2026 22:01:57"}]},{"id":"23677","lat":39.3071061806437,"lon":8.927152462565573,"name":"VILLASPECIOSA S.S 130 KM 19,140","brand":"Q8","address":"S.S 130 KM 19,140 - -, VILLASPECIOSA, SU","prices":[{"type":"petrol","price":1.817,"self":true,"updatedAt":"23/06/2026 07:40:34"},{"type":"diesel","price":1.887,"self":true,"updatedAt":"23/06/2026 07:40:34"}]}]