[{"id":"38482","lat":39.56175682848916,"lon":16.830215826630592,"name":"ldl area service","brand":"Q8","address":"Statale 106 Jonica, Km. 314+965, dir. sud - 87060, CALOPEZZATI, CS","prices":[{"type":"petrol","price":1.979,"self":true,"updatedAt":"26/06/2026 07:50:34"},{"type":"diesel","price":2.029,"self":true,"updatedAt":"26/06/2026 07:50:34"}]},{"id":"55626","lat":39.516419579707865,"lon":16.911762356758118,"name":"Easy Service - Cariati","brand":"Q8","address":"SS106 Ionica km 306+108 87062, CARIATI, CS","prices":[{"type":"petrol","price":1.839,"self":true,"updatedAt":"26/06/2026 23:50:45"},{"type":"diesel","price":1.919,"self":true,"updatedAt":"26/06/2026 23:50:45"},{"type":"lpg","price":0.819,"self":false,"updatedAt":"26/06/2026 23:50:45"}]},{"id":"30569","lat":39.57869846163163,"lon":16.76376074552536,"name":"ip gruppo api","brand":"Api-Ip","address":"Statale 531 di Cropalati, Km. 3+450, dir. mirto  87060, CROSIA, CS","prices":[{"type":"petrol","price":1.849,"self":true,"updatedAt":"20/06/2026 07:51:22"},{"type":"diesel","price":1.949,"self":true,"updatedAt":"20/06/2026 07:51:22"}]},{"id":"30568","lat":39.60502895918813,"lon":16.774733662605286,"name":"ip gruppo api","brand":"Api-Ip","address":"Statale 106 Jonica, Km. 322, dir. taranto  87060, CROSIA, CS","prices":[{"type":"petrol","price":1.849,"self":true,"updatedAt":"20/06/2026 07:51:00"},{"type":"diesel","price":1.949,"self":true,"updatedAt":"20/06/2026 07:51:00"}]},{"id":"52864","lat":39.59656911219343,"lon":16.768144816160202,"name":"RIFORNIMENTO AGIP DE VICO","brand":"Agip Eni","address":"Statale 531 di Cropalati, Km. 1, dir. NORD snc 87060, CROSIA, CS","prices":[{"type":"petrol","price":1.825,"self":true,"updatedAt":"27/06/2026 00:33:54"},{"type":"diesel","price":1.914,"self":true,"updatedAt":"27/06/2026 00:33:54"}]},{"id":"37199","lat":39.54769920235754,"lon":16.84851586818695,"name":"DISTRIBUTORE AGIP LINVEST SRL","brand":"Agip Eni","address":"Statale 106 Jonica, Km. 312, dir. SUD - 87060, PIETRAPAOLA, CS","prices":[{"type":"petrol","price":1.829,"self":true,"updatedAt":"26/06/2026 08:16:12"},{"type":"diesel","price":1.909,"self":true,"updatedAt":"26/06/2026 08:16:12"}]}]