[{"id":"38482","lat":39.56175682848916,"lon":16.830215826630592,"name":"ldl area service","brand":"Q8","address":"Statale 106 Jonica, Km. 314+965, dir. sud - 87060, CALOPEZZATI, CS","prices":[{"type":"petrol","price":1.979,"self":true,"updatedAt":"18/06/2026 07:53:42"},{"type":"diesel","price":2.029,"self":true,"updatedAt":"18/06/2026 07:53:42"}]},{"id":"55626","lat":39.516419579707865,"lon":16.911762356758118,"name":"Easy Service - Cariati","brand":"Q8","address":"SS106 Ionica km 306+108 87062, CARIATI, CS","prices":[{"type":"petrol","price":1.899,"self":true,"updatedAt":"21/06/2026 23:59:27"},{"type":"diesel","price":1.979,"self":true,"updatedAt":"21/06/2026 23:59:27"},{"type":"lpg","price":0.839,"self":false,"updatedAt":"21/06/2026 23:59:27"}]},{"id":"30569","lat":39.57869846163163,"lon":16.76376074552536,"name":"ip gruppo api","brand":"Api-Ip","address":"Statale 531 di Cropalati, Km. 3+450, dir. mirto  87060, CROSIA, CS","prices":[{"type":"petrol","price":1.849,"self":true,"updatedAt":"20/06/2026 07:51:22"},{"type":"diesel","price":1.949,"self":true,"updatedAt":"20/06/2026 07:51:22"}]},{"id":"30568","lat":39.60502895918813,"lon":16.774733662605286,"name":"ip gruppo api","brand":"Api-Ip","address":"Statale 106 Jonica, Km. 322, dir. taranto  87060, CROSIA, CS","prices":[{"type":"petrol","price":1.849,"self":true,"updatedAt":"20/06/2026 07:51:00"},{"type":"diesel","price":1.949,"self":true,"updatedAt":"20/06/2026 07:51:00"}]},{"id":"52864","lat":39.59656911219343,"lon":16.768144816160202,"name":"RIFORNIMENTO AGIP DE VICO","brand":"Agip Eni","address":"Statale 531 di Cropalati, Km. 1, dir. NORD snc 87060, CROSIA, CS","prices":[{"type":"petrol","price":1.845,"self":true,"updatedAt":"22/06/2026 00:35:20"},{"type":"diesel","price":1.944,"self":true,"updatedAt":"22/06/2026 00:35:20"}]},{"id":"37199","lat":39.54769920235754,"lon":16.84851586818695,"name":"DISTRIBUTORE AGIP LINVEST SRL","brand":"Agip Eni","address":"Statale 106 Jonica, Km. 312, dir. SUD - 87060, PIETRAPAOLA, CS","prices":[{"type":"petrol","price":1.83,"self":true,"updatedAt":"22/06/2026 07:44:18"},{"type":"diesel","price":1.919,"self":true,"updatedAt":"22/06/2026 07:44:18"}]}]