[{"id":"31010","lat":39.53675612320671,"lon":8.636841773986816,"name":"56077 Guspini","brand":"Agip Eni","address":"VIA MATTEOTTI 226 09036, CAGLIARI, CA","prices":[{"type":"petrol","price":1.829,"self":true,"updatedAt":"01/07/2026 00:19:58"},{"type":"diesel","price":1.884,"self":true,"updatedAt":"01/07/2026 00:19:58"}]},{"id":"46544","lat":39.668246746876,"lon":8.731355017888063,"name":"7579 Mogoro","brand":"Agip Eni","address":"131 Carlo Felice, Km. 63+300, Cagliari Sassari - 09095, MOGORO, OR","prices":[{"type":"petrol","price":1.829,"self":true,"updatedAt":"30/06/2026 00:26:37"},{"type":"diesel","price":1.889,"self":true,"updatedAt":"30/06/2026 00:26:37"}]},{"id":"61102","lat":39.662604713998896,"lon":8.735695942883032,"name":"Mogoro","brand":"Fiamma 2000","address":"S.S. 131 KM. 62,573  09095, MOGORO, OR","prices":[{"type":"petrol","price":1.837,"self":true,"updatedAt":"01/07/2026 00:31:12"},{"type":"diesel","price":1.897,"self":true,"updatedAt":"01/07/2026 00:31:12"},{"type":"lpg","price":0.799,"self":false,"updatedAt":"30/06/2026 23:18:50"}]},{"id":"35829","lat":39.68082516298911,"lon":8.649491157741522,"name":"murgia esso","brand":"Esso","address":"VIALE REPUBBLICA 164 09097, SAN NICOLÒ D'ARCIDANO, OR","prices":[{"type":"petrol","price":1.799,"self":true,"updatedAt":"30/06/2026 17:50:39"},{"type":"diesel","price":1.899,"self":true,"updatedAt":"30/06/2026 17:50:39"}]},{"id":"23021","lat":39.725716756511495,"lon":8.637914457672082,"name":"eni s.p.a. efisio angelo serra","brand":"Agip Eni","address":"VIA PORCELLA 180 09098, TERRALBA, OR","prices":[{"type":"petrol","price":1.824,"self":true,"updatedAt":"01/07/2026 00:41:43"},{"type":"diesel","price":1.884,"self":true,"updatedAt":"01/07/2026 00:41:43"}]},{"id":"58529","lat":39.72327846172841,"lon":8.636044387445654,"name":"TERRALBA - ISOLA GAS","brand":"ISOLA GAS","address":"Via Marceddi 16 09098, TERRALBA, OR","prices":[{"type":"petrol","price":1.819,"self":true,"updatedAt":"30/06/2026 07:12:02"},{"type":"diesel","price":1.879,"self":true,"updatedAt":"30/06/2026 07:12:02"}]},{"id":"19753","lat":39.724368670527554,"lon":8.638197657077853,"name":"TERRALBA SS. 126 KM. 112+887","brand":"Q8","address":"SS. 126 KM. 112+887  09098, TERRALBA, OR","prices":[{"type":"petrol","price":1.799,"self":true,"updatedAt":"01/07/2026 01:42:41"},{"type":"diesel","price":1.899,"self":true,"updatedAt":"01/07/2026 01:42:41"}]},{"id":"55533","lat":39.692722,"lon":8.701682,"name":"SAR01","brand":"Costantin","address":"SP 47 km 5.150  09099, URAS, OR","prices":[{"type":"petrol","price":1.796,"self":true,"updatedAt":"30/06/2026 23:14:40"}]},{"id":"8189","lat":39.52781976747373,"lon":8.606860041618347,"name":"fausto zuddas","brand":"Api-Ip","address":"Statale 126 Sud Occidentale Sarda, Km. 85,807, dir. guspini  09031, ARBUS, SU","prices":[{"type":"petrol","price":1.799,"self":true,"updatedAt":"27/06/2026 09:25:29"},{"type":"diesel","price":1.899,"self":true,"updatedAt":"27/06/2026 09:25:29"}]},{"id":"18999","lat":39.51869955281389,"lon":8.598356635581922,"name":"stazione di servizio IP","brand":"Api-Ip","address":"via Dante 125 09031, ARBUS, SU","prices":[{"type":"petrol","price":1.789,"self":true,"updatedAt":"29/06/2026 16:04:53"},{"type":"diesel","price":1.899,"self":true,"updatedAt":"29/06/2026 16:04:53"}]},{"id":"5766","lat":39.501583913482236,"lon":8.657313734292984,"name":"Impianto Eni Frongia Roberto","brand":"Agip Eni","address":"Via Nazionale Ex S.S.196 Km. 38.898 Gonnosfanadiga 166 09035, GONNOSFANADIGA, SU","prices":[{"type":"petrol","price":1.834,"self":true,"updatedAt":"01/07/2026 00:16:09"},{"type":"diesel","price":1.884,"self":true,"updatedAt":"01/07/2026 00:16:09"}]},{"id":"52246","lat":39.54226574200243,"lon":8.632597923278803,"name":"ESSO Guspini","brand":"Esso","address":"Via Gramsci  192 09036, GUSPINI, SU","prices":[{"type":"petrol","price":1.774,"self":true,"updatedAt":"30/06/2026 17:42:58"},{"type":"diesel","price":1.884,"self":true,"updatedAt":"30/06/2026 17:42:58"}]},{"id":"22856","lat":39.56574512167792,"lon":8.652767390012741,"name":"Fiamma 2000","brand":"Fiamma 2000","address":"S.S. 126 KM 94,410 SNC  09036, GUSPINI, SU","prices":[{"type":"petrol","price":1.799,"self":true,"updatedAt":"23/06/2026 10:29:25"},{"type":"diesel","price":1.889,"self":true,"updatedAt":"23/06/2026 10:29:25"},{"type":"lpg","price":0.859,"self":false,"updatedAt":"23/06/2026 10:29:25"}]},{"id":"6687","lat":39.54508253266339,"lon":8.63529915767208,"name":"GUSPINI S.S. 126 KM 1","brand":"Q8","address":"S.S. 126 KM 1 SNC 09036, GUSPINI, SU","prices":[{"type":"petrol","price":1.759,"self":true,"updatedAt":"01/07/2026 01:42:36"},{"type":"diesel","price":1.829,"self":true,"updatedAt":"01/07/2026 01:42:36"}]},{"id":"60281","lat":39.54649698641272,"lon":8.6364449843356,"name":"IP DAVIDE COLOMBOLI","brand":"Api-Ip","address":"SS 126 KM 91,861 SN 09036, GUSPINI, SU","prices":[{"type":"petrol","price":1.769,"self":true,"updatedAt":"26/06/2026 09:19:00"},{"type":"diesel","price":1.879,"self":true,"updatedAt":"26/06/2026 09:19:00"}]},{"id":"55856","lat":39.5962,"lon":8.71634,"name":"Distributore Q8 di Danilo Serpi","brand":"Q8","address":"via Antonio Gramsci s.n.c. 09030, PABILLONIS, SU","prices":[{"type":"petrol","price":1.779,"self":true,"updatedAt":"26/06/2026 18:39:22"},{"type":"diesel","price":1.869,"self":true,"updatedAt":"26/06/2026 18:39:22"}]}]