[{"id":"35331","lat":39.95303968518271,"lon":16.61847779774996,"name":"IP","brand":"Api-Ip","address":"106 Jonica, Km. 395, taranto - 87071, AMENDOLARA, CS","prices":[{"type":"petrol","price":1.929,"self":true,"updatedAt":"28/05/2026 15:42:12"},{"type":"diesel","price":2.029,"self":true,"updatedAt":"28/05/2026 15:42:12"}]},{"id":"56420","lat":39.93280820087599,"lon":16.601178646087646,"name":"Italiana Petroli S.p.a.","brand":"Api-Ip","address":"Viale Calabria 44 87071, AMENDOLARA, CS","prices":[{"type":"petrol","price":1.779,"self":true,"updatedAt":"22/06/2026 17:33:00"},{"type":"diesel","price":1.889,"self":true,"updatedAt":"22/06/2026 17:33:00"},{"type":"lpg","price":0.825,"self":false,"updatedAt":"22/06/2026 17:33:00"}]},{"id":"56419","lat":39.93280820087599,"lon":16.601178646087646,"name":"Italiana Petroli S.p.a.","brand":"Api-Ip","address":"Viale Calabria 44 87071, AMENDOLARA, CS","prices":[{"type":"petrol","price":1.799,"self":true,"updatedAt":"22/06/2026 17:32:22"},{"type":"diesel","price":1.909,"self":true,"updatedAt":"22/06/2026 17:32:22"}]},{"id":"11072","lat":39.970849834520834,"lon":16.620919058954655,"name":"tamoil rocco napoli","brand":"Tamoil","address":"Statale 106 Jonica, Km. 397+ 092, dir. reggio calabria - 87070, ROSETO CAPO SPULICO, CS","prices":[{"type":"petrol","price":1.819,"self":true,"updatedAt":"23/06/2026 00:21:06"},{"type":"diesel","price":1.899,"self":true,"updatedAt":"23/06/2026 00:21:06"}]},{"id":"28632","lat":39.87350769296242,"lon":16.5381883084774,"name":"ionica oil services sas","brand":"Agip Eni","address":"viale della libertà 316 87075, TREBISACCE, CS","prices":[{"type":"petrol","price":1.819,"self":true,"updatedAt":"23/06/2026 00:26:43"},{"type":"diesel","price":1.899,"self":true,"updatedAt":"23/06/2026 00:26:43"}]},{"id":"28497","lat":39.88344167038529,"lon":16.548023968935013,"name":"Q8","brand":"Q8","address":"Statale 106 Jonica, Km. 385+254, dir. nord - 87075, TREBISACCE, CS","prices":[{"type":"petrol","price":1.839,"self":true,"updatedAt":"20/06/2026 06:53:43"},{"type":"diesel","price":1.899,"self":true,"updatedAt":"20/06/2026 06:53:43"}]},{"id":"56609","lat":39.868856598839464,"lon":16.533589668273926,"name":"STAZIONE DI SERVIZIO ESSO DI BRUNO PIETRO & C. S.A.S","brand":"Esso","address":"ALFREDO LUTRI S.N. 87075, TREBISACCE, CS","prices":[{"type":"petrol","price":1.849,"self":true,"updatedAt":"17/06/2026 15:52:58"},{"type":"diesel","price":1.939,"self":true,"updatedAt":"17/06/2026 15:52:58"}]}]