[{"id":"47432","lat":40.062669951809326,"lon":17.99732342362404,"name":"Esso","brand":"Esso","address":"VIA LECCE 114 73014, GALLIPOLI, LE","prices":[{"type":"petrol","price":1.859,"self":true,"updatedAt":"20/06/2026 09:18:31"},{"type":"diesel","price":1.989,"self":true,"updatedAt":"20/06/2026 09:18:31"}]},{"id":"51265","lat":40.06424851054112,"lon":17.99928608447817,"name":"FEDELE FABRIZIO","brand":"Agip Eni","address":"VIA LECCE, SNC 73014, GALLIPOLI, LE","prices":[{"type":"petrol","price":1.829,"self":true,"updatedAt":"22/06/2026 00:51:03"},{"type":"diesel","price":1.919,"self":true,"updatedAt":"22/06/2026 00:51:03"}]},{"id":"42605","lat":40.06002459528904,"lon":17.994129263991113,"name":"IP","brand":"Api-Ip","address":"VIA LECCE S.N. 73014, GALLIPOLI, LE","prices":[{"type":"petrol","price":1.849,"self":true,"updatedAt":"19/06/2026 21:01:17"},{"type":"diesel","price":1.949,"self":true,"updatedAt":"19/06/2026 21:01:17"}]},{"id":"21983","lat":40.14539550180291,"lon":17.987294644117355,"name":"Ip - Stazione di Servizio","brand":"Api-Ip","address":"via Porto Selvaggio 1 - Santa Caterina frazione di Nardò 1 73050, NARDÒ, LE","prices":[{"type":"petrol","price":1.849,"self":false,"updatedAt":"19/06/2026 18:29:08"},{"type":"diesel","price":1.939,"self":false,"updatedAt":"19/06/2026 18:29:08"}]},{"id":"58407","lat":40.185,"lon":17.9717,"name":"PREITE PETROLI","brand":"Pompe Bianche","address":"SP112 SNC 73048, NARDÒ, LE","prices":[{"type":"petrol","price":1.899,"self":true,"updatedAt":"16/06/2026 10:26:40"},{"type":"diesel","price":1.989,"self":true,"updatedAt":"16/06/2026 10:26:40"}]},{"id":"53681","lat":40.12941745436036,"lon":17.994114990710386,"name":"Stazione di servizio Santa Maria al bagno","brand":"Pompe Bianche","address":"VIA LAMARMORA  73048, NARDÒ, LE","prices":[{"type":"petrol","price":1.829,"self":true,"updatedAt":"20/06/2026 07:14:21"},{"type":"diesel","price":1.917,"self":true,"updatedAt":"20/06/2026 07:14:21"}]}]