[{"id":"48270","lat":40.05165078459217,"lon":16.444157478052293,"name":"2948","brand":"Tamoil","address":"ROMA SS 481 KM 22+650 SN 87073, ORIOLO, CS","prices":[{"type":"petrol","price":1.789,"self":true,"updatedAt":"26/06/2026 23:53:09"},{"type":"diesel","price":1.869,"self":true,"updatedAt":"26/06/2026 23:53:09"}]},{"id":"25444","lat":40.20529018899553,"lon":16.483402848243713,"name":"IFLEM","brand":"Pompe Bianche","address":"SINNICA KM 64+500 snc 75021, COLOBRARO, MT","prices":[{"type":"petrol","price":1.809,"self":true,"updatedAt":"26/06/2026 21:27:40"},{"type":"diesel","price":1.867,"self":true,"updatedAt":"26/06/2026 21:27:40"},{"type":"methane","price":1.578,"self":false,"updatedAt":"26/06/2026 21:27:40"},{"type":"lpg","price":0.727,"self":false,"updatedAt":"26/06/2026 21:27:40"}]},{"id":"32561","lat":40.11009336505713,"lon":16.387901818735827,"name":"distributore carburante Panio","brand":"Pompe Bianche","address":"VIALE IV NOVEMBRE 20 75027, SAN GIORGIO LUCANO, MT","prices":[{"type":"petrol","price":1.875,"self":true,"updatedAt":"23/06/2026 13:27:02"},{"type":"diesel","price":2.229,"self":true,"updatedAt":"23/06/2026 13:27:02"}]},{"id":"61373","lat":40.24876058443288,"lon":16.493429326389293,"name":"Tursi Station","brand":"Pompe Bianche","address":"Località Ponte Masone, Tursi, MT, Italia - SP 152 SP 152 75028, TURSI, MT","prices":[{"type":"petrol","price":1.879,"self":true,"updatedAt":"25/06/2026 16:14:26"},{"type":"diesel","price":1.949,"self":true,"updatedAt":"25/06/2026 16:14:26"}]},{"id":"18914","lat":40.17535457703923,"lon":16.444950699806213,"name":"staz.di servizio Totalerg di Liguori Francesco","brand":"Api-Ip","address":"Viale della pineta ex prol.via salomone 24 75029, VALSINNI, MT","prices":[{"type":"petrol","price":1.909,"self":true,"updatedAt":"27/06/2026 06:18:47"},{"type":"diesel","price":1.99,"self":true,"updatedAt":"27/06/2026 06:18:47"}]},{"id":"60466","lat":40.04650389729492,"lon":16.348470963909534,"name":"Di Giura Carburanti","brand":"Pompe Bianche","address":"DELL'UNITA' SNC 85030, CERSOSIMO, PZ","prices":[{"type":"petrol","price":2.1,"self":true,"updatedAt":"26/06/2026 23:33:29"},{"type":"diesel","price":2.3,"self":true,"updatedAt":"26/06/2026 23:33:29"}]},{"id":"54475","lat":40.0457728,"lon":16.252928,"name":"IP DI ENFIL DI LUFRANO FILOMENA & C.S.A.S.","brand":"Api-Ip","address":"VITTORIO VENETO 112 85030, SAN COSTANTINO ALBANESE, PZ","prices":[{"type":"petrol","price":1.859,"self":true,"updatedAt":"22/06/2026 19:49:50"},{"type":"diesel","price":1.959,"self":true,"updatedAt":"22/06/2026 19:49:50"}]},{"id":"32623","lat":40.13943875438431,"lon":16.31069946762352,"name":"AREA DI SERVIZIO MARINO GENNARO","brand":"Esso","address":"Statale 653 della Valle del Sinni, Km. 437.00, dir. SENISE - 85038, SENISE, PZ","prices":[{"type":"petrol","price":1.839,"self":true,"updatedAt":"26/06/2026 16:23:18"},{"type":"diesel","price":1.929,"self":true,"updatedAt":"26/06/2026 16:23:18"},{"type":"lpg","price":0.779,"self":false,"updatedAt":"26/06/2026 16:23:18"}]},{"id":"48826","lat":40.10550969092352,"lon":16.26802545767211,"name":"AUTOGRIL SIRIS","brand":"Api-Ip","address":"653 della Valle del Sinni, Km. 38+100, SUD - 85038, SENISE, PZ","prices":[{"type":"petrol","price":1.849,"self":true,"updatedAt":"26/06/2026 09:41:15"},{"type":"diesel","price":1.949,"self":true,"updatedAt":"26/06/2026 09:41:15"},{"type":"lpg","price":0.859,"self":true,"updatedAt":"26/06/2026 09:41:15"}]},{"id":"32636","lat":40.14030020439375,"lon":16.298508569276805,"name":"DISTRIBUTORE Fenice","brand":"Ies","address":"CONTRADA SERVINO SNC 85038, SENISE, PZ","prices":[{"type":"petrol","price":1.998,"self":true,"updatedAt":"24/06/2026 09:17:14"},{"type":"diesel","price":2.069,"self":true,"updatedAt":"24/06/2026 09:17:14"}]},{"id":"19291","lat":40.13514989999999,"lon":16.3104109,"name":"Sinnica Carburanti","brand":"Agip Eni","address":"SINNICA 653 KM.43,600 SNC 85038, SENISE, PZ","prices":[{"type":"petrol","price":1.829,"self":true,"updatedAt":"27/06/2026 00:11:54"},{"type":"diesel","price":1.909,"self":true,"updatedAt":"27/06/2026 00:11:54"}]}]