[{"id":"54349","lat":40.23031,"lon":8.782883,"name":"56438 Borore","brand":"Agip Eni","address":"SS131, BORORE, NU","prices":[{"type":"petrol","price":1.829,"self":true,"updatedAt":"25/06/2026 01:05:58"},{"type":"diesel","price":1.909,"self":true,"updatedAt":"25/06/2026 01:05:58"}]},{"id":"54467","lat":40.22995380128997,"lon":8.783746295700823,"name":"Q8","brand":"Q8","address":"S.S. 131 Km 137,062  lato est - Borore (NU)  08016, BORORE, NU","prices":[{"type":"petrol","price":1.849,"self":true,"updatedAt":"24/06/2026 06:03:00"},{"type":"diesel","price":1.919,"self":true,"updatedAt":"24/06/2026 06:03:00"},{"type":"lpg","price":0.898,"self":false,"updatedAt":"24/06/2026 06:03:00"}]},{"id":"56115","lat":40.11024,"lon":8.79256,"name":"PV 7728","brand":"Agip Eni","address":"S.S. 131 LATO EST KM.122.7 09071, ABBASANTA, OR","prices":[{"type":"petrol","price":1.835,"self":true,"updatedAt":"25/06/2026 00:14:10"},{"type":"diesel","price":1.904,"self":true,"updatedAt":"25/06/2026 00:14:10"}]},{"id":"56116","lat":40.11024,"lon":8.79256,"name":"PV7729","brand":"Agip Eni","address":"S.S. 131 LATO OVEST KM 122,7 09071, ABBASANTA, OR","prices":[{"type":"petrol","price":1.835,"self":true,"updatedAt":"25/06/2026 01:06:24"},{"type":"diesel","price":1.904,"self":true,"updatedAt":"25/06/2026 01:06:24"},{"type":"lpg","price":0.762,"self":false,"updatedAt":"25/06/2026 01:06:24"}]},{"id":"16372","lat":40.12970923284904,"lon":8.81028950214386,"name":"Q8 ABBASANTA","brand":"Q8","address":"VIA SANT'AGOSTINO S.N.C. 09071, ABBASANTA, OR","prices":[{"type":"petrol","price":1.849,"self":true,"updatedAt":"24/06/2026 10:07:15"},{"type":"diesel","price":1.939,"self":true,"updatedAt":"24/06/2026 10:07:15"}]},{"id":"52695","lat":40.12558,"lon":8.842672,"name":"agip- eni 07631","brand":"Agip Eni","address":"strada provinciale per Sorgono via del mandrolisai  2 09074, GHILARZA, OR","prices":[{"type":"petrol","price":1.824,"self":true,"updatedAt":"25/06/2026 01:06:14"},{"type":"diesel","price":1.914,"self":true,"updatedAt":"25/06/2026 01:06:14"}]},{"id":"47714","lat":40.12166779589824,"lon":8.855854110450743,"name":"FPcarburanti","brand":"Pompe Bianche","address":"S.P.15 snc 09074, GHILARZA, OR","prices":[{"type":"petrol","price":1.827,"self":true,"updatedAt":"20/06/2026 07:43:45"},{"type":"diesel","price":1.917,"self":true,"updatedAt":"20/06/2026 07:43:45"},{"type":"lpg","price":0.839,"self":false,"updatedAt":"20/06/2026 07:43:45"}]},{"id":"57255","lat":40.06595,"lon":8.9477,"name":"Tamoil Neoneli di Flore Fabiano","brand":"Tamoil","address":"Via Roma  09080, NEONELI, OR","prices":[{"type":"petrol","price":1.789,"self":true,"updatedAt":"24/06/2026 23:35:44"},{"type":"diesel","price":1.919,"self":true,"updatedAt":"24/06/2026 23:35:44"}]},{"id":"37540","lat":40.08961260504121,"lon":8.76863345503807,"name":"distributore tamoil mellai","brand":"Tamoil","address":"via nazionale, piano terra S.N. 09070, PAULILATINO, OR","prices":[{"type":"petrol","price":1.799,"self":true,"updatedAt":"24/06/2026 23:42:41"},{"type":"diesel","price":1.919,"self":true,"updatedAt":"24/06/2026 23:42:41"}]},{"id":"55044","lat":40.17149686463873,"lon":8.930331063774103,"name":"MM Self 24","brand":"Pompe Bianche","address":"VIALE MARTIRI DELLA LIBERTA' SN 09076, SEDILO (OR) SN 09076, SEDILO, OR","prices":[{"type":"petrol","price":1.869,"self":true,"updatedAt":"22/06/2026 17:13:11"},{"type":"diesel","price":1.969,"self":true,"updatedAt":"22/06/2026 17:13:11"}]},{"id":"4049","lat":40.19091720389931,"lon":8.979888260364532,"name":"SEDILO","brand":"Fiamma 2000","address":"S.S. 131 D.C.N.  KM 19,100  09076, SEDILO, OR","prices":[{"type":"petrol","price":1.789,"self":true,"updatedAt":"25/06/2026 01:20:10"},{"type":"diesel","price":1.889,"self":true,"updatedAt":"25/06/2026 01:20:10"},{"type":"lpg","price":0.749,"self":true,"updatedAt":"25/06/2026 01:20:10"}]}]