[{"id":"53478","lat":40.115777275273565,"lon":9.256636579322821,"name":"CUGUSI PAOLO","brand":"Api-Ip","address":"UMBERTO 85 08023, FONNI, NU","prices":[{"type":"petrol","price":1.989,"self":true,"updatedAt":"26/06/2026 19:01:43"},{"type":"diesel","price":2.069,"self":true,"updatedAt":"26/06/2026 19:01:43"}]},{"id":"4151","lat":40.113734833078084,"lon":9.257653802633286,"name":"Stazione di rifornimento ESSO Coinu Carmelo","brand":"Esso","address":"VIA UMBERTO SS 389 KM . 133,085 117 08023, FONNI, NU","prices":[{"type":"petrol","price":1.986,"self":true,"updatedAt":"26/06/2026 17:56:33"},{"type":"diesel","price":2.086,"self":true,"updatedAt":"26/06/2026 17:56:33"}]},{"id":"28600","lat":40.17197809815431,"lon":9.299403727054596,"name":"BREAK POINT","brand":"Api-Ip","address":"Statale 389 di Budduso' e del Correboi, Km. 22, dir. LANUSEI - 08024, MAMOIADA, NU","prices":[{"type":"petrol","price":1.817,"self":true,"updatedAt":"25/06/2026 18:58:03"},{"type":"diesel","price":1.878,"self":true,"updatedAt":"25/06/2026 18:58:03"},{"type":"lpg","price":0.978,"self":false,"updatedAt":"25/06/2026 18:58:03"}]},{"id":"24644","lat":40.21888021921053,"lon":9.279783368110657,"name":"Distributore ESSO Balia Antonio","brand":"Esso","address":"Statale 389 di Budduso' e del Correboi, Km. 115, dir. Nuoro - 08024, MAMOIADA, NU","prices":[{"type":"petrol","price":1.829,"self":true,"updatedAt":"27/06/2026 06:56:21"},{"type":"diesel","price":1.909,"self":true,"updatedAt":"27/06/2026 06:56:21"}]},{"id":"37120","lat":40.20605197646375,"lon":9.351236296382012,"name":"STAZIONE ESSO RUBANU GIOVANNA ASSUNTA","brand":"Esso","address":"VIA NUORO 40 08027, ORGOSOLO, NU","prices":[{"type":"petrol","price":1.849,"self":true,"updatedAt":"25/06/2026 22:44:34"},{"type":"diesel","price":1.949,"self":true,"updatedAt":"25/06/2026 22:44:34"}]}]