[{"id":"23502","lat":40.44273176285596,"lon":15.256151870344297,"name":"AMENDOLA GIOVANNI","brand":"Api-Ip","address":"SP44  84020, AQUARA, SA","prices":[{"type":"petrol","price":1.892,"self":true,"updatedAt":"18/06/2026 07:09:09"},{"type":"diesel","price":1.899,"self":true,"updatedAt":"18/06/2026 07:09:09"}]},{"id":"58653","lat":40.418879231992484,"lon":15.310020533316026,"name":"R.CARBURANTI S.R.L.-BELLOSGUARDO","brand":"Pompe Bianche","address":"TUFOLO SNC 84020, BELLOSGUARDO, SA","prices":[{"type":"petrol","price":1.849,"self":true,"updatedAt":"16/06/2026 22:21:54"},{"type":"diesel","price":1.929,"self":true,"updatedAt":"16/06/2026 22:21:54"}]},{"id":"52420","lat":40.339793749467184,"lon":15.339108109474182,"name":"Top Station","brand":"Api-Ip","address":"PROVINCIALE SALA CONSILINA SNC 84057, LAURINO, SA","prices":[{"type":"petrol","price":1.929,"self":false,"updatedAt":"19/06/2026 10:15:07"},{"type":"diesel","price":2.059,"self":false,"updatedAt":"19/06/2026 10:15:07"}]},{"id":"58652","lat":40.34986695266896,"lon":15.374169544116224,"name":"R-CARBURANTI S.R.L.-PIAGGINE","brand":"Pompe Bianche","address":"MADONNA DELLE GRAZIE SNC 84065, PIAGGINE, SA","prices":[{"type":"petrol","price":1.899,"self":true,"updatedAt":"16/06/2026 22:21:37"},{"type":"diesel","price":1.979,"self":true,"updatedAt":"16/06/2026 22:21:37"}]},{"id":"24380","lat":40.450115240535425,"lon":15.36055013524117,"name":"DITTA GRECO CARMELA","brand":"Pompe Bianche","address":"GRCCML56L46I278T 12 84027, SANT'ANGELO A FASANELLA, SA","prices":[{"type":"petrol","price":1.964,"self":true,"updatedAt":"15/06/2026 09:31:47"},{"type":"diesel","price":2.105,"self":true,"updatedAt":"15/06/2026 09:31:47"}]},{"id":"15220","lat":40.4693853119944,"lon":15.482546589638787,"name":"IP","brand":"Api-Ip","address":"PIAZZA EUROPA  84037, SANT'ARSENIO, SA","prices":[{"type":"petrol","price":1.899,"self":true,"updatedAt":"18/06/2026 10:11:51"},{"type":"diesel","price":1.989,"self":true,"updatedAt":"18/06/2026 10:11:51"}]}]