[{"id":"23394","lat":40.47570072146379,"lon":17.973949313163757,"name":"Cellino San Marco","brand":"Api-Ip","address":"Via San Pietro Vernotico, CELLINO SAN MARCO, BR","prices":[{"type":"petrol","price":1.792,"self":true,"updatedAt":"29/06/2026 09:13:02"},{"type":"diesel","price":1.879,"self":true,"updatedAt":"29/06/2026 09:13:02"}]},{"id":"6760","lat":40.47358587636572,"lon":17.96970282023767,"name":"CELLINO SAN MARCO VIA S PIETRO VERNOTICO","brand":"Q8","address":"VIA S PIETRO VERNOTICO SNC 72020, CELLINO SAN MARCO, BR","prices":[{"type":"petrol","price":1.789,"self":true,"updatedAt":"29/06/2026 18:04:23"},{"type":"diesel","price":1.879,"self":true,"updatedAt":"29/06/2026 18:04:23"}]},{"id":"46074","lat":40.467832158745814,"lon":17.958338562276708,"name":"M.F. CARBURANTI CELLINO SAN MARCO","brand":"MF CARBURANTI","address":"VIA PER SAN DONACI SN 72020, CELLINO SAN MARCO, BR","prices":[{"type":"petrol","price":1.815,"self":true,"updatedAt":"29/06/2026 19:00:51"},{"type":"diesel","price":1.865,"self":true,"updatedAt":"29/06/2026 19:00:51"}]},{"id":"49251","lat":40.47867012607465,"lon":17.981270093254093,"name":"MENGA PETROLI","brand":"Menga petroli","address":"S.P. 75 PER SAN PIETRO VERNOTICO   72020, CELLINO SAN MARCO, BR","prices":[{"type":"petrol","price":1.809,"self":true,"updatedAt":"29/06/2026 10:52:17"},{"type":"diesel","price":1.889,"self":true,"updatedAt":"29/06/2026 10:52:17"},{"type":"methane","price":1.649,"self":false,"updatedAt":"29/06/2026 10:52:17"}]},{"id":"52466","lat":40.455269227572096,"lon":17.921816356965522,"name":"luifra srls","brand":"Api-Ip","address":"VIA TUTURANO 22 72025, SAN DONACI, BR","prices":[{"type":"petrol","price":1.949,"self":true,"updatedAt":"29/06/2026 11:59:28"},{"type":"diesel","price":1.999,"self":true,"updatedAt":"29/06/2026 11:59:28"}]},{"id":"52465","lat":40.455269227572096,"lon":17.921816356965522,"name":"luifra srls","brand":"Api-Ip","address":"VIA TUTURANO 22 72025, SAN DONACI, BR","prices":[{"type":"petrol","price":1.802,"self":true,"updatedAt":"29/06/2026 11:59:16"},{"type":"diesel","price":1.889,"self":true,"updatedAt":"29/06/2026 11:59:16"},{"type":"lpg","price":0.765,"self":true,"updatedAt":"29/06/2026 11:59:16"}]},{"id":"58999","lat":40.45421081776598,"lon":17.91625902056694,"name":"TOIL SPA","brand":"Toil","address":"VIA PER MESAGNE 1 72025, SAN DONACI, BR","prices":[{"type":"petrol","price":1.939,"self":true,"updatedAt":"29/06/2026 12:04:04"},{"type":"diesel","price":1.949,"self":true,"updatedAt":"29/06/2026 12:04:04"}]},{"id":"38280","lat":40.449083936773164,"lon":17.925131767988205,"name":"totalerg","brand":"Api-Ip","address":"VIA CELLINO SAN MARCO 0 72025, SAN DONACI, BR","prices":[{"type":"petrol","price":1.802,"self":true,"updatedAt":"29/06/2026 12:02:30"},{"type":"diesel","price":1.889,"self":true,"updatedAt":"29/06/2026 12:02:30"}]},{"id":"16818","lat":40.416438380476976,"lon":17.845419198274612,"name":"AGIP CAR S.N.C.","brand":"Agip Eni","address":"VIA LECCE 10, SAN PANCRAZIO SALENTINO, BR","prices":[{"type":"petrol","price":1.829,"self":true,"updatedAt":"29/06/2026 23:31:57"},{"type":"diesel","price":1.889,"self":true,"updatedAt":"29/06/2026 18:40:10"}]},{"id":"8404","lat":40.41808266419241,"lon":17.830923199653625,"name":"ENI PV 09207","brand":"Agip Eni","address":"VIA TARANTO 54 72026, SAN PANCRAZIO SALENTINO, BR","prices":[{"type":"petrol","price":1.829,"self":true,"updatedAt":"30/06/2026 00:26:13"},{"type":"diesel","price":1.889,"self":true,"updatedAt":"30/06/2026 00:26:13"}]},{"id":"52337","lat":40.41017508459243,"lon":17.83560302331354,"name":"MENGA PETROLI - SAN PANCRAZIO EX MP","brand":"Menga petroli","address":"VIA DEI GAROFANI SNC 72026, SAN PANCRAZIO SALENTINO, BR","prices":[{"type":"petrol","price":1.809,"self":true,"updatedAt":"29/06/2026 10:54:41"},{"type":"diesel","price":1.889,"self":true,"updatedAt":"29/06/2026 10:54:41"},{"type":"lpg","price":0.779,"self":false,"updatedAt":"29/06/2026 10:54:41"}]},{"id":"49317","lat":40.431297833380455,"lon":17.839744906745864,"name":"MENGA PETROLI - SAN PANCRAZIO SALENTINO","brand":"Menga petroli","address":"SP74 S.PANCRAZIO-MESAGNEKM1.15 SNC 72026, SAN PANCRAZIO SALENTINO, BR","prices":[{"type":"petrol","price":1.809,"self":true,"updatedAt":"29/06/2026 10:52:29"},{"type":"diesel","price":1.889,"self":true,"updatedAt":"29/06/2026 10:52:29"},{"type":"methane","price":1.649,"self":false,"updatedAt":"29/06/2026 10:52:29"},{"type":"lpg","price":0.779,"self":false,"updatedAt":"29/06/2026 10:52:29"}]},{"id":"59335","lat":40.42139794166098,"lon":17.849459641452043,"name":"TOIL133 - BENELI S.R.L.","brand":"Toil","address":"Via S. Donaci 188 72026, SAN PANCRAZIO SALENTINO, BR","prices":[{"type":"petrol","price":1.809,"self":true,"updatedAt":"25/06/2026 14:25:21"},{"type":"diesel","price":1.889,"self":true,"updatedAt":"25/06/2026 14:25:21"}]},{"id":"39054","lat":40.49754291082498,"lon":17.99444206058979,"name":"8358","brand":"Tamoil","address":"BRINDISI SNC 72027, SAN PIETRO VERNOTICO, BR","prices":[{"type":"petrol","price":1.769,"self":true,"updatedAt":"29/06/2026 12:36:08"},{"type":"diesel","price":1.849,"self":true,"updatedAt":"29/06/2026 12:36:07"}]},{"id":"43081","lat":40.49355413494659,"lon":17.989902450861337,"name":"Easy Service, San Pietro Vernotico","brand":"Energas","address":"S.S. 16 KM 932+248 S.N.C. 72027, SAN PIETRO VERNOTICO, BR","prices":[{"type":"petrol","price":1.789,"self":true,"updatedAt":"30/06/2026 00:21:34"},{"type":"diesel","price":1.879,"self":true,"updatedAt":"30/06/2026 00:21:34"}]},{"id":"42243","lat":40.499253932934444,"lon":17.99364982209022,"name":"Eni Station di Madel SAS","brand":"Agip Eni","address":"16 Adriatica, Km. 931/800, Brindisi - 72027, SAN PIETRO VERNOTICO, BR","prices":[{"type":"petrol","price":1.784,"self":true,"updatedAt":"29/06/2026 23:17:04"},{"type":"diesel","price":1.829,"self":true,"updatedAt":"29/06/2026 23:17:04"}]},{"id":"7498","lat":40.49515449715354,"lon":17.995165944180258,"name":"SAN PIETRO VERNOTICO VIA BRINDISI, 246","brand":"Q8","address":"VIA BRINDISI 246 72027, SAN PIETRO VERNOTICO, BR","prices":[{"type":"petrol","price":1.779,"self":true,"updatedAt":"29/06/2026 18:04:20"},{"type":"diesel","price":1.829,"self":true,"updatedAt":"29/06/2026 18:04:20"}]},{"id":"34130","lat":40.40085812670345,"lon":17.94675095083005,"name":"ip","brand":"Api-Ip","address":"Statale 7 ter Salentina, Km. 49+630, dir. guagnano - 73010, GUAGNANO, LE","prices":[{"type":"petrol","price":1.799,"self":true,"updatedAt":"28/06/2026 12:45:26"},{"type":"diesel","price":1.899,"self":true,"updatedAt":"28/06/2026 12:45:26"},{"type":"lpg","price":0.749,"self":false,"updatedAt":"28/06/2026 12:45:26"}]},{"id":"49105","lat":40.40085174482839,"lon":17.946771309205246,"name":"IP","brand":"Api-Ip","address":"7 ter Salentina, Km. 60, taranto - 73010, GUAGNANO, LE","prices":[{"type":"petrol","price":1.879,"self":true,"updatedAt":"29/06/2026 06:49:03"},{"type":"diesel","price":1.999,"self":true,"updatedAt":"29/06/2026 06:49:03"}]},{"id":"40478","lat":40.289320076129066,"lon":17.98789518643798,"name":"CAGNAZZO CARBURANTI SNC","brand":"Api-Ip","address":"VIA PORTO CESAREO SN 73045, LEVERANO, LE","prices":[{"type":"petrol","price":1.819,"self":true,"updatedAt":"24/06/2026 11:08:57"},{"type":"diesel","price":1.899,"self":true,"updatedAt":"24/06/2026 11:08:57"}]},{"id":"40280","lat":40.281653745844764,"lon":17.958272153924536,"name":"CARRIERO ENERGY - LEVERANO","brand":"Carriero Energy","address":"sp 21,  km3 SNC 73045, LEVERANO, LE","prices":[{"type":"petrol","price":1.819,"self":true,"updatedAt":"24/06/2026 11:17:42"},{"type":"diesel","price":1.889,"self":true,"updatedAt":"24/06/2026 11:17:42"},{"type":"lpg","price":0.739,"self":false,"updatedAt":"24/06/2026 11:17:42"}]},{"id":"45303","lat":40.289536397625575,"lon":17.99375744811391,"name":"CONVERSANO","brand":"Pompe Bianche","address":"VIA CESAREA, SNC 73045, LEVERANO, LE","prices":[{"type":"petrol","price":1.799,"self":true,"updatedAt":"29/06/2026 13:21:34"},{"type":"diesel","price":1.869,"self":true,"updatedAt":"29/06/2026 13:21:34"}]},{"id":"40481","lat":40.298545803758294,"lon":17.99457550048828,"name":"TOIL","brand":"Toil","address":"Prov. Leverano-Veglie Sn 73045, LEVERANO, LE","prices":[{"type":"petrol","price":1.799,"self":true,"updatedAt":"29/06/2026 23:28:40"},{"type":"diesel","price":1.879,"self":true,"updatedAt":"29/06/2026 23:28:40"}]},{"id":"45687","lat":40.2968331644285,"lon":17.85619579430511,"name":"CONVERSANO PV NARDO'","brand":"Pompe Bianche","address":"SP VEGLIE SAN PANGRAZIO LOC BONCORE SNC 73048, NARDÒ, LE","prices":[{"type":"petrol","price":1.829,"self":true,"updatedAt":"29/06/2026 13:21:44"},{"type":"diesel","price":1.929,"self":true,"updatedAt":"29/06/2026 13:21:44"}]},{"id":"46131","lat":40.29401856247544,"lon":17.859458550810814,"name":"STAZIONE DI SERVIZIO Q8","brand":"Q8","address":"S.P 359  SN 73050, NARDÒ, LE","prices":[{"type":"petrol","price":1.829,"self":true,"updatedAt":"29/06/2026 08:13:41"},{"type":"diesel","price":1.929,"self":true,"updatedAt":"29/06/2026 08:13:41"},{"type":"lpg","price":0.829,"self":false,"updatedAt":"29/06/2026 08:13:41"}]},{"id":"53909","lat":40.25820059657842,"lon":17.89331048510514,"name":"CAMER P.TO CESAREO","brand":"Camer","address":"Via Silvio Pellico SNC 73010, PORTO CESAREO, LE","prices":[{"type":"petrol","price":1.814,"self":true,"updatedAt":"29/06/2026 10:45:08"},{"type":"diesel","price":1.898,"self":true,"updatedAt":"29/06/2026 10:45:08"}]},{"id":"29583","lat":40.26245794164504,"lon":17.89918371761246,"name":"IP","brand":"Api-Ip","address":"VIA GARIBALDI 236 73010, PORTO CESAREO, LE","prices":[{"type":"petrol","price":1.839,"self":true,"updatedAt":"27/06/2026 15:49:41"},{"type":"diesel","price":1.919,"self":true,"updatedAt":"27/06/2026 15:49:41"}]},{"id":"40982","lat":40.261536455632964,"lon":17.896854221478407,"name":"Ip","brand":"Api-Ip","address":"VIA GARIBALDI 159 73010, PORTO CESAREO, LE","prices":[{"type":"petrol","price":1.839,"self":true,"updatedAt":"26/06/2026 20:33:01"},{"type":"diesel","price":1.919,"self":true,"updatedAt":"26/06/2026 20:33:01"}]},{"id":"58818","lat":40.2878751,"lon":17.848967,"name":"STAZIONE DI SERVIZIO Q8","brand":"Q8","address":"Via Torre Lapillo  73010, PORTO CESAREO, LE","prices":[{"type":"petrol","price":1.869,"self":true,"updatedAt":"29/06/2026 06:33:35"},{"type":"diesel","price":1.949,"self":true,"updatedAt":"29/06/2026 06:33:35"}]},{"id":"47831","lat":40.400183019138915,"lon":17.975457066214847,"name":"Esso di Maurizio Presta","brand":"Esso","address":"7 ter Salentina, Km. 53,200, lecce  73043, SALICE SALENTINO, LE","prices":[{"type":"petrol","price":1.839,"self":true,"updatedAt":"29/06/2026 06:48:55"},{"type":"diesel","price":1.939,"self":true,"updatedAt":"29/06/2026 06:48:55"}]},{"id":"48976","lat":40.39317348331303,"lon":17.968972208815867,"name":"MENGA PETROLI","brand":"Menga petroli","address":"S.P. 17 SALICE - S.VITO (TRATTO INTERNO) SNC  73015, SALICE SALENTINO, LE","prices":[{"type":"petrol","price":1.809,"self":true,"updatedAt":"29/06/2026 10:52:09"},{"type":"diesel","price":1.889,"self":true,"updatedAt":"29/06/2026 10:52:09"}]},{"id":"52617","lat":40.392931186443114,"lon":17.956719038028726,"name":"MENGA PETROLI","brand":"Menga petroli","address":"VESCOVO FAGGIANO SNC 72013, SALICE SALENTINO, LE","prices":[{"type":"petrol","price":1.809,"self":true,"updatedAt":"29/06/2026 10:54:48"},{"type":"diesel","price":1.889,"self":true,"updatedAt":"29/06/2026 10:54:48"}]},{"id":"40251","lat":40.388071000123,"lon":17.956728000123,"name":"Re-Energy Salice","brand":"Pompe Bianche","address":"VIA PIETRO NENNI 6 73015, SALICE SALENTINO, LE","prices":[{"type":"petrol","price":1.799,"self":true,"updatedAt":"24/06/2026 13:08:25"},{"type":"diesel","price":1.899,"self":true,"updatedAt":"24/06/2026 13:08:25"}]},{"id":"21666","lat":40.37543,"lon":17.96705,"name":"TOIL SALICE SALENTINO","brand":"Toil","address":"via sp 17 veglie  73015, SALICE SALENTINO, LE","prices":[{"type":"petrol","price":1.799,"self":true,"updatedAt":"29/06/2026 23:47:33"},{"type":"diesel","price":1.879,"self":true,"updatedAt":"29/06/2026 23:47:33"},{"type":"lpg","price":0.699,"self":false,"updatedAt":"29/06/2026 23:47:33"}]},{"id":"57916","lat":40.33637,"lon":17.94183,"name":"APRON VEGLIE","brand":"Pompe Bianche","address":"Circonvallazione di Veglie SNC 73010, VEGLIE, LE","prices":[{"type":"petrol","price":1.769,"self":true,"updatedAt":"26/06/2026 05:50:59"},{"type":"diesel","price":1.849,"self":true,"updatedAt":"26/06/2026 05:50:59"},{"type":"lpg","price":0.689,"self":false,"updatedAt":"26/06/2026 05:50:59"}]},{"id":"58926","lat":40.34135,"lon":17.97914,"name":"APRON VEGLIE PARCHEGGI","brand":"Pompe Bianche","address":"STRADA PROV.LE 370 LOC. CACCIATORE VIA CIRCONVALLAZIONE   73010, VEGLIE, LE","prices":[{"type":"petrol","price":1.769,"self":true,"updatedAt":"26/06/2026 05:51:34"},{"type":"diesel","price":1.849,"self":true,"updatedAt":"26/06/2026 05:51:34"}]},{"id":"55413","lat":40.33374836283291,"lon":17.960280322322493,"name":"BUCCARELLA CARBURANTI","brand":"Pompe Bianche","address":"BOSCO SN 73010, VEGLIE, LE","prices":[{"type":"petrol","price":1.789,"self":true,"updatedAt":"29/06/2026 11:10:36"},{"type":"diesel","price":1.879,"self":true,"updatedAt":"29/06/2026 11:10:36"}]},{"id":"52520","lat":40.334015070255255,"lon":17.962816283318908,"name":"eni","brand":"Agip Eni","address":"VIA BOSCO  73010, VEGLIE, LE","prices":[{"type":"petrol","price":1.789,"self":true,"updatedAt":"29/06/2026 23:29:06"},{"type":"diesel","price":1.834,"self":true,"updatedAt":"29/06/2026 23:29:06"}]},{"id":"62405","lat":40.33706732205093,"lon":17.969996571025074,"name":"IP","brand":"Api-Ip","address":"SANTA MARIA SNC 73010, VEGLIE, LE","prices":[{"type":"petrol","price":1.799,"self":true,"updatedAt":"22/06/2026 21:03:15"},{"type":"diesel","price":1.919,"self":true,"updatedAt":"22/06/2026 21:03:15"}]},{"id":"38281","lat":40.33815746852412,"lon":17.959197100624806,"name":"IP Italiana Petroli","brand":"Api-Ip","address":"VIA MONTERUGA 13 73010, VEGLIE, LE","prices":[{"type":"petrol","price":1.799,"self":true,"updatedAt":"27/06/2026 14:16:49"},{"type":"diesel","price":1.899,"self":true,"updatedAt":"27/06/2026 14:16:49"}]},{"id":"52398","lat":40.32153461574767,"lon":17.97806849352857,"name":"TOIL VEGLIE","brand":"Agip Eni","address":"VIA PROV.LE VEGLIE LIVERANO SNC 73010, VEGLIE, LE","prices":[{"type":"petrol","price":1.819,"self":true,"updatedAt":"29/06/2026 23:45:31"},{"type":"diesel","price":1.879,"self":true,"updatedAt":"29/06/2026 09:44:06"},{"type":"lpg","price":0.699,"self":false,"updatedAt":"29/06/2026 23:45:31"}]}]