[{"id":"9595","lat":40.7286529,"lon":14.4870058,"name":"CASCONE SAS - CASTELLAMMARE DI STABIA","brand":"Pompe Bianche","address":"S.da Ponte della Persica 100, CASTELLAMMARE DI STABIA, NA","prices":[{"type":"petrol","price":1.849,"self":true,"updatedAt":"24/06/2026 00:24:33"},{"type":"diesel","price":1.869,"self":true,"updatedAt":"24/06/2026 00:24:33"}]},{"id":"11740","lat":40.720025410796254,"lon":14.479706705522517,"name":"CASTELLAMMARE DI STABIA-VIA NAPOLI 298","brand":"Q8","address":"VIA NAPOLI 298 80053, CASTELLAMMARE DI STABIA, NA","prices":[{"type":"petrol","price":1.779,"self":true,"updatedAt":"20/06/2026 19:06:55"},{"type":"diesel","price":1.769,"self":true,"updatedAt":"20/06/2026 19:06:55"}]},{"id":"32472","lat":40.70175169323834,"lon":14.489392057717168,"name":"ENI","brand":"Agip Eni","address":"VIALE EUROPA 87 80053, CASTELLAMMARE DI STABIA, NA","prices":[{"type":"petrol","price":1.859,"self":true,"updatedAt":"24/06/2026 23:35:55"},{"type":"diesel","price":1.964,"self":true,"updatedAt":"24/06/2026 23:35:55"}]},{"id":"55146","lat":40.696,"lon":14.4816,"name":"ENI 8174","brand":"Agip Eni","address":"PANORAMICA KM 10,705 SNC 80053, CASTELLAMMARE DI STABIA, NA","prices":[{"type":"petrol","price":1.859,"self":false,"updatedAt":"24/06/2026 23:35:46"},{"type":"diesel","price":1.962,"self":false,"updatedAt":"24/06/2026 23:35:46"}]},{"id":"63322","lat":40.71399724162937,"lon":14.489426204920113,"name":"OSCAR PETROLI","brand":"Pompe Bianche","address":"Via Annunziatella SNC 80053, CASTELLAMMARE DI STABIA, NA","prices":[{"type":"petrol","price":1.849,"self":true,"updatedAt":"23/06/2026 17:23:03"},{"type":"diesel","price":1.869,"self":true,"updatedAt":"23/06/2026 17:23:04"}]},{"id":"44201","lat":40.606289982708475,"lon":14.374524117721535,"name":"08011 - 959304","brand":"Agip Eni","address":"C.so S.Agata dei due Golfi 59 80061, MASSA LUBRENSE, NA","prices":[{"type":"petrol","price":1.829,"self":true,"updatedAt":"25/06/2026 01:15:55"},{"type":"diesel","price":1.919,"self":true,"updatedAt":"25/06/2026 01:15:55"}]},{"id":"48998","lat":40.60562745544932,"lon":14.371726588954944,"name":"ESSO - VIA REOLA","brand":"Esso","address":"VIA REOLA SNC 80061, MASSA LUBRENSE, NA","prices":[{"type":"petrol","price":1.814,"self":true,"updatedAt":"22/06/2026 16:29:18"},{"type":"diesel","price":1.904,"self":true,"updatedAt":"22/06/2026 16:29:18"}]},{"id":"36038","lat":40.605524355773056,"lon":14.37270605378967,"name":"MASA CARBURANTI","brand":"Pompe Bianche","address":"VIA REOLA 2 80061, MASSA LUBRENSE, NA","prices":[{"type":"petrol","price":1.819,"self":true,"updatedAt":"22/06/2026 18:36:37"},{"type":"diesel","price":1.909,"self":true,"updatedAt":"22/06/2026 18:36:37"}]},{"id":"31833","lat":40.6415781628172,"lon":14.418325184566811,"name":"tiber","brand":"Loro","address":"VIA DEL LAURO 7 80062, META, NA","prices":[{"type":"petrol","price":1.999,"self":true,"updatedAt":"22/06/2026 08:27:51"},{"type":"diesel","price":2.179,"self":true,"updatedAt":"22/06/2026 08:27:51"}]},{"id":"55884","lat":40.639444,"lon":14.418876,"name":"UNOIL META","brand":"Pompe Bianche","address":"Corso Italia 150 80062, META, NA","prices":[{"type":"petrol","price":1.919,"self":false,"updatedAt":"24/06/2026 19:55:28"},{"type":"diesel","price":1.999,"self":false,"updatedAt":"24/06/2026 19:55:28"}]},{"id":"27511","lat":40.63194485920473,"lon":14.416283369064331,"name":"ASTARITA SAS","brand":"Api-Ip","address":"VIA DEI PLATANI  80063, PIANO DI SORRENTO, NA","prices":[{"type":"petrol","price":1.899,"self":true,"updatedAt":"20/06/2026 07:45:07"},{"type":"diesel","price":1.999,"self":true,"updatedAt":"20/06/2026 07:45:07"}]},{"id":"60927","lat":40.6293,"lon":14.41612,"name":"EASY SERVICE SRL PIANO DI SORRENTO","brand":"Energas","address":"VIA G. MARESCA  33 80063, PIANO DI SORRENTO, NA","prices":[{"type":"petrol","price":1.839,"self":true,"updatedAt":"24/06/2026 16:40:08"},{"type":"diesel","price":1.949,"self":true,"updatedAt":"24/06/2026 16:40:08"},{"type":"lpg","price":0.949,"self":false,"updatedAt":"24/06/2026 23:34:56"}]},{"id":"20620","lat":40.63043792394578,"lon":14.403996169567108,"name":"esso","brand":"Esso","address":"ITALIA S.S. 145 KM.24+471 SNC 80063, PIANO DI SORRENTO, NA","prices":[{"type":"petrol","price":1.889,"self":true,"updatedAt":"23/06/2026 19:46:54"},{"type":"diesel","price":1.999,"self":true,"updatedAt":"23/06/2026 19:46:54"}]},{"id":"15263","lat":40.63319641028232,"lon":14.417364167736878,"name":"ESSO","brand":"Esso","address":"DEI PLATANI SNC 80063, PIANO DI SORRENTO, NA","prices":[{"type":"petrol","price":1.849,"self":true,"updatedAt":"24/06/2026 13:54:52"},{"type":"diesel","price":1.959,"self":true,"updatedAt":"24/06/2026 13:54:52"},{"type":"lpg","price":0.949,"self":false,"updatedAt":"24/06/2026 13:54:52"}]},{"id":"53021","lat":40.63238881137743,"lon":14.409599304199219,"name":"IP","brand":"Api-Ip","address":"DELLE ROSE 14 80063, PIANO DI SORRENTO, NA","prices":[{"type":"petrol","price":1.898,"self":true,"updatedAt":"20/06/2026 19:44:42"},{"type":"diesel","price":1.998,"self":true,"updatedAt":"20/06/2026 19:44:42"}]},{"id":"32489","lat":40.63040760421361,"lon":14.40344323984641,"name":"PIANO DI SORRENTO CORSO ITALIA, 27","brand":"Q8","address":"CORSO ITALIA 27 80053, PIANO DI SORRENTO, NA","prices":[{"type":"petrol","price":1.849,"self":true,"updatedAt":"23/06/2026 18:36:02"},{"type":"diesel","price":1.959,"self":true,"updatedAt":"23/06/2026 18:36:02"}]},{"id":"61579","lat":40.74688814807347,"lon":14.487226456403652,"name":"ALPHA  GROUP SAS","brand":"Api-Ip","address":"Via Plinio 101 80045, POMPEI, NA","prices":[{"type":"petrol","price":1.844,"self":true,"updatedAt":"18/06/2026 17:33:38"},{"type":"diesel","price":1.949,"self":true,"updatedAt":"18/06/2026 17:33:38"}]},{"id":"63247","lat":40.723622169200425,"lon":14.497255235910416,"name":"FRATELLI LONGOBARDI","brand":"Carburanti Bianchi","address":"FONTANELLE 341 80045, POMPEI, NA","prices":[{"type":"lpg","price":0.759,"self":false,"updatedAt":"22/06/2026 11:38:36"}]},{"id":"33882","lat":40.723622169200425,"lon":14.497255235910416,"name":"FRATELLI LONGOBARDI","brand":"Pompe Bianche","address":"FONTANELLE 341 80045, POMPEI, NA","prices":[{"type":"petrol","price":1.849,"self":true,"updatedAt":"23/06/2026 19:51:37"},{"type":"diesel","price":1.899,"self":true,"updatedAt":"23/06/2026 19:51:37"},{"type":"lpg","price":0.759,"self":false,"updatedAt":"23/06/2026 19:51:37"}]},{"id":"33087","lat":40.73940683796222,"lon":14.499395071094568,"name":"m petroli","brand":"Pompe Bianche","address":"via ripuaria 75 80045, POMPEI, NA","prices":[{"type":"petrol","price":1.895,"self":true,"updatedAt":"24/06/2026 07:00:04"},{"type":"diesel","price":1.895,"self":true,"updatedAt":"24/06/2026 07:00:04"}]},{"id":"23138","lat":40.746176386976465,"lon":14.49668714313043,"name":"POMPEI S.S. 18 KM 24+623","brand":"Q8","address":"S.S. 18 KM 24+623  80045, POMPEI, NA","prices":[{"type":"petrol","price":1.829,"self":true,"updatedAt":"23/06/2026 18:06:00"},{"type":"diesel","price":1.919,"self":true,"updatedAt":"23/06/2026 18:06:00"}]},{"id":"57238","lat":40.629453,"lon":14.394296,"name":"Celentano Michele","brand":"Pompe Bianche","address":"ITALIA SS 145 KM.25+324 SNC 80065, SANT'AGNELLO, NA","prices":[{"type":"petrol","price":1.797,"self":true,"updatedAt":"23/06/2026 09:52:34"},{"type":"diesel","price":1.908,"self":true,"updatedAt":"23/06/2026 09:52:34"}]},{"id":"45927","lat":40.63044974196777,"lon":14.399621378923143,"name":"Gargiulo Giuseppe ditta","brand":"Pompe Bianche","address":"VIA ANIELLO BALSAMO SNC 80065, SANT'AGNELLO, NA","prices":[{"type":"petrol","price":1.919,"self":true,"updatedAt":"24/06/2026 09:01:13"},{"type":"diesel","price":1.999,"self":true,"updatedAt":"24/06/2026 09:01:13"}]},{"id":"19655","lat":40.629472252646586,"lon":14.39363192520068,"name":"Stazione di servizio Ranzo Mario","brand":"Agip Eni","address":"ITALIA 10/A 80065, SANT'AGNELLO, NA","prices":[{"type":"petrol","price":1.824,"self":true,"updatedAt":"25/06/2026 01:22:52"},{"type":"diesel","price":1.919,"self":true,"updatedAt":"25/06/2026 01:22:52"}]},{"id":"35993","lat":40.62665221730716,"lon":14.382114708423615,"name":"08144","brand":"Agip Eni","address":"CORSO ITALIA 279 80067, SORRENTO, NA","prices":[{"type":"petrol","price":1.824,"self":true,"updatedAt":"25/06/2026 01:15:30"},{"type":"diesel","price":1.919,"self":true,"updatedAt":"25/06/2026 01:15:30"}]},{"id":"15676","lat":40.62800778426901,"lon":14.38620775938034,"name":"ESSO","brand":"Esso","address":"corso italia 248 80067, SORRENTO, NA","prices":[{"type":"petrol","price":1.839,"self":true,"updatedAt":"24/06/2026 07:25:53"},{"type":"diesel","price":1.969,"self":true,"updatedAt":"24/06/2026 07:25:53"}]},{"id":"15163","lat":40.624435696503156,"lon":14.369084106414903,"name":"ESSO","brand":"Esso","address":"VIA DEL MARE  80060, SORRENTO, NA","prices":[{"type":"petrol","price":1.999,"self":true,"updatedAt":"21/06/2026 12:48:08"},{"type":"diesel","price":2.099,"self":true,"updatedAt":"21/06/2026 12:48:08"}]},{"id":"62633","lat":40.6273297,"lon":14.3843886,"name":"PRESTIGE OIL sas DI MARIKA CAPPIELLO","brand":"Api-Ip","address":"Corso Italia 321D  80067, SORRENTO, NA","prices":[{"type":"petrol","price":1.819,"self":true,"updatedAt":"19/06/2026 15:46:48"},{"type":"diesel","price":1.939,"self":true,"updatedAt":"19/06/2026 15:46:48"}]},{"id":"9003","lat":40.625124941852,"lon":14.37984287964855,"name":"SORRENTO VIA DEGLI ARANCI","brand":"Q8","address":"VIA DEGLI ARANCI  80067, SORRENTO, NA","prices":[{"type":"petrol","price":1.798,"self":true,"updatedAt":"22/06/2026 17:03:36"},{"type":"diesel","price":1.909,"self":true,"updatedAt":"22/06/2026 17:03:36"}]},{"id":"63311","lat":40.7492909,"lon":14.4548881,"name":"ESSO","brand":"Esso","address":"Lungomare di Oplonti snc 80058, TORRE ANNUNZIATA, NA","prices":[{"type":"petrol","price":1.735,"self":true,"updatedAt":"24/06/2026 16:38:07"},{"type":"diesel","price":1.85,"self":true,"updatedAt":"24/06/2026 16:38:07"},{"type":"lpg","price":0.725,"self":false,"updatedAt":"24/06/2026 16:38:07"}]},{"id":"53205","lat":40.7409551315226,"lon":14.476421847939491,"name":"FULL SRL","brand":"Pompe Bianche","address":"ERCOLE ERCOLI 16 80058, TORRE ANNUNZIATA, NA","prices":[{"type":"petrol","price":1.835,"self":false,"updatedAt":"25/06/2026 00:18:18"},{"type":"diesel","price":1.845,"self":false,"updatedAt":"25/06/2026 00:18:18"},{"type":"lpg","price":0.725,"self":false,"updatedAt":"25/06/2026 00:18:18"}]},{"id":"46731","lat":40.7453950371418,"lon":14.473502292261742,"name":"OCEANIA (TORRE)","brand":"Oceania","address":"VIA BOTTARO SNC 80058, TORRE ANNUNZIATA, NA","prices":[{"type":"petrol","price":1.759,"self":true,"updatedAt":"24/06/2026 19:00:37"},{"type":"diesel","price":1.859,"self":true,"updatedAt":"24/06/2026 19:00:37"}]},{"id":"16081","lat":40.66061961044973,"lon":14.433439448475838,"name":"ENERGAS","brand":"Energas","address":"R. BOSCO 53 80069, VICO EQUENSE, NA","prices":[{"type":"petrol","price":1.969,"self":true,"updatedAt":"25/06/2026 01:04:02"},{"type":"diesel","price":2.059,"self":true,"updatedAt":"25/06/2026 01:04:02"}]},{"id":"39801","lat":40.65592341192819,"lon":14.458397403359413,"name":"Pit Stop s.a.s","brand":"Pompe Bianche","address":"VIA RAFFAELE BOSCO 429 80069, VICO EQUENSE, NA","prices":[{"type":"petrol","price":1.861,"self":true,"updatedAt":"24/06/2026 07:19:39"},{"type":"diesel","price":1.946,"self":true,"updatedAt":"24/06/2026 07:19:39"}]},{"id":"35899","lat":40.66289393550857,"lon":14.429527597159904,"name":"VICO EQUENSE P.ZZA CIRCUMVESUVIANA","brand":"Q8","address":"P.ZZA CIRCUMVESUVIANA  80069, VICO EQUENSE, NA","prices":[{"type":"petrol","price":1.859,"self":true,"updatedAt":"22/06/2026 17:34:28"},{"type":"diesel","price":1.949,"self":true,"updatedAt":"22/06/2026 17:34:28"}]},{"id":"25657","lat":40.63086367424864,"lon":14.484706791633585,"name":"agip mandara","brand":"Agip Eni","address":"PASITEA,34 82 84017, POSITANO, SA","prices":[{"type":"petrol","price":1.858,"self":false,"updatedAt":"25/06/2026 00:38:06"},{"type":"diesel","price":1.954,"self":false,"updatedAt":"25/06/2026 00:38:06"}]}]