[{"id":"57388","lat":40.56307,"lon":8.325741,"name":"7820 ALGHERO","brand":"Agip Eni","address":"Via Vittorio Emanuele II 209  07041, ALGHERO, SS","prices":[{"type":"petrol","price":1.829,"self":true,"updatedAt":"25/06/2026 00:48:04"},{"type":"diesel","price":1.909,"self":true,"updatedAt":"25/06/2026 00:48:04"}]},{"id":"61278","lat":40.59555,"lon":8.2851,"name":"7855 ALGHERO","brand":"Agip Eni","address":"SS127bis, ALGHERO, SS","prices":[{"type":"petrol","price":1.829,"self":true,"updatedAt":"25/06/2026 00:46:01"},{"type":"diesel","price":1.909,"self":true,"updatedAt":"25/06/2026 00:46:01"}]},{"id":"57571","lat":40.5674236,"lon":8.3192536,"name":"ALGHERO - VIA GARIBALDI","brand":"Q8","address":"VIA GARIBALDI, ALGHERO, SS","prices":[{"type":"petrol","price":1.829,"self":true,"updatedAt":"23/06/2026 07:40:31"},{"type":"diesel","price":1.919,"self":true,"updatedAt":"23/06/2026 07:40:31"}]},{"id":"52586","lat":40.6234882,"lon":8.3320263,"name":"BUTANGAS","brand":"Pompe Bianche","address":"TANCA FARRA' 4 07041, ALGHERO, SS","prices":[{"type":"petrol","price":1.899,"self":true,"updatedAt":"20/06/2026 06:46:09"},{"type":"diesel","price":1.989,"self":true,"updatedAt":"20/06/2026 06:46:09"},{"type":"lpg","price":0.899,"self":false,"updatedAt":"20/06/2026 06:46:09"}]},{"id":"43209","lat":40.56233313852971,"lon":8.322912149885497,"name":"Esso Station di Falchi snc","brand":"Esso","address":"VIA VITTORIO EMANUELE 76 07041, ALGHERO, SS","prices":[{"type":"petrol","price":1.859,"self":true,"updatedAt":"23/06/2026 08:12:38"},{"type":"diesel","price":1.969,"self":true,"updatedAt":"23/06/2026 08:12:38"}]},{"id":"59363","lat":40.65334418316283,"lon":8.376826466085676,"name":"107194 OLMEDO","brand":"Esso","address":"RISORGIMENTO SNC 07040, OLMEDO, SS","prices":[{"type":"petrol","price":1.789,"self":true,"updatedAt":"25/06/2026 07:10:20"},{"type":"diesel","price":1.869,"self":true,"updatedAt":"25/06/2026 07:10:20"}]},{"id":"54130","lat":40.63584170588893,"lon":8.36754714581967,"name":"OLMEDO-ISOLA GAS","brand":"ISOLA GAS","address":"291 VAR DELLA NURRA KM 21,800 SNC 07040, OLMEDO, SS","prices":[{"type":"petrol","price":1.839,"self":true,"updatedAt":"24/06/2026 12:43:21"},{"type":"diesel","price":1.909,"self":true,"updatedAt":"24/06/2026 12:43:21"}]},{"id":"62606","lat":40.7279376,"lon":8.32706004,"name":"3771","brand":"Tamoil","address":"SP. 42 DEI DUE MARI KM. 10+630 L, SASSARI, SS","prices":[{"type":"petrol","price":1.819,"self":true,"updatedAt":"25/06/2026 00:13:08"},{"type":"diesel","price":1.899,"self":true,"updatedAt":"25/06/2026 00:13:08"}]},{"id":"58767","lat":40.7071300993667,"lon":8.418072357619847,"name":"JANNA DE MARE - B&G di Simona Aroni e C. Sas","brand":"Api-Ip","address":"SS291 KM 12,400, SASSARI, SS","prices":[{"type":"petrol","price":1.774,"self":true,"updatedAt":"24/06/2026 17:07:07"},{"type":"diesel","price":1.854,"self":true,"updatedAt":"24/06/2026 17:07:06"},{"type":"lpg","price":0.882,"self":false,"updatedAt":"24/06/2026 17:07:07"}]},{"id":"51787","lat":40.734698252609896,"lon":8.458165136668077,"name":"marco pensè","brand":"Q8","address":"s.p 18 sassari argentiera  snc 07100, SASSARI, SS","prices":[{"type":"petrol","price":1.869,"self":false,"updatedAt":"22/06/2026 19:23:51"},{"type":"diesel","price":1.989,"self":false,"updatedAt":"22/06/2026 19:23:51"},{"type":"lpg","price":1.111,"self":false,"updatedAt":"22/06/2026 19:23:51"}]},{"id":"16589","lat":40.66429433832733,"lon":8.304875493049622,"name":"Q8","brand":"Q8","address":"Statale 291 della Nurra, Km. 23,709, dir. SANTA MARIA LA PALMA - 07040, SASSARI, SS","prices":[{"type":"petrol","price":1.819,"self":true,"updatedAt":"23/06/2026 07:47:38"},{"type":"diesel","price":1.899,"self":true,"updatedAt":"23/06/2026 07:47:38"}]},{"id":"15444","lat":40.64225758804755,"lon":8.482901751995087,"name":"Ditta Arras Carlo","brand":"Q8","address":"Via Sassari SNC 07040, URI, SS","prices":[{"type":"petrol","price":1.879,"self":true,"updatedAt":"24/06/2026 07:28:14"},{"type":"diesel","price":1.989,"self":true,"updatedAt":"24/06/2026 07:28:14"}]},{"id":"25656","lat":40.50108055002828,"lon":8.476226499683435,"name":"STAZIONE SERVIZIO Q8 MURA SEBASTIANO","brand":"Q8","address":"VIA SU LACCHEDDU SN 07019, VILLANOVA MONTELEONE, SS","prices":[{"type":"petrol","price":1.869,"self":true,"updatedAt":"24/06/2026 19:01:08"},{"type":"diesel","price":1.939,"self":true,"updatedAt":"24/06/2026 19:01:08"}]},{"id":"59501","lat":40.5635072,"lon":8.3329024,"name":"Stazione di Servizio Q8","brand":"Q8","address":"Via Cagliari  60/62 09034, VILLASOR, SU","prices":[{"type":"petrol","price":1.819,"self":true,"updatedAt":"24/06/2026 12:53:05"},{"type":"diesel","price":1.899,"self":true,"updatedAt":"24/06/2026 12:53:05"}]}]