[{"id":"15008","lat":40.52152332570512,"lon":15.89948723701309,"name":"petruzzi rocco & figli","brand":"Api-Ip","address":"CONTRADA S. DONATO SNC 85010, ANZI, PZ","prices":[{"type":"petrol","price":1.899,"self":true,"updatedAt":"25/06/2026 16:49:49"},{"type":"diesel","price":1.999,"self":true,"updatedAt":"25/06/2026 16:49:49"}]},{"id":"55666","lat":40.5759177,"lon":15.781348,"name":"albano di Albano Domenico & C. S.A.S.","brand":"Api-Ip","address":"5 DELLA SELLATA SNC 85010, PIGNOLA, PZ","prices":[{"type":"petrol","price":1.969,"self":true,"updatedAt":"16/06/2026 10:29:25"},{"type":"diesel","price":1.999,"self":true,"updatedAt":"16/06/2026 10:29:25"}]},{"id":"5428","lat":40.643703167561824,"lon":15.830761982803324,"name":"38018 BETLEMME","brand":"Agip Eni","address":"Contrada Betlemme SNC 85100, POTENZA, PZ","prices":[{"type":"petrol","price":1.829,"self":true,"updatedAt":"01/07/2026 00:35:45"},{"type":"diesel","price":1.889,"self":true,"updatedAt":"01/07/2026 00:35:45"},{"type":"methane","price":1.638,"self":false,"updatedAt":"30/06/2026 23:30:52"}]},{"id":"52528","lat":40.62712213937551,"lon":15.799545318441648,"name":"8766 – Potenza","brand":"Agip Eni","address":"V.le Basento, 76  85100, POTENZA, PZ","prices":[{"type":"petrol","price":1.829,"self":true,"updatedAt":"01/07/2026 00:27:58"},{"type":"diesel","price":1.889,"self":true,"updatedAt":"01/07/2026 00:27:58"}]},{"id":"52861","lat":40.65253403477727,"lon":15.869366821864448,"name":"DISTRIBUTORE DI POTENZA","brand":"Pompe Bianche","address":"STRADA STATALE 407 BASENTANA KM 0+779 SNC 85100, POTENZA (PZ) SNC 85100, POTENZA, PZ","prices":[{"type":"petrol","price":1.799,"self":true,"updatedAt":"30/06/2026 17:25:57"},{"type":"diesel","price":1.869,"self":true,"updatedAt":"30/06/2026 17:25:57"},{"type":"lpg","price":0.749,"self":false,"updatedAt":"30/06/2026 17:25:57"}]},{"id":"55036","lat":40.6585344,"lon":15.794176,"name":"Distributore IP - Piazza Bologna","brand":"Api-Ip","address":"BOLOGNA SNC 85100, POTENZA, PZ","prices":[{"type":"petrol","price":1.919,"self":true,"updatedAt":"25/06/2026 17:50:20"},{"type":"diesel","price":1.929,"self":true,"updatedAt":"25/06/2026 17:50:20"}]},{"id":"22087","lat":40.639670345411986,"lon":15.787835642695427,"name":"esso eredi ruggieri","brand":"Esso","address":"via ligure 2 85100, POTENZA, PZ","prices":[{"type":"petrol","price":1.819,"self":true,"updatedAt":"01/07/2026 07:51:47"},{"type":"diesel","price":1.899,"self":true,"updatedAt":"01/07/2026 07:51:47"}]},{"id":"59406","lat":40.6487925,"lon":15.8025211,"name":"ESSO POTENZA","brand":"Esso","address":"Via Ettore Ciccotti 34 85100, POTENZA, PZ","prices":[{"type":"petrol","price":1.799,"self":true,"updatedAt":"30/06/2026 17:27:52"},{"type":"diesel","price":1.899,"self":true,"updatedAt":"30/06/2026 17:27:52"}]},{"id":"31046","lat":40.623126474357456,"lon":15.796514600515366,"name":"FUELS SERVICE SRL 08793","brand":"Agip Eni","address":"Statale 407 Basentana, Km. 48,800, dir. salerno - 85100, POTENZA, PZ","prices":[{"type":"petrol","price":1.829,"self":true,"updatedAt":"30/06/2026 23:58:12"},{"type":"diesel","price":1.889,"self":true,"updatedAt":"30/06/2026 23:58:12"}]},{"id":"31047","lat":40.62272093783065,"lon":15.79671174287796,"name":"FUELS SERVICES SRL 08794","brand":"Agip Eni","address":"Statale 407 Basentana, Km. 48 dir. Matera  85100, POTENZA, PZ","prices":[{"type":"petrol","price":1.829,"self":true,"updatedAt":"30/06/2026 00:24:44"},{"type":"diesel","price":1.889,"self":true,"updatedAt":"30/06/2026 00:24:44"},{"type":"lpg","price":0.766,"self":false,"updatedAt":"30/06/2026 23:50:07"}]},{"id":"62435","lat":40.64930760411962,"lon":15.796495359385675,"name":"GDG POTENZA GARAGES SAS DI GABRIELLA TEPEDINO","brand":"Esso","address":"Viale Firenze SNC 85100, POTENZA, PZ","prices":[{"type":"petrol","price":1.819,"self":true,"updatedAt":"29/06/2026 09:33:57"},{"type":"diesel","price":1.899,"self":true,"updatedAt":"29/06/2026 09:33:57"}]},{"id":"52966","lat":40.69008111642349,"lon":15.841059386730194,"name":"I.P. Elle2Bi di Barbato Salvatore & c. s.n.c.","brand":"Api-Ip","address":"LOCALITA' CUGNO DELLE BRECCE NC 85100, POTENZA, PZ","prices":[{"type":"petrol","price":1.849,"self":true,"updatedAt":"01/07/2026 07:44:56"},{"type":"diesel","price":1.939,"self":true,"updatedAt":"01/07/2026 07:44:56"},{"type":"lpg","price":0.799,"self":false,"updatedAt":"01/07/2026 07:44:56"}]},{"id":"58770","lat":40.64882689999999,"lon":15.801248099999983,"name":"IP Piazzale delle Regioni","brand":"Api-Ip","address":"Piazzale delle Regioni SNC 85100, POTENZA, PZ","prices":[{"type":"petrol","price":1.899,"self":true,"updatedAt":"25/06/2026 17:50:41"},{"type":"diesel","price":1.909,"self":true,"updatedAt":"25/06/2026 17:50:41"}]},{"id":"40329","lat":40.63564904170566,"lon":15.818784713728746,"name":"IP-RACOMA","brand":"Api-Ip","address":"DEL BASENTO 3-5 85100, POTENZA, PZ","prices":[{"type":"petrol","price":1.799,"self":true,"updatedAt":"01/07/2026 07:01:40"},{"type":"diesel","price":1.899,"self":true,"updatedAt":"01/07/2026 07:01:40"}]},{"id":"13417","lat":40.64163032528942,"lon":15.809438154101372,"name":"LIOI CLEMENTE","brand":"Pompe Bianche","address":"VIA CAVOUR 104 85100, POTENZA, PZ","prices":[{"type":"petrol","price":2.075,"self":true,"updatedAt":"30/06/2026 10:19:27"},{"type":"diesel","price":2.174,"self":true,"updatedAt":"30/06/2026 10:19:27"}]},{"id":"58096","lat":40.625492250867175,"lon":15.805019536590569,"name":"Mazzola Gas S.r.l.","brand":"Pompe Bianche","address":"DELLA FISICA 1 85100, POTENZA, PZ","prices":[{"type":"lpg","price":0.77,"self":false,"updatedAt":"27/06/2026 07:43:03"}]},{"id":"62551","lat":40.6365221855924,"lon":15.826434591872633,"name":"Motel Park","brand":"COIL","address":"RACC.AUT. SICIGNANO-POTENZA km 49+900  85100, POTENZA, PZ","prices":[{"type":"petrol","price":1.787,"self":true,"updatedAt":"29/06/2026 16:52:25"},{"type":"diesel","price":1.877,"self":true,"updatedAt":"29/06/2026 16:52:25"}]},{"id":"42306","lat":40.64942831395374,"lon":15.823805787271908,"name":"MVS","brand":"Pompe Bianche","address":"Via Giovanni XXIII  85100, POTENZA, PZ","prices":[{"type":"petrol","price":1.809,"self":true,"updatedAt":"29/06/2026 10:22:54"},{"type":"diesel","price":1.889,"self":true,"updatedAt":"29/06/2026 10:22:54"},{"type":"methane","price":1.629,"self":false,"updatedAt":"29/06/2026 10:22:54"},{"type":"lpg","price":0.769,"self":false,"updatedAt":"29/06/2026 10:22:54"}]},{"id":"55517","lat":40.73187677071804,"lon":15.80780804157257,"name":"PIETRAFESA SAS DI BISCIONE GIOVANNI & C.","brand":"Pompe Bianche","address":"SAN NICOLA SNC 85100, POTENZA, PZ","prices":[{"type":"petrol","price":1.979,"self":true,"updatedAt":"26/06/2026 16:32:37"},{"type":"diesel","price":2.099,"self":true,"updatedAt":"26/06/2026 16:32:37"}]},{"id":"32672","lat":40.638795784635015,"lon":15.809003787734468,"name":"POTENZA - GIUSEPPE GARIBALDI","brand":"Api-Ip","address":"CORSO GIUSEPPE GARIBALDI  85100, POTENZA, PZ","prices":[{"type":"petrol","price":1.899,"self":true,"updatedAt":"30/06/2026 09:02:07"},{"type":"diesel","price":1.909,"self":true,"updatedAt":"30/06/2026 09:02:07"}]},{"id":"6770","lat":40.64575131241796,"lon":15.804107700034706,"name":"POTENZA RIONE SANTA MARIA VIA CICCOTTI","brand":"Q8","address":"RIONE SANTA MARIA VIA CICCOTTI SNC 85100, POTENZA, PZ","prices":[{"type":"petrol","price":1.799,"self":true,"updatedAt":"01/07/2026 01:43:19"},{"type":"diesel","price":1.879,"self":true,"updatedAt":"01/07/2026 01:43:19"}]},{"id":"35898","lat":40.631659677943006,"lon":15.789657533168793,"name":"POTENZA VIA DEL GALLITELLO","brand":"Q8","address":"VIA DEL GALLITELLO  85100, POTENZA, PZ","prices":[{"type":"petrol","price":1.819,"self":true,"updatedAt":"29/06/2026 18:04:30"},{"type":"diesel","price":1.899,"self":true,"updatedAt":"29/06/2026 18:04:30"}]},{"id":"25868","lat":40.63601415480206,"lon":15.80059053194259,"name":"POTENZA VIA VACCARO","brand":"Q8","address":"VIA VACCARO  85100, POTENZA, PZ","prices":[{"type":"petrol","price":1.799,"self":true,"updatedAt":"01/07/2026 01:43:17"},{"type":"diesel","price":1.879,"self":true,"updatedAt":"01/07/2026 01:43:17"}]},{"id":"6769","lat":40.63407456496594,"lon":15.80631514788513,"name":"POTENZA VIA VIVIANI - DISTR. Q8","brand":"Q8","address":"VIA VIVIANI - DISTR. Q8 SNC 85100, POTENZA, PZ","prices":[{"type":"petrol","price":1.799,"self":true,"updatedAt":"01/07/2026 01:43:18"},{"type":"diesel","price":1.879,"self":true,"updatedAt":"01/07/2026 01:43:18"}]},{"id":"14465","lat":40.63215146730992,"lon":15.802052691578865,"name":"STAZIONE DI SERVIZIO ENI","brand":"Agip Eni","address":"VIALE DANTE 164 85100, POTENZA, PZ","prices":[{"type":"petrol","price":1.824,"self":true,"updatedAt":"01/07/2026 00:38:43"},{"type":"diesel","price":1.884,"self":true,"updatedAt":"01/07/2026 00:38:43"}]},{"id":"13615","lat":40.63504959427316,"lon":15.803984045754987,"name":"TAMOIL","brand":"Tamoil","address":"VIALE MARCONI - DISTRIBUTORE TAMOIL  85100, POTENZA, PZ","prices":[{"type":"petrol","price":1.799,"self":true,"updatedAt":"30/06/2026 23:34:12"},{"type":"diesel","price":1.889,"self":true,"updatedAt":"30/06/2026 23:34:12"}]},{"id":"61167","lat":40.67413,"lon":15.97424,"name":"FUEL SERVICE Appia Carburanti s.a.s.","brand":"Pompe Bianche","address":"C.DA PAZZANO SNC 85017, TOLVE, PZ","prices":[{"type":"petrol","price":1.818,"self":true,"updatedAt":"26/06/2026 11:28:29"},{"type":"diesel","price":1.895,"self":true,"updatedAt":"26/06/2026 11:28:29"}]},{"id":"63210","lat":40.65555086067634,"lon":15.88435134722138,"name":"VGF IDROCARBURI VAGLIO BASILICATA","brand":"Esso","address":"S.S.N.407 BASENTANA KM2+250 SNC 85010, VAGLIO BASILICATA, PZ","prices":[{"type":"petrol","price":1.859,"self":true,"updatedAt":"30/06/2026 08:07:47"},{"type":"diesel","price":1.899,"self":true,"updatedAt":"30/06/2026 08:07:47"},{"type":"lpg","price":0.899,"self":false,"updatedAt":"30/06/2026 08:07:47"}]}]