[{"id":"54111","lat":40.672962,"lon":16.592392,"name":"19415 Matera","brand":"Agip Eni","address":"Via Dante Alighieri, 69, MATERA, MT","prices":[{"type":"petrol","price":1.829,"self":true,"updatedAt":"23/06/2026 23:39:21"},{"type":"diesel","price":1.919,"self":true,"updatedAt":"23/06/2026 23:39:21"}]},{"id":"51812","lat":40.660056790048564,"lon":16.612776630227952,"name":"9409 – Matera","brand":"Agip Eni","address":"Via Lucana  75100, MATERA, MT","prices":[{"type":"petrol","price":1.829,"self":true,"updatedAt":"24/06/2026 00:24:23"},{"type":"diesel","price":1.909,"self":true,"updatedAt":"24/06/2026 07:54:07"}]},{"id":"51156","lat":40.68329893929245,"lon":16.590284840803555,"name":"AntezzasncMT","brand":"Api-Ip","address":"VIA SS.99 KM.17,462 SNC 75100, MATERA (MT) SNC 75100, MATERA, MT","prices":[{"type":"petrol","price":1.799,"self":true,"updatedAt":"23/06/2026 09:57:55"},{"type":"diesel","price":1.889,"self":true,"updatedAt":"23/06/2026 09:57:55"}]},{"id":"59878","lat":40.67424712893459,"lon":16.591224738744028,"name":"Area Dante 106 - EN-K 01","brand":"Pompe Bianche","address":"DANTE ALIGHIERI 106 75100, MATERA, MT","prices":[{"type":"petrol","price":1.767,"self":true,"updatedAt":"23/06/2026 23:36:21"},{"type":"diesel","price":1.877,"self":true,"updatedAt":"23/06/2026 23:36:21"}]},{"id":"61213","lat":40.635127,"lon":16.594528,"name":"Area SS7 -  EN-K 02","brand":"Gatti carburanti","address":"STATALE 7 APPIA KM 567+680 75100, MATERA, MT","prices":[{"type":"petrol","price":1.767,"self":true,"updatedAt":"24/06/2026 00:01:08"},{"type":"diesel","price":1.847,"self":true,"updatedAt":"24/06/2026 00:01:08"},{"type":"lpg","price":0.757,"self":false,"updatedAt":"24/06/2026 00:01:08"}]},{"id":"18796","lat":40.6647673728745,"lon":16.59695014357567,"name":"chiro sas di chita maria & c.","brand":"Tamoil","address":"VIALE DELLE NAZIONI UNITE S.C. 75100, MATERA, MT","prices":[{"type":"petrol","price":1.789,"self":true,"updatedAt":"23/06/2026 23:23:05"},{"type":"diesel","price":1.889,"self":true,"updatedAt":"23/06/2026 23:23:05"}]},{"id":"59325","lat":40.68787,"lon":16.54779,"name":"ENI STATION LA MARTELLA","brand":"Agip Eni","address":"ENZO FERRARI SN 75100, MATERA, MT","prices":[{"type":"petrol","price":1.824,"self":true,"updatedAt":"23/06/2026 15:50:10"},{"type":"diesel","price":1.914,"self":true,"updatedAt":"23/06/2026 14:30:08"}]},{"id":"18390","lat":40.673157939171006,"lon":16.585349589586258,"name":"f.lli gaudiano s.a.s","brand":"Api-Ip","address":"LA MARTELLA 8 75100, MATERA, MT","prices":[{"type":"petrol","price":1.789,"self":true,"updatedAt":"19/06/2026 15:54:51"},{"type":"diesel","price":1.879,"self":true,"updatedAt":"19/06/2026 15:54:51"}]},{"id":"50469","lat":40.65892813075795,"lon":16.53924439093101,"name":"Fiore Carburanti","brand":"Pompe Bianche","address":"BIVIO LA MARTELLA-SP MATERA-GRASSANO SN 75100, MATERA, MT","prices":[{"type":"petrol","price":1.799,"self":true,"updatedAt":"23/06/2026 11:11:59"},{"type":"diesel","price":1.885,"self":true,"updatedAt":"23/06/2026 11:11:59"}]},{"id":"50122","lat":40.68202810272535,"lon":16.59955263137817,"name":"GAS NATURAL CAR","brand":"Pompe Bianche","address":"C.DA LA VAGLIA SNC 75100, MATERA, MT","prices":[{"type":"petrol","price":1.774,"self":true,"updatedAt":"23/06/2026 09:35:50"},{"type":"diesel","price":1.875,"self":true,"updatedAt":"23/06/2026 09:35:50"},{"type":"methane","price":1.699,"self":false,"updatedAt":"23/06/2026 09:35:50"}]},{"id":"51835","lat":40.67093533161091,"lon":16.596872467606932,"name":"IP","brand":"Api-Ip","address":"VIA R. LAZAZZERA 8 75100, MATERA, MT","prices":[{"type":"petrol","price":1.799,"self":true,"updatedAt":"19/06/2026 16:12:16"},{"type":"diesel","price":1.889,"self":true,"updatedAt":"19/06/2026 16:12:16"}]},{"id":"40746","lat":40.71117862389421,"lon":16.579995900392532,"name":"la sosta","brand":"Esso","address":"Statale 99 di Matera, Km. 13,576, dir. matera - 75100, MATERA, MT","prices":[{"type":"petrol","price":1.819,"self":true,"updatedAt":"23/06/2026 11:59:52"},{"type":"diesel","price":1.899,"self":true,"updatedAt":"23/06/2026 11:59:52"}]},{"id":"22322","lat":40.68086510616976,"lon":16.589661627733676,"name":"Latorre Carburanti Snc di Latorre C. & C.","brand":"Pompe Bianche","address":"Contrada Quartarella 20/21 75100, MATERA, MT","prices":[{"type":"petrol","price":1.855,"self":true,"updatedAt":"22/06/2026 09:36:30"},{"type":"diesel","price":1.965,"self":true,"updatedAt":"22/06/2026 09:36:30"}]},{"id":"24807","lat":40.65961627765827,"lon":16.592999241733537,"name":"MATERA - TIMMARI","brand":"Api-Ip","address":"VIA TIMMARI  75100, MATERA, MT","prices":[{"type":"petrol","price":1.799,"self":true,"updatedAt":"23/06/2026 09:07:43"},{"type":"diesel","price":1.889,"self":true,"updatedAt":"23/06/2026 09:07:43"}]},{"id":"6764","lat":40.72234356122209,"lon":16.573721084655745,"name":"MATERA BORGO VENUSIO C/O C.C. COOP","brand":"Q8","address":"BORGO VENUSIO C/O C.C. COOP SNC 75100, MATERA, MT","prices":[{"type":"petrol","price":1.807,"self":true,"updatedAt":"24/06/2026 01:42:55"},{"type":"diesel","price":1.894,"self":true,"updatedAt":"24/06/2026 01:42:55"}]},{"id":"35896","lat":40.65243020005476,"lon":16.616302720901558,"name":"MATERA MONTESCAGLIOSO 9","brand":"Q8","address":"Via Montescaglioso 9 75100, MATERA, MT","prices":[{"type":"petrol","price":1.807,"self":true,"updatedAt":"24/06/2026 01:42:55"},{"type":"diesel","price":1.894,"self":true,"updatedAt":"24/06/2026 01:42:55"},{"type":"lpg","price":0.757,"self":false,"updatedAt":"24/06/2026 01:42:55"}]},{"id":"60169","lat":40.67783,"lon":16.59168,"name":"MATERA VIA NAZIONALE SNC","brand":"Q8","address":"VIA NAZIONALE  snc 75100, MATERA, MT","prices":[{"type":"petrol","price":1.817,"self":true,"updatedAt":"23/06/2026 18:36:19"},{"type":"diesel","price":1.899,"self":true,"updatedAt":"23/06/2026 18:36:19"}]},{"id":"39277","lat":40.676625427356555,"lon":16.593708046627057,"name":"STAZIONE DI SERVIZIO ESSO DI GIACINTA D'ERCOLE","brand":"Esso","address":"VIA NAZIONALE 204 75100, MATERA, MT","prices":[{"type":"petrol","price":1.859,"self":true,"updatedAt":"18/06/2026 19:36:29"},{"type":"diesel","price":1.959,"self":true,"updatedAt":"18/06/2026 19:36:29"}]},{"id":"45369","lat":40.670287895547055,"lon":16.580064296722412,"name":"Stazione di Servizio G&G","brand":"Pompe Bianche","address":"Via La Martella  snc 75100, MATERA, MT","prices":[{"type":"petrol","price":1.769,"self":true,"updatedAt":"22/06/2026 11:23:04"},{"type":"diesel","price":1.859,"self":true,"updatedAt":"22/06/2026 11:23:04"}]},{"id":"23114","lat":40.684583182235166,"lon":16.57534897327423,"name":"STAZIONE DI SERVIZIO RICCARDI DI GR srl","brand":"Pompe Bianche","address":"VIA GRAVINA 70, 75100 - -, MATERA, MT","prices":[{"type":"petrol","price":1.915,"self":true,"updatedAt":"18/06/2026 12:58:10"},{"type":"diesel","price":1.995,"self":true,"updatedAt":"18/06/2026 12:58:10"},{"type":"lpg","price":0.805,"self":false,"updatedAt":"18/06/2026 12:58:10"}]},{"id":"56167","lat":40.68433418304189,"lon":16.570430052270513,"name":"TOMMASINI CARBURANTI","brand":"TOMMASINI CARBURANTI","address":"S.P. MATERA-GRAVINA KM. 0+300  75100, MATERA, MT","prices":[{"type":"petrol","price":1.765,"self":true,"updatedAt":"23/06/2026 18:54:59"},{"type":"diesel","price":1.845,"self":true,"updatedAt":"23/06/2026 18:54:59"}]},{"id":"18513","lat":40.66666800790281,"lon":16.594900271395318,"name":"TOMMASINI SERVICE DI TOMMASINI PIETRO","brand":"TOMMASINI CARBURANTI","address":"VIALE DELLE NAZIONI UNITE 47 75100, MATERA, MT","prices":[{"type":"petrol","price":1.769,"self":true,"updatedAt":"23/06/2026 18:57:08"},{"type":"diesel","price":1.849,"self":true,"updatedAt":"23/06/2026 18:57:08"}]},{"id":"51157","lat":40.55036170094547,"lon":16.66624180496832,"name":"AntezzasncMONTE","brand":"Api-Ip","address":"VIA VIA SANTA LUCIA 58/A 75024, MONTESCAGLIOSO (MT) 58/A 75100, MONTESCAGLIOSO, MT","prices":[{"type":"petrol","price":1.899,"self":true,"updatedAt":"23/06/2026 09:58:03"},{"type":"diesel","price":1.979,"self":true,"updatedAt":"23/06/2026 09:58:03"}]},{"id":"53370","lat":40.55058887078466,"lon":16.65822972883605,"name":"DIPIERRO CARBURANTI","brand":"Pompe Bianche","address":"ALDO MORO SNC 75024, MONTESCAGLIOSO, MT","prices":[{"type":"petrol","price":1.849,"self":true,"updatedAt":"23/06/2026 10:19:40"},{"type":"diesel","price":1.919,"self":true,"updatedAt":"23/06/2026 10:19:40"}]},{"id":"30987","lat":40.51555921812007,"lon":16.63637854232786,"name":"MONTESCAGLIOSO - B.GO SAN ROCCO","brand":"Api-Ip","address":"S.S. 175 KM. 20,220  75024, MONTESCAGLIOSO, MT","prices":[{"type":"petrol","price":1.859,"self":true,"updatedAt":"23/06/2026 09:01:54"},{"type":"diesel","price":1.899,"self":true,"updatedAt":"23/06/2026 19:01:02"},{"type":"lpg","price":0.799,"self":false,"updatedAt":"23/06/2026 09:01:54"}]},{"id":"33675","lat":40.532480042903934,"lon":16.610699146986008,"name":"TRE CONFINI","brand":"TreConfiniCarburanti","address":"Statale 380 dei Tre Confini, Km. 9+200, dir. MATERA - 75024, MONTESCAGLIOSO, MT","prices":[{"type":"petrol","price":1.859,"self":true,"updatedAt":"23/06/2026 21:04:33"},{"type":"diesel","price":1.899,"self":true,"updatedAt":"23/06/2026 21:04:33"}]},{"id":"24267","lat":40.52109238340766,"lon":16.542088240385056,"name":"DISTRIBUTORE TOTALERG NI008612","brand":"Pompe Bianche","address":"VIALE KENNEDY SNC 75016, POMARICO, MT","prices":[{"type":"petrol","price":1.999,"self":true,"updatedAt":"21/06/2026 13:17:26"},{"type":"diesel","price":2.069,"self":true,"updatedAt":"21/06/2026 13:17:26"}]}]