[{"id":"39135","lat":40.57937969932966,"lon":9.249831140041351,"name":"Erika Petroli Multiservices Srl","brand":"Pompe Bianche","address":"Statale 389 di Budduso' e del Correboi, Km. 0.900, dir. sassari  07020, BUDDUSÒ, SS","prices":[{"type":"petrol","price":2.159,"self":false,"updatedAt":"29/06/2026 11:43:49"},{"type":"diesel","price":2.279,"self":false,"updatedAt":"29/06/2026 11:43:49"}]},{"id":"48292","lat":40.71887643542592,"lon":9.098529741168022,"name":"ESSO OSCHIRI - VIA G. MARCONI","brand":"Esso","address":"VIA G. MARCONI  07020, OSCHIRI, SS","prices":[{"type":"petrol","price":1.919,"self":true,"updatedAt":"30/06/2026 07:47:16"},{"type":"diesel","price":1.919,"self":true,"updatedAt":"30/06/2026 07:47:16"}]},{"id":"30103","lat":40.71761683963199,"lon":9.095008671283722,"name":"staz.Servizio Tamoil Carta Gabriella","brand":"Tamoil","address":"Statale 199 di Monti, Km. 17,000, dir. olbia -, OSCHIRI, SS","prices":[{"type":"petrol","price":1.919,"self":true,"updatedAt":"30/06/2026 00:28:04"},{"type":"diesel","price":1.919,"self":true,"updatedAt":"30/06/2026 00:28:04"}]},{"id":"6683","lat":40.58748147029061,"lon":9.00245921289752,"name":"OZIERI VIA DE GASPERI","brand":"Q8","address":"VIA DE GASPERI SNC 07014, OZIERI, SS","prices":[{"type":"petrol","price":1.729,"self":true,"updatedAt":"30/06/2026 01:13:43"},{"type":"diesel","price":1.889,"self":true,"updatedAt":"30/06/2026 01:13:43"}]},{"id":"15701","lat":40.586565368486674,"lon":9.001378118991852,"name":"STAZ ESSO F.LLI SABA SNC.","brand":"Esso","address":"LARGO PROF. SORO 1 07014, OZIERI, SS","prices":[{"type":"petrol","price":1.749,"self":true,"updatedAt":"29/06/2026 18:07:56"},{"type":"diesel","price":1.899,"self":true,"updatedAt":"29/06/2026 18:07:56"}]},{"id":"16288","lat":40.58707074481765,"lon":9.001383929430403,"name":"tamoil sanna mariarosa","brand":"Tamoil","address":"VIA VITTORIO VENETO 2 07014, OZIERI, SS","prices":[{"type":"petrol","price":1.739,"self":true,"updatedAt":"30/06/2026 07:57:19"},{"type":"diesel","price":1.879,"self":true,"updatedAt":"30/06/2026 07:57:19"}]},{"id":"43198","lat":40.568948415294855,"lon":9.060577729684853,"name":"stazione di ervizio esso marco deliperi","brand":"Esso","address":"128 Centrale Sarda, Km. 20,290, pattada  07016, PATTADA, SS","prices":[{"type":"petrol","price":1.739,"self":true,"updatedAt":"30/06/2026 05:31:02"},{"type":"diesel","price":1.919,"self":true,"updatedAt":"30/06/2026 05:31:02"}]}]