[{"id":"54290","lat":40.7699456,"lon":14.6735104,"name":"TOP STATION SRL sede Atripalda","brand":"Pompe Bianche","address":"SS7 APPIA, KM 309+218 SNC 83042, ATRIPALDA, AV","prices":[{"type":"petrol","price":1.819,"self":true,"updatedAt":"25/06/2026 19:54:12"},{"type":"diesel","price":1.899,"self":true,"updatedAt":"25/06/2026 19:54:12"}]},{"id":"35658","lat":40.95221382105148,"lon":14.593232721090317,"name":"ENI","brand":"Agip Eni","address":"Statale 7 bis di Terra di Lavoro, Km. 54+415, dir. AVELLINO - 83021, AVELLA, AV","prices":[{"type":"petrol","price":1.829,"self":true,"updatedAt":"26/06/2026 23:18:53"},{"type":"diesel","price":1.889,"self":true,"updatedAt":"27/06/2026 06:26:12"}]},{"id":"60958","lat":40.95757439268842,"lon":14.598524125195315,"name":"fuel 58","brand":"Pompe Bianche","address":"NAZ.DELLE PUGLIE KM58+001 SNC 83021, AVELLA, AV","prices":[{"type":"petrol","price":1.779,"self":true,"updatedAt":"23/06/2026 10:52:58"},{"type":"diesel","price":1.869,"self":true,"updatedAt":"23/06/2026 10:52:58"},{"type":"methane","price":1.899,"self":false,"updatedAt":"23/06/2026 10:52:58"},{"type":"lpg","price":0.729,"self":false,"updatedAt":"23/06/2026 10:52:58"}]},{"id":"35548","lat":40.95221338825662,"lon":14.593248184658819,"name":"Pit Stop","brand":"Pompe Bianche","address":"7 bis di Terra di Lavoro, Km. 58+400, Avellino  83021, AVELLA, AV","prices":[{"type":"methane","price":1.729,"self":false,"updatedAt":"26/06/2026 07:07:33"},{"type":"lpg","price":0.699,"self":false,"updatedAt":"26/06/2026 07:07:33"}]},{"id":"38486","lat":40.94565896035949,"lon":14.621349647641182,"name":"Energas Baiano","brand":"Energas","address":"Contrada Calabricita snc snc 83022, BAIANO, AV","prices":[{"type":"petrol","price":1.819,"self":true,"updatedAt":"27/06/2026 00:31:30"},{"type":"diesel","price":1.899,"self":true,"updatedAt":"27/06/2026 00:31:30"},{"type":"lpg","price":0.759,"self":false,"updatedAt":"26/06/2026 00:25:09"}]},{"id":"36114","lat":40.88208830978838,"lon":14.627571702003479,"name":"AR","brand":"Pompe Bianche","address":"VIA PRINCIPE LANCELLOTTI SNC 83023, LAURO, AV","prices":[{"type":"petrol","price":1.889,"self":true,"updatedAt":"27/06/2026 07:37:30"},{"type":"diesel","price":1.899,"self":true,"updatedAt":"27/06/2026 07:37:30"}]},{"id":"32445","lat":40.887501583195885,"lon":14.623326435685158,"name":"BUTANGAS di Sepe Margherita","brand":"Pompe Bianche","address":"VIA PIGNANIELLO SNC 83023, LAURO, AV","prices":[{"type":"lpg","price":0.755,"self":false,"updatedAt":"22/06/2026 10:52:13"}]},{"id":"56746","lat":40.915147549569035,"lon":14.748679553676984,"name":"BENECO VIA MANCINI MERCOGLIANO","brand":"Beneco","address":"Via Pasquale Stanislao Mancini snc 83013, MERCOGLIANO, AV","prices":[{"type":"lpg","price":0.725,"self":false,"updatedAt":"25/06/2026 17:08:20"}]},{"id":"31936","lat":40.915072898229255,"lon":14.748905450105667,"name":"CENTRO FLAME","brand":"Pompe Bianche","address":"VIA VIA P.S. MANCINI SNC 83013, MERCOGLIANO (AV)  83013, MERCOGLIANO, AV","prices":[{"type":"petrol","price":1.826,"self":false,"updatedAt":"23/06/2026 12:34:55"},{"type":"diesel","price":1.916,"self":false,"updatedAt":"23/06/2026 12:34:55"},{"type":"methane","price":1.499,"self":false,"updatedAt":"23/06/2026 12:34:55"}]},{"id":"53061","lat":40.912009,"lon":14.747444,"name":"ENI","brand":"Agip Eni","address":"N. SANTANGELO SNC 83013, MERCOGLIANO, AV","prices":[{"type":"petrol","price":1.829,"self":true,"updatedAt":"26/06/2026 23:58:10"},{"type":"diesel","price":1.909,"self":true,"updatedAt":"26/06/2026 23:58:10"}]},{"id":"5379","lat":40.91621597936952,"lon":14.748034652778642,"name":"Stazione di Servizio Q8 Giliberti Carburanti","brand":"Q8","address":"VIA NICOLA SANTAGELO 25 83013, MERCOGLIANO, AV","prices":[{"type":"petrol","price":1.829,"self":true,"updatedAt":"25/06/2026 17:24:20"},{"type":"diesel","price":1.929,"self":true,"updatedAt":"25/06/2026 17:24:20"}]},{"id":"6712","lat":40.90179725280561,"lon":14.741020473016306,"name":"MONTEFORTE IRPINO S.S. 7 BIS","brand":"Q8","address":"S.S. 7 BIS SNC 83024, MONTEFORTE IRPINO, AV","prices":[{"type":"petrol","price":1.829,"self":true,"updatedAt":"26/06/2026 07:45:36"},{"type":"diesel","price":1.929,"self":true,"updatedAt":"26/06/2026 07:45:36"}]},{"id":"36489","lat":40.89309284006275,"lon":14.709556102752686,"name":"Stazione di servizio Monteforte Irpino","brand":"Beneco","address":"via nazionale  107 83024, MONTEFORTE IRPINO, AV","prices":[{"type":"petrol","price":1.855,"self":true,"updatedAt":"25/06/2026 12:50:08"},{"type":"diesel","price":1.915,"self":true,"updatedAt":"25/06/2026 12:50:08"}]},{"id":"16298","lat":40.905126379399704,"lon":14.745369628071785,"name":"TOTAL ERG","brand":"Api-Ip","address":"VIA NAZIONALE SS7 BIS  83024, MONTEFORTE IRPINO, AV","prices":[{"type":"petrol","price":1.839,"self":true,"updatedAt":"24/06/2026 17:14:08"},{"type":"diesel","price":1.939,"self":true,"updatedAt":"24/06/2026 17:14:08"}]},{"id":"53476","lat":40.873269,"lon":14.64758,"name":"E & A CARBURANTI","brand":"Pompe Bianche","address":"Via Avellino 8  83020, MOSCHIANO, AV","prices":[{"type":"petrol","price":1.879,"self":true,"updatedAt":"23/06/2026 10:49:37"},{"type":"diesel","price":1.888,"self":true,"updatedAt":"23/06/2026 10:49:37"}]},{"id":"61214","lat":40.9182283,"lon":14.5365976,"name":"Impianto carburanti Q8 di Iovino Francesco","brand":"Q8","address":"VITTORIO EMANUELE III 254 83027, MUGNANO DEL CARDINALE, AV","prices":[{"type":"petrol","price":1.829,"self":true,"updatedAt":"27/06/2026 06:42:19"},{"type":"diesel","price":1.899,"self":true,"updatedAt":"27/06/2026 06:42:19"}]},{"id":"61855","lat":40.9337326,"lon":14.6489227,"name":"Impianto Picciocchi","brand":"Pompe Bianche","address":"S.S. 7 BIS SNC 83027, MUGNANO DEL CARDINALE, AV","prices":[{"type":"petrol","price":1.879,"self":true,"updatedAt":"17/06/2026 09:15:22"},{"type":"diesel","price":1.888,"self":true,"updatedAt":"17/06/2026 09:15:22"}]},{"id":"57913","lat":40.89842100447309,"lon":14.595549466058847,"name":"CARS FUEL  - PAGO","brand":"Pompe Bianche","address":"VIA NAZIONALE SNC 83020, PAGO DEL VALLO DI LAURO, AV","prices":[{"type":"petrol","price":1.878,"self":true,"updatedAt":"25/06/2026 08:22:04"},{"type":"diesel","price":1.889,"self":true,"updatedAt":"25/06/2026 08:22:04"}]},{"id":"59866","lat":40.94552362641374,"lon":14.62860628303591,"name":"CARS FUEL - SIRI","brand":"Pompe Bianche","address":"SS 7 BIS 61+925 SNC 83020, SIRIGNANO, AV","prices":[{"type":"petrol","price":1.888,"self":true,"updatedAt":"25/06/2026 08:21:42"},{"type":"diesel","price":1.888,"self":true,"updatedAt":"25/06/2026 08:21:42"}]},{"id":"6711","lat":40.9523868203699,"lon":14.600006639957428,"name":"SPERONE S.S. 7 BIS KM 58+984 IMP.Q8","brand":"Q8","address":"S.S. 7 BIS KM 58+984  IMP.Q8 SNC 83020, SPERONE, AV","prices":[{"type":"petrol","price":1.809,"self":true,"updatedAt":"26/06/2026 16:07:25"},{"type":"diesel","price":1.889,"self":true,"updatedAt":"26/06/2026 16:07:25"}]},{"id":"55347","lat":40.7666688,"lon":14.6931712,"name":"IP","brand":"Itala Petroli","address":"Via San Bartolomeo SNC 87064, CORIGLIANO-ROSSANO, CS","prices":[{"type":"petrol","price":1.878,"self":true,"updatedAt":"25/06/2026 20:36:24"},{"type":"diesel","price":1.971,"self":true,"updatedAt":"25/06/2026 20:36:24"}]},{"id":"14102","lat":40.783947231763015,"lon":14.510054738928602,"name":"DI PALMA GIUSEPPE VINCENZO","brand":"Pompe Bianche","address":"VIA PASSANTI FLOCCO 262 80041, BOSCOREALE, NA","prices":[{"type":"petrol","price":1.969,"self":true,"updatedAt":"24/06/2026 21:39:16"},{"type":"diesel","price":2.019,"self":true,"updatedAt":"24/06/2026 21:39:16"}]},{"id":"15378","lat":40.7768915993249,"lon":14.51606422662735,"name":"DITTA AMETRANO MARIO","brand":"Tamoil","address":"VIA TRIVIO MARCHESA 77 80041, BOSCOREALE, NA","prices":[{"type":"petrol","price":1.859,"self":false,"updatedAt":"26/06/2026 09:32:27"},{"type":"diesel","price":1.939,"self":false,"updatedAt":"26/06/2026 09:32:27"}]},{"id":"62955","lat":40.7829167,"lon":14.5463312,"name":"ECOpower CARBURANTI","brand":"Pompe Bianche","address":"MARRA 175 80041, BOSCOREALE, NA","prices":[{"type":"petrol","price":1.869,"self":true,"updatedAt":"23/06/2026 16:07:21"},{"type":"diesel","price":1.818,"self":true,"updatedAt":"23/06/2026 16:07:21"}]},{"id":"52938","lat":40.786567973089376,"lon":14.514804863971108,"name":"stazione eni buono gabriele","brand":"Agip Eni","address":"PASSANTI FLOCCO 460 80041, BOSCOREALE, NA","prices":[{"type":"petrol","price":1.824,"self":true,"updatedAt":"27/06/2026 00:43:31"},{"type":"diesel","price":1.904,"self":true,"updatedAt":"27/06/2026 00:43:31"}]},{"id":"40439","lat":40.95467901849279,"lon":14.537922888994217,"name":"CAPOLONGO SAS","brand":"Q8","address":"VIA PROVINCIALE NOLA-CICCIANO  80030, CAMPOSANO, NA","prices":[{"type":"petrol","price":1.859,"self":true,"updatedAt":"26/06/2026 14:28:22"},{"type":"diesel","price":1.979,"self":true,"updatedAt":"26/06/2026 14:28:22"}]},{"id":"29325","lat":40.95476500856712,"lon":14.537660032510757,"name":"ip api","brand":"Api-Ip","address":"via provinciale  80030, CAMPOSANO, NA","prices":[{"type":"petrol","price":1.819,"self":true,"updatedAt":"26/06/2026 16:48:56"},{"type":"diesel","price":1.869,"self":true,"updatedAt":"26/06/2026 16:48:56"}]},{"id":"27576","lat":40.94443972820796,"lon":14.555076956748962,"name":"ENERGI - RG","brand":"Pompe Bianche","address":"Via Nazionale delle Puglie SS.7 Bis Km. 55.740 SNC 80032, CASAMARCIANO, NA","prices":[{"type":"petrol","price":1.848,"self":true,"updatedAt":"25/06/2026 08:20:57"},{"type":"diesel","price":1.888,"self":true,"updatedAt":"25/06/2026 08:20:57"}]},{"id":"49427","lat":40.9295750579082,"lon":14.54606406390667,"name":"Massimo Pellegrino","brand":"Agip Eni","address":"Via seminario s.p. Nola/Casamarciano Snc 80032, CASAMARCIANO, NA","prices":[{"type":"petrol","price":1.829,"self":true,"updatedAt":"27/06/2026 00:42:03"},{"type":"diesel","price":1.909,"self":true,"updatedAt":"27/06/2026 07:28:24"}]},{"id":"55056","lat":40.94361,"lon":14.55213,"name":"TOIL CASAMARCIANO","brand":"Toil","address":"SS7bis KM 54+934 SNC 80032, CASAMARCIANO, NA","prices":[{"type":"petrol","price":1.779,"self":true,"updatedAt":"27/06/2026 00:42:38"},{"type":"diesel","price":1.869,"self":true,"updatedAt":"27/06/2026 00:42:38"},{"type":"lpg","price":0.725,"self":false,"updatedAt":"27/06/2026 07:04:42"}]},{"id":"59416","lat":40.964043652645856,"lon":14.527004613113416,"name":"DISTRIBUTORI ECOS SRL CICCIANO","brand":"Bianco Carburanti","address":"TAVERNANOVA SNC 80033, CICCIANO, NA","prices":[{"type":"petrol","price":1.829,"self":true,"updatedAt":"26/06/2026 18:02:22"},{"type":"diesel","price":1.899,"self":true,"updatedAt":"26/06/2026 18:02:22"},{"type":"lpg","price":0.729,"self":false,"updatedAt":"26/06/2026 18:02:22"}]},{"id":"57914","lat":40.95086446843297,"lon":14.555572274412173,"name":"CARS FUEL - COMI","brand":"Pompe Bianche","address":"PROVINCIALE PER SCHIAVA 18 80030, COMIZIANO, NA","prices":[{"type":"petrol","price":1.898,"self":true,"updatedAt":"25/06/2026 08:21:19"},{"type":"diesel","price":1.898,"self":true,"updatedAt":"25/06/2026 08:21:19"}]},{"id":"56504","lat":40.94153172889114,"lon":14.541767250525039,"name":"DISTRIBUTORE CARBURANTE IP","brand":"Api-Ip","address":"SS7BIS APPIA Km 10   80030, COMIZIANO, NA","prices":[{"type":"petrol","price":1.819,"self":true,"updatedAt":"27/06/2026 07:50:58"},{"type":"diesel","price":1.869,"self":true,"updatedAt":"27/06/2026 07:50:58"}]},{"id":"57886","lat":40.903637,"lon":14.564212,"name":"SG PETROLI","brand":"4.0","address":"NAZIONALE 131 80030, LIVERI, NA","prices":[{"type":"petrol","price":1.878,"self":true,"updatedAt":"25/06/2026 15:14:56"},{"type":"diesel","price":1.889,"self":true,"updatedAt":"25/06/2026 15:14:56"}]},{"id":"63186","lat":40.873973521973994,"lon":14.502272215938552,"name":"ANGI Carburanti","brand":"Pompe Bianche","address":"Via degli Albertini  80035, NOLA, NA","prices":[{"type":"petrol","price":1.879,"self":true,"updatedAt":"24/06/2026 10:31:00"},{"type":"diesel","price":1.899,"self":true,"updatedAt":"24/06/2026 10:31:00"}]},{"id":"21965","lat":40.91853920307452,"lon":14.516716003417969,"name":"DISTRIBUTORI ECOS SRL NOLA V. CIRCUM.","brand":"Pompe Bianche","address":"NUOVA CIRCUMVALLAZIONE SNC 80035, NOLA, NA","prices":[{"type":"petrol","price":1.799,"self":true,"updatedAt":"25/06/2026 18:42:42"},{"type":"diesel","price":1.869,"self":true,"updatedAt":"25/06/2026 18:42:42"}]},{"id":"40377","lat":40.90221120176054,"lon":14.544465467333794,"name":"easy service Nola Cappella","brand":"Energas","address":"SS 367 Località Cappella  snc 80035, NOLA, NA","prices":[{"type":"petrol","price":1.799,"self":true,"updatedAt":"27/06/2026 00:03:21"},{"type":"diesel","price":1.889,"self":true,"updatedAt":"27/06/2026 00:03:21"},{"type":"lpg","price":0.729,"self":false,"updatedAt":"27/06/2026 00:38:55"}]},{"id":"36769","lat":40.913530892231705,"lon":14.526731766864714,"name":"EMME PETROLI","brand":"Emme Petroli","address":"VIA FEUDO SNC 80035, NOLA, NA","prices":[{"type":"petrol","price":1.794,"self":true,"updatedAt":"26/06/2026 10:22:25"},{"type":"diesel","price":1.864,"self":true,"updatedAt":"26/06/2026 10:22:25"},{"type":"methane","price":1.684,"self":false,"updatedAt":"27/06/2026 05:28:06"},{"type":"lpg","price":0.729,"self":false,"updatedAt":"27/06/2026 05:28:06"}]},{"id":"55541","lat":40.93517,"lon":14.53592,"name":"ENERGY FUEL SRL","brand":"Pompe Bianche","address":"Via Sarnella SNC 80035, NOLA, NA","prices":[{"type":"petrol","price":1.789,"self":true,"updatedAt":"25/06/2026 12:35:30"},{"type":"diesel","price":1.879,"self":true,"updatedAt":"25/06/2026 12:35:30"},{"type":"lpg","price":0.729,"self":false,"updatedAt":"25/06/2026 12:35:30"}]},{"id":"52320","lat":40.932001934060715,"lon":14.528724277280801,"name":"eni station de bustis","brand":"Agip Eni","address":"VIA ON.LE F. NAPOLITANO 150 80035, NOLA, NA","prices":[{"type":"petrol","price":1.859,"self":true,"updatedAt":"27/06/2026 00:24:12"},{"type":"diesel","price":1.939,"self":true,"updatedAt":"27/06/2026 00:24:12"}]},{"id":"38009","lat":40.928503851834506,"lon":14.523149822615096,"name":"ESSO NOLA","brand":"Esso","address":"Via Mario De Sena  80035, NOLA, NA","prices":[{"type":"petrol","price":1.789,"self":true,"updatedAt":"24/06/2026 19:54:58"},{"type":"diesel","price":1.859,"self":true,"updatedAt":"24/06/2026 19:54:58"}]},{"id":"50096","lat":40.93229338666075,"lon":14.519601150708805,"name":"impianto q8","brand":"Q8","address":"Strada Statale, Km. 50 - 80035, NOLA, NA","prices":[{"type":"petrol","price":1.799,"self":true,"updatedAt":"24/06/2026 08:58:24"},{"type":"diesel","price":1.869,"self":true,"updatedAt":"24/06/2026 08:58:24"},{"type":"lpg","price":0.729,"self":false,"updatedAt":"24/06/2026 08:58:24"}]},{"id":"52218","lat":40.93335904132861,"lon":14.523843973845047,"name":"IP - O.M.A srl","brand":"Api-Ip","address":"STATALE 7 BIS KM52+300 SNC 80035, NOLA, NA","prices":[{"type":"petrol","price":1.849,"self":true,"updatedAt":"26/06/2026 12:42:13"},{"type":"diesel","price":1.899,"self":true,"updatedAt":"26/06/2026 12:42:13"}]},{"id":"57927","lat":40.93264874309594,"lon":14.50896910529992,"name":"Ludoil","brand":"Pompe Bianche","address":"Via Taranto 3 80035, NOLA, NA","prices":[{"type":"petrol","price":1.859,"self":true,"updatedAt":"25/06/2026 11:47:14"},{"type":"diesel","price":1.879,"self":true,"updatedAt":"25/06/2026 11:47:14"}]},{"id":"61980","lat":40.9160093,"lon":14.5259978,"name":"LUDOIL","brand":"Lukoil","address":"Via Feudo 210  80035, NOLA, NA","prices":[{"type":"petrol","price":1.854,"self":true,"updatedAt":"23/06/2026 12:16:02"},{"type":"diesel","price":1.894,"self":true,"updatedAt":"23/06/2026 12:16:02"}]},{"id":"61018","lat":40.92014535,"lon":14.5305829,"name":"LUDOIL","brand":"Pompe Bianche","address":"CIRCUMVALLAZIONE 42 80035, NOLA, NA","prices":[{"type":"petrol","price":1.794,"self":true,"updatedAt":"26/06/2026 09:20:21"},{"type":"diesel","price":1.884,"self":true,"updatedAt":"26/06/2026 09:20:21"}]},{"id":"46807","lat":40.85830057611381,"lon":14.512022852600012,"name":"M PETROLI","brand":"Pompe Bianche","address":"VIA MARCHE 9 80035, NOLA, NA","prices":[{"type":"petrol","price":1.815,"self":true,"updatedAt":"27/06/2026 06:59:37"},{"type":"diesel","price":1.915,"self":true,"updatedAt":"27/06/2026 06:59:37"}]},{"id":"50097","lat":40.9221745522669,"lon":14.533480410238681,"name":"menna oil","brand":"Pompe Bianche","address":"via san paolo belsito  63 80035, NOLA, NA","prices":[{"type":"petrol","price":1.749,"self":true,"updatedAt":"26/06/2026 08:58:49"},{"type":"diesel","price":1.849,"self":true,"updatedAt":"26/06/2026 08:58:49"}]},{"id":"46969","lat":40.90221928763224,"lon":14.544473199808408,"name":"Q8","brand":"Q8","address":"NOLA/PALMA SN 80035, NOLA, NA","prices":[{"type":"petrol","price":1.798,"self":true,"updatedAt":"23/06/2026 21:21:37"},{"type":"diesel","price":1.888,"self":true,"updatedAt":"23/06/2026 21:21:37"},{"type":"lpg","price":0.728,"self":false,"updatedAt":"23/06/2026 21:21:37"}]},{"id":"53771","lat":40.92316670625647,"lon":14.526148661971092,"name":"STAROIL","brand":"Pompe Bianche","address":"VIA PIAZZA PRINCIPE UMBERTO SNC 80035, NOLA (NA) SNC 80035, NOLA, NA","prices":[{"type":"petrol","price":1.789,"self":true,"updatedAt":"25/06/2026 15:34:15"},{"type":"diesel","price":1.889,"self":true,"updatedAt":"25/06/2026 15:34:15"}]},{"id":"32324","lat":40.926848109637845,"lon":14.532937947256073,"name":"StarOil","brand":"Q8","address":"VIA FONSECA 49 80035, NOLA, NA","prices":[{"type":"petrol","price":1.789,"self":true,"updatedAt":"25/06/2026 11:46:53"},{"type":"diesel","price":1.879,"self":true,"updatedAt":"25/06/2026 11:46:53"}]},{"id":"24515","lat":40.90024328285186,"lon":14.525086507201195,"name":"TAMOIL","brand":"Tamoil","address":"VITTORIO VENETO SNC 80035, NOLA, NA","prices":[{"type":"petrol","price":1.794,"self":true,"updatedAt":"24/06/2026 20:35:52"},{"type":"diesel","price":1.884,"self":true,"updatedAt":"24/06/2026 20:35:52"}]},{"id":"41604","lat":40.91734228031811,"lon":14.520669762724934,"name":"toil nola","brand":"Toil","address":"via circumvallazione snc 80035, NOLA, NA","prices":[{"type":"petrol","price":1.799,"self":true,"updatedAt":"26/06/2026 23:45:59"},{"type":"diesel","price":1.869,"self":true,"updatedAt":"26/06/2026 23:45:59"},{"type":"lpg","price":0.729,"self":false,"updatedAt":"26/06/2026 23:45:59"}]},{"id":"47723","lat":40.856529537512635,"lon":14.506790278405703,"name":"Easy Ottaviano","brand":"Energas","address":"Via Ferrovie Dello Stato  174/bis 80044, OTTAVIANO, NA","prices":[{"type":"petrol","price":1.819,"self":true,"updatedAt":"27/06/2026 00:38:07"},{"type":"diesel","price":1.899,"self":true,"updatedAt":"27/06/2026 00:38:07"}]},{"id":"62395","lat":40.8524177,"lon":14.5103286,"name":"ENI STATION","brand":"Agip Eni","address":"G. DI PRISCO 200 80044, OTTAVIANO, NA","prices":[{"type":"petrol","price":1.829,"self":true,"updatedAt":"26/06/2026 23:27:58"},{"type":"diesel","price":1.909,"self":true,"updatedAt":"26/06/2026 23:27:58"}]},{"id":"10968","lat":40.85485586043542,"lon":14.502784523468335,"name":"Lincar gas","brand":"Pompe Bianche","address":"VIA FERROVIA DELLO STATO SNC 80044, OTTAVIANO, NA","prices":[{"type":"lpg","price":0.645,"self":false,"updatedAt":"25/06/2026 15:55:56"}]},{"id":"53059","lat":40.85564014883822,"lon":14.504360407590866,"name":"STAZIONE Q8 FF.SS.","brand":"Agip Eni","address":"VIA FF.SS SNC 80044, OTTAVIANO, NA","prices":[{"type":"petrol","price":1.819,"self":true,"updatedAt":"22/06/2026 10:28:43"},{"type":"diesel","price":1.914,"self":true,"updatedAt":"22/06/2026 10:28:43"}]},{"id":"52946","lat":40.83313,"lon":14.54763,"name":"AR","brand":"Pompe Bianche","address":"PONTE DI NAPOLI 37 80036, PALMA CAMPANIA, NA","prices":[{"type":"petrol","price":1.85,"self":true,"updatedAt":"26/06/2026 13:08:20"},{"type":"diesel","price":1.89,"self":true,"updatedAt":"26/06/2026 13:08:20"},{"type":"methane","price":1.39,"self":false,"updatedAt":"26/06/2026 13:08:20"}]},{"id":"45533","lat":40.880786000123,"lon":14.540257000123,"name":"EASY SERVICE S.R.L. / PALMA CAMPANIA","brand":"Pompe Bianche","address":"Via Isernia ex S.P. Piazzolla Palma snc  80036, PALMA CAMPANIA, NA","prices":[{"type":"petrol","price":1.899,"self":true,"updatedAt":"27/06/2026 00:03:03"},{"type":"diesel","price":1.949,"self":true,"updatedAt":"27/06/2026 00:03:03"},{"type":"lpg","price":0.799,"self":false,"updatedAt":"27/06/2026 00:03:03"}]},{"id":"54506","lat":40.8780426,"lon":14.5591255,"name":"GT-FUEL (PALMA CAMPANIA)","brand":"GT-FUEL","address":"SAN NICOLA 151 80036, PALMA CAMPANIA, NA","prices":[{"type":"petrol","price":1.789,"self":true,"updatedAt":"26/06/2026 16:49:46"},{"type":"diesel","price":1.839,"self":true,"updatedAt":"26/06/2026 16:49:46"}]},{"id":"10966","lat":40.83698165227726,"lon":14.548569917678833,"name":"Lincar gas","brand":"Pompe Bianche","address":"VIA TAVERNA NOVA  80036, PALMA CAMPANIA, NA","prices":[{"type":"lpg","price":0.645,"self":false,"updatedAt":"25/06/2026 15:55:51"}]},{"id":"40497","lat":40.87896607225181,"lon":14.550940319895744,"name":"luigi montanino","brand":"Pompe Bianche","address":"Via Nuova Sarno SS 367 km 13+475 snc  80036, PALMA CAMPANIA, NA","prices":[{"type":"petrol","price":1.759,"self":true,"updatedAt":"23/06/2026 19:37:03"},{"type":"diesel","price":1.809,"self":true,"updatedAt":"23/06/2026 19:37:03"}]},{"id":"46954","lat":40.8550706473853,"lon":14.539331632469612,"name":"M.A.C. S.R.L.","brand":"Pompe Bianche","address":"Via Pucecca snc 80036, PALMA CAMPANIA, NA","prices":[{"type":"petrol","price":1.82,"self":true,"updatedAt":"23/06/2026 15:47:35"},{"type":"diesel","price":1.9,"self":true,"updatedAt":"23/06/2026 15:47:35"},{"type":"methane","price":1.31,"self":false,"updatedAt":"23/06/2026 15:47:35"},{"type":"lpg","price":0.73,"self":false,"updatedAt":"23/06/2026 15:47:35"}]},{"id":"48936","lat":40.86618198202813,"lon":14.548568710872734,"name":"PRISCO FERNANDA","brand":"Api-Ip","address":"VIA CIRCUMVALLAZIONE S.C. 80036, PALMA CAMPANIA, NA","prices":[{"type":"petrol","price":1.799,"self":true,"updatedAt":"22/06/2026 19:22:10"},{"type":"diesel","price":1.849,"self":true,"updatedAt":"22/06/2026 19:22:10"}]},{"id":"58034","lat":40.87535980813841,"lon":14.551954454676057,"name":"STAZIONE DI SERVIZIO ENI","brand":"Agip Eni","address":"Via Nuova Nola 9 80036, PALMA CAMPANIA, NA","prices":[{"type":"petrol","price":1.789,"self":true,"updatedAt":"26/06/2026 23:15:18"},{"type":"diesel","price":1.844,"self":true,"updatedAt":"26/06/2026 08:34:09"}]},{"id":"46555","lat":40.814117982886174,"lon":14.529054975339363,"name":"AR","brand":"Pompe Bianche","address":"VIA FILIPPO TURATI 419 80040, POGGIOMARINO, NA","prices":[{"type":"petrol","price":1.784,"self":true,"updatedAt":"24/06/2026 21:24:56"},{"type":"diesel","price":1.859,"self":true,"updatedAt":"24/06/2026 21:24:56"},{"type":"lpg","price":0.689,"self":false,"updatedAt":"24/06/2026 21:24:56"}]},{"id":"55932","lat":40.7944358,"lon":14.5299201,"name":"AR","brand":"Pompe Bianche","address":"Via Passanti Flocco 213  80040, POGGIOMARINO, NA","prices":[{"type":"petrol","price":1.779,"self":true,"updatedAt":"23/06/2026 11:27:37"},{"type":"diesel","price":1.829,"self":true,"updatedAt":"23/06/2026 11:27:37"},{"type":"methane","price":1.39,"self":false,"updatedAt":"23/06/2026 11:27:37"},{"type":"lpg","price":0.679,"self":false,"updatedAt":"23/06/2026 11:27:37"}]},{"id":"41100","lat":40.810310236351945,"lon":14.545948058366776,"name":"finfuel","brand":"Pompe Bianche","address":"VIA G.IERVOLINO SNC 80040, POGGIOMARINO, NA","prices":[{"type":"petrol","price":1.819,"self":true,"updatedAt":"26/06/2026 12:13:05"},{"type":"diesel","price":1.839,"self":true,"updatedAt":"26/06/2026 12:13:05"}]},{"id":"22356","lat":40.79643830714438,"lon":14.545705318450814,"name":"GALASSO GIUSEPPINA","brand":"Pompe Bianche","address":"VIA NUOVA SAN MARZANO 98 80040, POGGIOMARINO, NA","prices":[{"type":"petrol","price":1.878,"self":true,"updatedAt":"24/06/2026 09:02:42"},{"type":"diesel","price":1.909,"self":true,"updatedAt":"24/06/2026 09:02:42"}]},{"id":"41701","lat":40.82688497619187,"lon":14.551934748888016,"name":"gp petrol","brand":"Pompe Bianche","address":"SP SAN GIUSEPPE V./STRIANO 138 80040, POGGIOMARINO, NA","prices":[{"type":"petrol","price":1.749,"self":true,"updatedAt":"26/06/2026 13:32:44"},{"type":"diesel","price":1.819,"self":true,"updatedAt":"26/06/2026 13:32:44"}]},{"id":"41864","lat":40.81263791225227,"lon":14.556160569190979,"name":"Longas","brand":"Pompe Bianche","address":"VIA PALMA 1 80040, POGGIOMARINO, NA","prices":[{"type":"petrol","price":1.815,"self":true,"updatedAt":"22/06/2026 07:43:07"},{"type":"diesel","price":1.929,"self":true,"updatedAt":"22/06/2026 07:43:07"},{"type":"lpg","price":0.679,"self":false,"updatedAt":"22/06/2026 07:43:07"}]},{"id":"46677","lat":40.80285799456114,"lon":14.52587693044461,"name":"UP - POGGIOMARINO","brand":"UP","address":"VIA VIA PIANO DEL PRINCIPE SNC 80040, POGGIOMARINO (NA) SNC 84040, POGGIOMARINO, NA","prices":[{"type":"petrol","price":1.809,"self":true,"updatedAt":"24/06/2026 12:38:35"},{"type":"diesel","price":1.859,"self":true,"updatedAt":"24/06/2026 12:38:35"}]},{"id":"32071","lat":40.76120620819259,"lon":14.506644308567047,"name":"Delta Petroli Pompei","brand":"Api-Ip","address":"Via Tre Ponti snc 80045, POMPEI, NA","prices":[{"type":"petrol","price":1.839,"self":false,"updatedAt":"25/06/2026 15:58:00"},{"type":"diesel","price":1.899,"self":false,"updatedAt":"25/06/2026 15:58:01"},{"type":"lpg","price":0.779,"self":false,"updatedAt":"25/06/2026 15:58:01"}]},{"id":"56424","lat":40.944,"lon":14.6365,"name":"ENI","brand":"Agip Eni","address":"PLINIO 47 80045, POMPEI, NA","prices":[{"type":"petrol","price":1.824,"self":true,"updatedAt":"27/06/2026 00:34:11"},{"type":"diesel","price":1.909,"self":true,"updatedAt":"27/06/2026 00:34:11"}]},{"id":"9615","lat":40.769133871290556,"lon":14.504981338977814,"name":"Meridional Gpl srl","brand":"Pompe Bianche","address":"VIA SPINELLI 22 80045, POMPEI, NA","prices":[{"type":"petrol","price":1.829,"self":true,"updatedAt":"26/06/2026 09:53:47"},{"type":"diesel","price":1.939,"self":true,"updatedAt":"26/06/2026 09:53:47"},{"type":"lpg","price":0.679,"self":false,"updatedAt":"26/06/2026 09:53:47"}]},{"id":"63241","lat":40.9740888,"lon":14.5394527,"name":"DFUEL ROCCARAINOLA","brand":"Pompe Bianche","address":"Via Madonella 8  80030, ROCCARAINOLA, NA","prices":[{"type":"petrol","price":1.898,"self":true,"updatedAt":"26/06/2026 11:08:20"},{"type":"diesel","price":1.958,"self":true,"updatedAt":"26/06/2026 11:08:20"}]},{"id":"36706","lat":40.87040654093987,"lon":14.528144225478172,"name":"LUDOIL","brand":"Pompe Bianche","address":"VIA NOLA SNC 80040, SAN GENNARO VESUVIANO, NA","prices":[{"type":"petrol","price":1.849,"self":true,"updatedAt":"26/06/2026 10:25:20"},{"type":"diesel","price":1.889,"self":true,"updatedAt":"26/06/2026 10:25:20"},{"type":"methane","price":1.31,"self":false,"updatedAt":"26/06/2026 10:25:20"},{"type":"lpg","price":0.729,"self":false,"updatedAt":"26/06/2026 10:25:20"}]},{"id":"55406","lat":40.87530511006041,"lon":14.51541338888549,"name":"MOCCIA CAR SERVICE","brand":"Pompe Bianche","address":"GIUGLIANI II TRATTO SNC 80040, SAN GENNARO VESUVIANO, NA","prices":[{"type":"petrol","price":1.797,"self":true,"updatedAt":"26/06/2026 08:02:59"},{"type":"diesel","price":1.887,"self":true,"updatedAt":"26/06/2026 08:02:59"}]},{"id":"57062","lat":40.84419188373418,"lon":14.531778542327856,"name":"PET - SAN GENNARO","brand":"Esso","address":"COMUNALE CUPA SNC 80040, SAN GENNARO VESUVIANO, NA","prices":[{"type":"petrol","price":1.819,"self":true,"updatedAt":"24/06/2026 20:01:26"},{"type":"diesel","price":1.859,"self":true,"updatedAt":"24/06/2026 20:01:26"},{"type":"lpg","price":0.699,"self":false,"updatedAt":"24/06/2026 20:01:26"}]},{"id":"25377","lat":40.87031871725507,"lon":14.511995315551758,"name":"S.GENNARO VES. S.P.NOLA CASTELLAMMARE","brand":"Q8","address":"S.P.NOLA CASTELLAMMARE  80040, SAN GENNARO VESUVIANO, NA","prices":[{"type":"petrol","price":1.819,"self":true,"updatedAt":"23/06/2026 18:06:04"},{"type":"diesel","price":1.899,"self":true,"updatedAt":"23/06/2026 18:06:04"}]},{"id":"41704","lat":40.82787114973302,"lon":14.51863244175911,"name":"DE.BOIL. SRL","brand":"Pompe Bianche","address":"VIA VASCA AL PIANILLO SNC 80047, SAN GIUSEPPE VESUVIANO, NA","prices":[{"type":"petrol","price":1.829,"self":false,"updatedAt":"24/06/2026 05:32:52"},{"type":"diesel","price":1.859,"self":false,"updatedAt":"24/06/2026 05:32:52"}]},{"id":"37468","lat":40.83324587028888,"lon":14.503602614715192,"name":"EnerGas La Marca Group","brand":"Energas","address":"EUROPA 166 80047, SAN GIUSEPPE VESUVIANO, NA","prices":[{"type":"petrol","price":1.889,"self":true,"updatedAt":"26/06/2026 23:16:02"},{"type":"diesel","price":1.949,"self":true,"updatedAt":"26/06/2026 23:16:02"}]},{"id":"44424","lat":40.8375601872221,"lon":14.525199391192949,"name":"Energi","brand":"Pompe Bianche","address":"via lavinaio secondo tratto 236 80047, SAN GIUSEPPE VESUVIANO, NA","prices":[{"type":"petrol","price":1.839,"self":false,"updatedAt":"25/06/2026 18:26:07"},{"type":"diesel","price":1.869,"self":false,"updatedAt":"25/06/2026 18:26:07"}]},{"id":"26708","lat":40.8335191918491,"lon":14.518822878599167,"name":"Gaetano Boccia","brand":"Esso","address":"PIANILLO 96 80047, SAN GIUSEPPE VESUVIANO, NA","prices":[{"type":"petrol","price":1.819,"self":true,"updatedAt":"25/06/2026 14:08:10"},{"type":"diesel","price":1.859,"self":true,"updatedAt":"25/06/2026 14:08:10"}]},{"id":"51430","lat":40.833306596795104,"lon":14.531052816152563,"name":"MY OIL SQUITIERI VINCENZO","brand":"Pompe Bianche","address":"via lavinaio secondo tratto querce snc 80047, SAN GIUSEPPE VESUVIANO, NA","prices":[{"type":"petrol","price":1.819,"self":true,"updatedAt":"24/06/2026 09:13:10"},{"type":"diesel","price":1.849,"self":true,"updatedAt":"24/06/2026 09:13:10"},{"type":"lpg","price":0.699,"self":false,"updatedAt":"24/06/2026 09:13:10"}]},{"id":"16118","lat":40.82467044660173,"lon":14.509188383817673,"name":"Stazione di servizio AR di Catapano Biagio","brand":"AP Petroli S.R.L.","address":"VIA MARTIRI DI NASSIRYA 95 80047, SAN GIUSEPPE VESUVIANO, NA","prices":[{"type":"petrol","price":1.749,"self":true,"updatedAt":"26/06/2026 13:03:36"},{"type":"diesel","price":1.829,"self":true,"updatedAt":"26/06/2026 13:03:36"}]},{"id":"51220","lat":40.827827710435145,"lon":14.520150991588135,"name":"USAGAS SRL","brand":"Pompe Bianche","address":"VIA VASCA AL PIANILLO SNC 80047, SAN GIUSEPPE VESUVIANO, NA","prices":[{"type":"lpg","price":0.609,"self":false,"updatedAt":"26/06/2026 07:54:23"}]},{"id":"45848","lat":40.91439107308948,"lon":14.50100765244008,"name":"FUELL","brand":"Pompe Bianche","address":"VIA PONTE DI SIRICO 36 80039, SAVIANO, NA","prices":[{"type":"petrol","price":1.849,"self":false,"updatedAt":"26/06/2026 09:28:13"},{"type":"diesel","price":1.899,"self":false,"updatedAt":"26/06/2026 09:28:13"}]},{"id":"53791","lat":40.887317,"lon":14.513941,"name":"GPOWER","brand":"Pit stop","address":"SAN FRANCESCO D'ASSISI 31 80039, SAVIANO, NA","prices":[{"type":"petrol","price":1.799,"self":true,"updatedAt":"26/06/2026 14:37:14"},{"type":"diesel","price":1.859,"self":true,"updatedAt":"26/06/2026 14:37:14"}]},{"id":"31268","lat":40.91204175156891,"lon":14.510554808761299,"name":"Saviano","brand":"Api-Ip","address":"Corso Italia 75 80039, SAVIANO, NA","prices":[{"type":"petrol","price":1.809,"self":true,"updatedAt":"26/06/2026 17:07:08"},{"type":"diesel","price":1.859,"self":true,"updatedAt":"26/06/2026 17:07:08"}]},{"id":"6701","lat":40.90266336687782,"lon":14.511427786508193,"name":"SAVIANO TORRE 39 IMP.Q8","brand":"Q8","address":"TORRE 39 IMP.Q8 SNC 80039, SAVIANO, NA","prices":[{"type":"petrol","price":1.819,"self":true,"updatedAt":"23/06/2026 18:05:58"},{"type":"diesel","price":1.899,"self":true,"updatedAt":"23/06/2026 18:05:58"}]},{"id":"3680","lat":40.826956070989624,"lon":14.568405070114068,"name":"ANGIOINA OVEST","brand":"Tamoil","address":"Autostrada A30 CASERTA-SALERNO, Km. 33+400, dir. Sud - 80040, STRIANO, NA","prices":[{"type":"petrol","price":1.839,"self":true,"updatedAt":"25/06/2026 16:20:49"},{"type":"diesel","price":1.919,"self":true,"updatedAt":"25/06/2026 16:20:49"},{"type":"lpg","price":0.859,"self":false,"updatedAt":"25/06/2026 16:20:49"}]},{"id":"12833","lat":40.81404560002596,"lon":14.5727459530641,"name":"I P","brand":"Api-Ip","address":"VIA D'ANNA 16 80040, STRIANO, NA","prices":[{"type":"petrol","price":1.836,"self":true,"updatedAt":"25/06/2026 20:57:15"},{"type":"diesel","price":1.916,"self":true,"updatedAt":"25/06/2026 20:57:15"}]},{"id":"52997","lat":40.81212228203602,"lon":14.564030170440674,"name":"LUDOIL","brand":"Pompe Bianche","address":"POGGIOMARINO 37 80040, STRIANO, NA","prices":[{"type":"petrol","price":1.819,"self":true,"updatedAt":"25/06/2026 15:33:21"},{"type":"diesel","price":1.819,"self":true,"updatedAt":"25/06/2026 15:33:21"}]},{"id":"54550","lat":40.810264457800805,"lon":14.556701535463539,"name":"VASTOLA CARBURANTI","brand":"Pompe Bianche","address":"POGGIOMARINO SNC 80040, STRIANO, NA","prices":[{"type":"petrol","price":1.839,"self":true,"updatedAt":"22/06/2026 14:42:42"},{"type":"diesel","price":1.829,"self":true,"updatedAt":"22/06/2026 14:42:42"}]},{"id":"54420","lat":40.80540645544569,"lon":14.513804682209019,"name":"Bianco Carburanti","brand":"Pompe Bianche","address":"Via G. Verdi 298 80040, TERZIGNO, NA","prices":[{"type":"petrol","price":1.799,"self":true,"updatedAt":"20/06/2026 06:52:13"},{"type":"diesel","price":1.879,"self":true,"updatedAt":"20/06/2026 06:52:13"}]},{"id":"56391","lat":40.80211,"lon":14.50069,"name":"LIBRONE AMALIA","brand":"Pompe Bianche","address":"ALESSANDRO VOLTA 4 80040, TERZIGNO, NA","prices":[{"type":"petrol","price":1.859,"self":true,"updatedAt":"26/06/2026 14:31:46"},{"type":"diesel","price":1.849,"self":true,"updatedAt":"26/06/2026 14:31:46"}]},{"id":"26702","lat":40.9643245603462,"lon":14.559642027478048,"name":"CANTONE CASA","brand":"Pompe Bianche","address":"VIA PROV.LE PER ROCCARAINOLA, Km. 40  80030, TUFINO, NA","prices":[{"type":"petrol","price":1.859,"self":true,"updatedAt":"25/06/2026 11:27:55"},{"type":"diesel","price":1.899,"self":true,"updatedAt":"25/06/2026 11:27:55"}]},{"id":"58400","lat":40.92317454020824,"lon":14.579106675032302,"name":"Z PETROLI","brand":"Pompe Bianche","address":"LODOVICO IANNICELLI SNC 80030, VISCIANO, NA","prices":[{"type":"petrol","price":1.849,"self":true,"updatedAt":"24/06/2026 18:18:59"},{"type":"diesel","price":1.899,"self":true,"updatedAt":"24/06/2026 18:18:59"}]},{"id":"55527","lat":40.768184,"lon":14.6629385,"name":"TOP STATION sede Bracigliano","brand":"Pompe Bianche","address":"Via Vescovo  Capaccio snc 84082, BRACIGLIANO, SA","prices":[{"type":"petrol","price":1.869,"self":true,"updatedAt":"23/06/2026 16:03:21"},{"type":"diesel","price":1.959,"self":true,"updatedAt":"23/06/2026 16:03:21"}]},{"id":"14426","lat":40.78027755922205,"lon":14.710102242388984,"name":"Impianto Carburanti di Caputo Emiddio","brand":"Pompe Bianche","address":"Via Tenente Bruno Lombardi 179 84083, CASTEL SAN GIORGIO, SA","prices":[{"type":"petrol","price":1.867,"self":false,"updatedAt":"22/06/2026 17:46:49"},{"type":"diesel","price":1.949,"self":false,"updatedAt":"22/06/2026 17:46:49"}]},{"id":"51278","lat":40.77865663214082,"lon":14.69532359516655,"name":"TOP STATION SRL sede CSG","brand":"Pompe Bianche","address":"VIA GUERRASIO 61 84083, CASTEL SAN GIORGIO, SA","prices":[{"type":"petrol","price":1.859,"self":true,"updatedAt":"26/06/2026 15:57:03"},{"type":"diesel","price":1.949,"self":true,"updatedAt":"26/06/2026 15:57:03"}]},{"id":"37111","lat":40.77338856335892,"lon":14.680640626983632,"name":"TOP STATION SRL sede Lanzara","brand":"Pompe Bianche","address":"VIA DANTE ALIGHIERI 36 84083, CASTEL SAN GIORGIO, SA","prices":[{"type":"petrol","price":1.869,"self":true,"updatedAt":"22/06/2026 17:33:57"},{"type":"diesel","price":1.969,"self":true,"updatedAt":"22/06/2026 17:33:57"}]},{"id":"50854","lat":40.772164695898304,"lon":14.687353560001368,"name":"Via R. Ciancio","brand":"Pompe Bianche","address":"VIA CIANCIO snc 84083, CASTEL SAN GIORGIO (SA) 23/BIS 84083, CASTEL SAN GIORGIO, SA","prices":[{"type":"petrol","price":1.849,"self":true,"updatedAt":"26/06/2026 09:38:12"},{"type":"diesel","price":1.949,"self":true,"updatedAt":"26/06/2026 09:38:12"},{"type":"methane","price":1.399,"self":false,"updatedAt":"26/06/2026 09:38:12"},{"type":"lpg","price":0.769,"self":false,"updatedAt":"26/06/2026 09:38:12"}]},{"id":"51881","lat":40.77751327568137,"lon":14.675568726038797,"name":"Via Trieste","brand":"Pompe Bianche","address":"VIA trieste snc 84083, CASTEL SAN GIORGIO (SA)  84083, CASTEL SAN GIORGIO, SA","prices":[{"type":"petrol","price":1.849,"self":true,"updatedAt":"26/06/2026 09:38:42"},{"type":"diesel","price":1.949,"self":true,"updatedAt":"26/06/2026 09:38:42"}]},{"id":"62874","lat":40.775893288379294,"lon":14.691726651821154,"name":"IP CASTEL SANGIORGIO","brand":"Api-Ip","address":"Via Cav.V.D'Auria (SA)  84083, FISCIANO, SA","prices":[{"type":"petrol","price":1.879,"self":true,"updatedAt":"26/06/2026 09:24:08"},{"type":"diesel","price":1.979,"self":true,"updatedAt":"26/06/2026 09:24:08"},{"type":"methane","price":1.399,"self":false,"updatedAt":"26/06/2026 23:56:40"},{"type":"lpg","price":0.779,"self":false,"updatedAt":"26/06/2026 23:56:40"}]},{"id":"28792","lat":40.76933091322356,"lon":14.706541299819946,"name":"bt","brand":"Pompe Bianche","address":"VIA VARIANTE 2 84085, MERCATO SAN SEVERINO, SA","prices":[{"type":"petrol","price":1.849,"self":true,"updatedAt":"26/06/2026 07:28:41"},{"type":"diesel","price":1.919,"self":true,"updatedAt":"26/06/2026 07:28:41"}]},{"id":"45401","lat":40.7690954490153,"lon":14.706609567667329,"name":"BT h24","brand":"Pompe Bianche","address":"VARIANTE 4 84085, MERCATO SAN SEVERINO, SA","prices":[{"type":"petrol","price":1.849,"self":true,"updatedAt":"26/06/2026 07:29:21"},{"type":"diesel","price":1.919,"self":true,"updatedAt":"26/06/2026 07:29:21"}]},{"id":"4246","lat":40.774974595297074,"lon":14.749284982681274,"name":"ditta luigi picarella","brand":"Api-Ip","address":"VIA SPIANO CURTERI SNC  84085, MERCATO SAN SEVERINO, SA","prices":[{"type":"petrol","price":1.976,"self":true,"updatedAt":"26/06/2026 23:57:14"},{"type":"diesel","price":2.016,"self":true,"updatedAt":"26/06/2026 23:57:14"},{"type":"methane","price":1.499,"self":false,"updatedAt":"26/06/2026 23:57:14"},{"type":"lpg","price":0.869,"self":false,"updatedAt":"26/06/2026 23:57:14"}]},{"id":"9630","lat":40.77876711432966,"lon":14.73268747329712,"name":"efuel srl","brand":"Ies","address":"STRADA PROVINCIALE CODOLA S.N.C. 84085, MERCATO SAN SEVERINO, SA","prices":[{"type":"petrol","price":1.899,"self":false,"updatedAt":"24/06/2026 15:09:28"},{"type":"diesel","price":1.949,"self":false,"updatedAt":"24/06/2026 15:09:28"},{"type":"methane","price":1.459,"self":false,"updatedAt":"24/06/2026 15:09:28"}]},{"id":"48958","lat":40.77468298383955,"lon":14.737511377943573,"name":"Eni pv.18907","brand":"Agip Eni","address":"PROV. CAMERELLE - S.P. 4 KM 7+600 84085, MERCATO SAN SEVERINO, SA","prices":[{"type":"petrol","price":1.829,"self":true,"updatedAt":"27/06/2026 00:28:51"},{"type":"diesel","price":1.909,"self":true,"updatedAt":"27/06/2026 00:28:51"}]},{"id":"32989","lat":40.778750042079935,"lon":14.746865495404336,"name":"Stazione di Servizio Mercato San Severino","brand":"Beneco","address":"Via Molino del Pagano snc 84085, MERCATO SAN SEVERINO, SA","prices":[{"type":"petrol","price":1.855,"self":true,"updatedAt":"25/06/2026 17:07:56"},{"type":"diesel","price":1.915,"self":true,"updatedAt":"25/06/2026 17:07:56"},{"type":"lpg","price":0.765,"self":false,"updatedAt":"25/06/2026 17:07:56"}]},{"id":"52606","lat":40.773478741420114,"lon":14.61566999727784,"name":"AREA DI SERVIZIO Q8 RUGGIERO PETROLI SAS","brand":"Q8","address":"Via Padula 36 84014, NOCERA INFERIORE, SA","prices":[{"type":"petrol","price":1.799,"self":true,"updatedAt":"26/06/2026 10:33:26"},{"type":"diesel","price":1.879,"self":true,"updatedAt":"26/06/2026 10:33:26"},{"type":"methane","price":1.495,"self":false,"updatedAt":"26/06/2026 10:33:26"},{"type":"lpg","price":0.795,"self":false,"updatedAt":"26/06/2026 10:33:26"}]},{"id":"45771","lat":40.75002182561649,"lon":14.649439193096782,"name":"BALDI BERNARDO & C.S.A.S.","brand":"Api-Ip","address":"VIA GIOVANNI FALCONE 23 84014, NOCERA INFERIORE, SA","prices":[{"type":"petrol","price":1.799,"self":true,"updatedAt":"26/06/2026 10:00:17"},{"type":"diesel","price":1.869,"self":true,"updatedAt":"26/06/2026 10:00:17"}]},{"id":"53223","lat":40.767497791603965,"lon":14.654372334480286,"name":"CAPALDO ARCANGELO","brand":"Esso","address":"VARIANTE SS.266 NOCERINA 12 84014, NOCERA INFERIORE, SA","prices":[{"type":"petrol","price":1.899,"self":false,"updatedAt":"24/06/2026 08:28:52"},{"type":"diesel","price":1.999,"self":false,"updatedAt":"24/06/2026 08:28:52"},{"type":"methane","price":1.495,"self":false,"updatedAt":"24/06/2026 08:28:52"},{"type":"lpg","price":0.799,"self":false,"updatedAt":"24/06/2026 08:28:52"}]},{"id":"28788","lat":40.7744819874325,"lon":14.626154344844053,"name":"DELLA PORTA CARMINE","brand":"Pompe Bianche","address":"VIA PROVINCIALE NOCERA-SARNO 136 84014, NOCERA INFERIORE, SA","prices":[{"type":"petrol","price":1.899,"self":false,"updatedAt":"22/06/2026 21:07:55"},{"type":"diesel","price":1.919,"self":false,"updatedAt":"22/06/2026 21:07:55"}]},{"id":"58410","lat":40.75882634330973,"lon":14.640568345785141,"name":"FACOMGAS","brand":"Pompe Bianche","address":"VILLANOVA SNC 84014, NOCERA INFERIORE, SA","prices":[{"type":"petrol","price":1.859,"self":true,"updatedAt":"23/06/2026 23:58:14"},{"type":"diesel","price":1.949,"self":true,"updatedAt":"23/06/2026 23:58:14"}]},{"id":"24952","lat":40.7638074245025,"lon":14.653138518333435,"name":"FACOMGAS S.r.l. (Nocera Inf.)","brand":"Pompe Bianche","address":"VIA PETRARCA  84014, NOCERA INFERIORE, SA","prices":[{"type":"petrol","price":1.879,"self":true,"updatedAt":"26/06/2026 16:37:31"},{"type":"diesel","price":1.969,"self":true,"updatedAt":"26/06/2026 16:37:31"},{"type":"methane","price":1.495,"self":false,"updatedAt":"26/06/2026 16:37:31"},{"type":"lpg","price":0.775,"self":false,"updatedAt":"26/06/2026 16:37:31"}]},{"id":"28525","lat":40.76252714468493,"lon":14.65238481760025,"name":"STAZIONE DI RIFORNIMENTO IP PA.SA.","brand":"Api-Ip","address":"VIA PETRARCA 45 84014, NOCERA INFERIORE, SA","prices":[{"type":"petrol","price":1.929,"self":true,"updatedAt":"24/06/2026 15:08:38"},{"type":"diesel","price":1.999,"self":true,"updatedAt":"24/06/2026 15:08:38"}]},{"id":"21864","lat":40.77310100446204,"lon":14.646015912294388,"name":"stazione di servizio Alfonso Santonicola","brand":"Tamoil","address":"VIA FIANO 102 84014, NOCERA INFERIORE, SA","prices":[{"type":"petrol","price":1.919,"self":false,"updatedAt":"15/06/2026 06:27:34"},{"type":"diesel","price":1.999,"self":false,"updatedAt":"15/06/2026 06:27:34"}]},{"id":"54673","lat":40.7527129,"lon":14.6471336,"name":"TAMOIL","brand":"Tamoil","address":"S.ANNA 96 84014, NOCERA INFERIORE, SA","prices":[{"type":"petrol","price":1.829,"self":true,"updatedAt":"22/06/2026 14:09:45"},{"type":"diesel","price":1.899,"self":true,"updatedAt":"22/06/2026 14:09:45"}]},{"id":"58769","lat":40.7699456,"lon":14.6702336,"name":"Top Station Nocera Inferiore","brand":"Pompe Bianche","address":"Via Isaia Gabola snc 84014, NOCERA INFERIORE, SA","prices":[{"type":"petrol","price":1.759,"self":true,"updatedAt":"23/06/2026 16:05:35"},{"type":"diesel","price":1.829,"self":true,"updatedAt":"23/06/2026 16:05:35"}]},{"id":"58654","lat":40.75329746043246,"lon":14.649768996711714,"name":"Varoil","brand":"Pompe Bianche","address":"Via Giovanni Falcone 94  84014, NOCERA INFERIORE, SA","prices":[{"type":"petrol","price":1.919,"self":true,"updatedAt":"17/06/2026 15:49:52"},{"type":"diesel","price":1.969,"self":true,"updatedAt":"17/06/2026 15:49:52"}]},{"id":"43012","lat":40.75216493623717,"lon":14.687774399388308,"name":"BALDI BERNARDO","brand":"Api-Ip","address":"VIA FEDERICO RICCO SNC 84015, NOCERA SUPERIORE, SA","prices":[{"type":"petrol","price":1.855,"self":false,"updatedAt":"26/06/2026 10:00:31"},{"type":"diesel","price":1.955,"self":false,"updatedAt":"26/06/2026 10:00:31"}]},{"id":"58870","lat":40.752894447603005,"lon":14.66926394127809,"name":"Santa Maria","brand":"Pompe Bianche","address":"Via S. Maria delle Grazie 140 84015, NOCERA SUPERIORE, SA","prices":[{"type":"petrol","price":1.819,"self":true,"updatedAt":"26/06/2026 18:55:25"},{"type":"diesel","price":1.899,"self":true,"updatedAt":"26/06/2026 18:55:25"},{"type":"methane","price":1.385,"self":false,"updatedAt":"26/06/2026 18:55:25"},{"type":"lpg","price":0.729,"self":false,"updatedAt":"26/06/2026 18:55:25"}]},{"id":"53988","lat":40.7699456,"lon":14.6735104,"name":"TOP STATION SRL  sede NS","brand":"Pompe Bianche","address":"Via della Libertà- fraz. Pecorari  73 84015, NOCERA SUPERIORE, SA","prices":[{"type":"petrol","price":1.829,"self":true,"updatedAt":"24/06/2026 17:57:58"},{"type":"diesel","price":1.919,"self":true,"updatedAt":"24/06/2026 17:57:58"}]},{"id":"49857","lat":40.755019758641126,"lon":14.608788183872585,"name":"STAROIL Via Filettine","brand":"Pompe Bianche","address":"VIA FILETTINE 118 84016, PAGANI, SA","prices":[{"type":"petrol","price":1.749,"self":true,"updatedAt":"26/06/2026 13:25:35"},{"type":"diesel","price":1.819,"self":true,"updatedAt":"26/06/2026 13:25:35"}]},{"id":"28298","lat":40.75153343863095,"lon":14.619114696979523,"name":"ENERGAS","brand":"Q8","address":"VIA MANGIONI 1 84016, PAGANI, SA","prices":[{"type":"petrol","price":1.885,"self":true,"updatedAt":"22/06/2026 16:31:44"},{"type":"diesel","price":1.965,"self":true,"updatedAt":"22/06/2026 16:31:44"}]},{"id":"20971","lat":40.7535128869219,"lon":14.61111232638359,"name":"F.S. PETROLI S.R.L.","brand":"Agip Eni","address":"VIA PADRE VINCENZO SORRENTINO SNC 84016, PAGANI, SA","prices":[{"type":"petrol","price":1.824,"self":true,"updatedAt":"26/06/2026 23:52:28"},{"type":"diesel","price":1.904,"self":true,"updatedAt":"26/06/2026 23:52:28"}]},{"id":"5643","lat":40.755152155426124,"lon":14.592188000679016,"name":"Multicarburante di Maresca Anna & C. s.n.c.","brand":"Agip Eni","address":"Via Taurano 128 84016, PAGANI, SA","prices":[{"type":"petrol","price":1.825,"self":true,"updatedAt":"26/06/2026 23:58:49"},{"type":"diesel","price":1.914,"self":true,"updatedAt":"26/06/2026 23:58:49"},{"type":"methane","price":1.469,"self":false,"updatedAt":"26/06/2026 23:58:49"},{"type":"lpg","price":0.769,"self":false,"updatedAt":"26/06/2026 23:58:49"}]},{"id":"50920","lat":40.75241567036497,"lon":14.598368931985153,"name":"Pegaso Carburanti Pagani","brand":"Pompe Bianche","address":"Via Taurano 123 84016, PAGANI, SA","prices":[{"type":"petrol","price":1.829,"self":true,"updatedAt":"24/06/2026 08:44:19"},{"type":"diesel","price":1.849,"self":true,"updatedAt":"24/06/2026 08:44:19"},{"type":"lpg","price":0.769,"self":false,"updatedAt":"24/06/2026 08:44:19"}]},{"id":"43011","lat":40.75954714245201,"lon":14.69288004662701,"name":"BALDI BERNARDO & C.S.A.S.","brand":"Pompe Bianche","address":"VIA DELLA LIBERTA' 63 84086, ROCCAPIEMONTE, SA","prices":[{"type":"petrol","price":1.859,"self":false,"updatedAt":"26/06/2026 10:00:09"},{"type":"diesel","price":1.949,"self":false,"updatedAt":"26/06/2026 10:00:09"}]},{"id":"56981","lat":40.7695357,"lon":14.6704544,"name":"TOP STATION ROCCAPIEMONTE","brand":"Pompe Bianche","address":"Via della Libertà SNC 84086, ROCCAPIEMONTE, SA","prices":[{"type":"petrol","price":1.829,"self":true,"updatedAt":"24/06/2026 17:56:10"},{"type":"diesel","price":1.919,"self":true,"updatedAt":"24/06/2026 17:56:10"}]},{"id":"47669","lat":40.77709121761687,"lon":14.591359582207755,"name":"stazione di servizio bellacosa alfredo","brand":"Pompe Bianche","address":"VIA PIAVE 106 84010, SAN MARZANO SUL SARNO, SA","prices":[{"type":"petrol","price":1.799,"self":true,"updatedAt":"22/06/2026 14:08:21"},{"type":"diesel","price":1.859,"self":true,"updatedAt":"22/06/2026 14:08:21"}]},{"id":"29345","lat":40.78672217336834,"lon":14.621578339978441,"name":"ADINOLFI SRL STAZ. SERVIZIO Q8","brand":"Q8","address":"VIA PROVINCIALE 133 84010, SAN VALENTINO TORIO, SA","prices":[{"type":"petrol","price":1.879,"self":true,"updatedAt":"26/06/2026 06:06:35"},{"type":"diesel","price":1.879,"self":true,"updatedAt":"26/06/2026 06:06:35"}]},{"id":"57187","lat":40.78373234315129,"lon":14.610143343716446,"name":"AMATRUDO CIRO","brand":"Esso","address":"ZECCAGNUOLO 114 84010, SAN VALENTINO TORIO, SA","prices":[{"type":"petrol","price":1.839,"self":true,"updatedAt":"24/06/2026 12:11:10"},{"type":"diesel","price":1.899,"self":true,"updatedAt":"24/06/2026 12:11:10"},{"type":"lpg","price":0.769,"self":false,"updatedAt":"24/06/2026 12:11:10"}]},{"id":"35752","lat":40.7881311,"lon":14.6000336,"name":"GT-FUEL (S.VALENTINO TORIO)","brand":"GT-FUEL","address":"CESINA 78 84010, SAN VALENTINO TORIO, SA","prices":[{"type":"petrol","price":1.789,"self":true,"updatedAt":"26/06/2026 16:48:48"},{"type":"diesel","price":1.849,"self":true,"updatedAt":"26/06/2026 16:48:47"}]},{"id":"13494","lat":40.79552600094498,"lon":14.60153775267554,"name":"IP","brand":"Api-Ip","address":"VIA SOTTOSANTI 40 84010, SAN VALENTINO TORIO, SA","prices":[{"type":"petrol","price":1.869,"self":true,"updatedAt":"25/06/2026 21:11:19"},{"type":"diesel","price":1.919,"self":true,"updatedAt":"25/06/2026 21:11:19"}]},{"id":"31815","lat":40.79242573664654,"lon":14.593898510689542,"name":"ISMAN PETROLEUM","brand":"Pompe Bianche","address":"VIA VETICE 13 84010, SAN VALENTINO TORIO, SA","prices":[{"type":"petrol","price":1.859,"self":true,"updatedAt":"24/06/2026 08:50:32"},{"type":"diesel","price":1.899,"self":true,"updatedAt":"24/06/2026 08:50:32"}]},{"id":"60145","lat":40.81535200996804,"lon":14.607481956481934,"name":"Cielle Carburanti","brand":"Api-Ip","address":"SARNO-STRIANO 52 84087, SARNO, SA","prices":[{"type":"petrol","price":1.849,"self":true,"updatedAt":"19/06/2026 19:11:42"},{"type":"diesel","price":1.939,"self":true,"updatedAt":"19/06/2026 19:11:42"}]},{"id":"18849","lat":40.81181822198798,"lon":14.619951620376582,"name":"IMPIANTO","brand":"Pompe Bianche","address":"MARCONI 5 84087, SARNO, SA","prices":[{"type":"petrol","price":1.695,"self":true,"updatedAt":"25/06/2026 16:32:35"},{"type":"diesel","price":1.782,"self":true,"updatedAt":"25/06/2026 16:32:36"}]},{"id":"55706","lat":40.790539361516956,"lon":14.648436605930328,"name":"PEPE FUEL","brand":"Pompe Bianche","address":"SAN MARINO-F.LAVORATE-A.V. 108 84087, SARNO, SA","prices":[{"type":"petrol","price":1.899,"self":true,"updatedAt":"26/06/2026 10:19:25"},{"type":"diesel","price":1.899,"self":true,"updatedAt":"26/06/2026 10:19:25"}]},{"id":"56011","lat":40.80922,"lon":14.59265,"name":"PET - SARNO","brand":"Esso","address":"SP74  84087, SARNO, SA","prices":[{"type":"petrol","price":1.839,"self":true,"updatedAt":"26/06/2026 15:35:00"},{"type":"diesel","price":1.899,"self":true,"updatedAt":"26/06/2026 15:35:00"},{"type":"lpg","price":0.749,"self":false,"updatedAt":"26/06/2026 15:35:00"}]},{"id":"20297","lat":40.806991418981085,"lon":14.617112054027416,"name":"SARNO","brand":"Pompe Bianche","address":"VIA VIA PROVINCIALE G.AMENDOLA SNC 84087, SARNO (SA) SNC 84087, SARNO, SA","prices":[{"type":"petrol","price":1.899,"self":true,"updatedAt":"20/06/2026 11:41:26"},{"type":"diesel","price":1.989,"self":true,"updatedAt":"20/06/2026 11:41:26"}]},{"id":"46770","lat":40.805797000123,"lon":14.613734000123,"name":"UP - SARNO","brand":"UP","address":"VIA VIA SAN VALENTINO SNC 84087, SARNO (SA) SNC 84087, SARNO, SA","prices":[{"type":"petrol","price":1.849,"self":true,"updatedAt":"25/06/2026 13:09:12"},{"type":"diesel","price":1.899,"self":true,"updatedAt":"25/06/2026 13:09:12"}]},{"id":"58826","lat":40.75666,"lon":14.53715,"name":"28932 SCAFATI","brand":"Agip Eni","address":"Via Terze  84018, SCAFATI, SA","prices":[{"type":"petrol","price":1.824,"self":true,"updatedAt":"27/06/2026 00:30:17"},{"type":"diesel","price":1.889,"self":true,"updatedAt":"27/06/2026 07:36:11"}]},{"id":"52667","lat":40.7653258,"lon":14.5538858,"name":"A. PETROLI SRL","brand":"Pompe Bianche","address":"POGGIOMARINO 318 84018, SCAFATI, SA","prices":[{"type":"petrol","price":1.819,"self":true,"updatedAt":"24/06/2026 09:04:12"},{"type":"diesel","price":1.819,"self":true,"updatedAt":"24/06/2026 09:04:12"}]},{"id":"40883","lat":40.751968031802626,"lon":14.52107514283989,"name":"AFIERO MICHELE","brand":"Loro","address":"VIA MARTIRI D'UNGHERIA 101 84018, SCAFATI, SA","prices":[{"type":"petrol","price":1.897,"self":true,"updatedAt":"24/06/2026 16:44:27"},{"type":"diesel","price":1.958,"self":true,"updatedAt":"24/06/2026 16:44:27"}]},{"id":"34239","lat":40.762234569257394,"lon":14.549692429938432,"name":"ANNARUMMA BIANCA","brand":"Pompe Bianche","address":"VIA ORTALONGA 87 84018, SCAFATI, SA","prices":[{"type":"petrol","price":1.99,"self":false,"updatedAt":"26/06/2026 20:16:38"},{"type":"diesel","price":2.02,"self":false,"updatedAt":"26/06/2026 20:16:38"},{"type":"methane","price":1.331,"self":false,"updatedAt":"26/06/2026 20:16:38"},{"type":"lpg","price":0.74,"self":false,"updatedAt":"26/06/2026 20:16:38"}]},{"id":"46282","lat":40.76145869786863,"lon":14.519029453570738,"name":"Eurogas","brand":"Pompe Bianche","address":"VIA G.B. CASCIELLO SNC 84018, SCAFATI, SA","prices":[{"type":"petrol","price":1.829,"self":true,"updatedAt":"20/06/2026 07:55:40"},{"type":"diesel","price":1.939,"self":true,"updatedAt":"20/06/2026 07:55:40"},{"type":"methane","price":1.349,"self":false,"updatedAt":"20/06/2026 07:55:40"},{"type":"lpg","price":0.789,"self":false,"updatedAt":"20/06/2026 07:55:40"}]},{"id":"59012","lat":40.75511612456466,"lon":14.52959227423969,"name":"MI.SA. CARBURANT ISNC","brand":"Agip Eni","address":"A.DE GASPERI 47 84018, SCAFATI, SA","prices":[{"type":"petrol","price":1.914,"self":true,"updatedAt":"23/06/2026 17:26:12"},{"type":"diesel","price":1.814,"self":true,"updatedAt":"23/06/2026 17:26:12"}]},{"id":"22998","lat":40.7726643749555,"lon":14.544185959663423,"name":"Pegaso Carburanti","brand":"Pompe Bianche","address":"Via Alfonso Annunziata SNC 84018, SCAFATI, SA","prices":[{"type":"petrol","price":1.829,"self":false,"updatedAt":"25/06/2026 11:06:02"},{"type":"diesel","price":1.849,"self":false,"updatedAt":"25/06/2026 11:06:02"},{"type":"lpg","price":0.679,"self":false,"updatedAt":"25/06/2026 11:06:01"}]},{"id":"56961","lat":40.76596745019975,"lon":14.517707887191804,"name":"PET - SCAFATI","brand":"Esso","address":"VIA PASSANTI 267 84018, SCAFATI, SA","prices":[{"type":"petrol","price":1.819,"self":true,"updatedAt":"26/06/2026 17:42:46"},{"type":"diesel","price":1.899,"self":true,"updatedAt":"26/06/2026 17:42:46"},{"type":"lpg","price":0.679,"self":false,"updatedAt":"26/06/2026 17:42:46"}]},{"id":"53742","lat":40.8044003,"lon":14.5538858,"name":"QUEEN PETROLI","brand":"Bianco Carburanti","address":"VIA LO PORTO , REAL VALLE SNC 84018, SCAFATI, SA","prices":[{"type":"petrol","price":1.829,"self":true,"updatedAt":"25/06/2026 17:09:34"},{"type":"diesel","price":1.899,"self":true,"updatedAt":"25/06/2026 17:09:34"},{"type":"lpg","price":0.679,"self":false,"updatedAt":"25/06/2026 17:09:34"}]},{"id":"57381","lat":40.7539059,"lon":14.5207191,"name":"SCAFATI  VIA LUIGI CAVALLARO","brand":"Q8","address":"Via Luigi Cavallaro sn 84018, SCAFATI, SA","prices":[{"type":"petrol","price":1.849,"self":true,"updatedAt":"26/06/2026 16:38:29"},{"type":"diesel","price":1.929,"self":true,"updatedAt":"26/06/2026 16:38:29"}]},{"id":"6739","lat":40.77428223475604,"lon":14.54173958283809,"name":"SCAFATI VIA S.P.21 KM 2","brand":"Q8","address":"VIA S.P.21 KM 2 SNC 84018, SCAFATI, SA","prices":[{"type":"petrol","price":1.829,"self":true,"updatedAt":"24/06/2026 16:37:25"},{"type":"diesel","price":1.838,"self":true,"updatedAt":"24/06/2026 16:37:25"}]},{"id":"6738","lat":40.7591448349824,"lon":14.522836018420094,"name":"SCAFATI VIA S.P.UNGARO","brand":"Q8","address":"VIA S.P.UNGARO SNC 84018, SCAFATI, SA","prices":[{"type":"petrol","price":1.839,"self":true,"updatedAt":"26/06/2026 16:07:41"},{"type":"diesel","price":1.919,"self":true,"updatedAt":"26/06/2026 16:07:41"}]},{"id":"55606","lat":40.796510188849886,"lon":14.704224271469121,"name":"FACOMGAS","brand":"Pompe Bianche","address":"KENNEDY 26 84088, SIANO, SA","prices":[{"type":"petrol","price":1.879,"self":false,"updatedAt":"23/06/2026 23:58:07"},{"type":"diesel","price":1.969,"self":false,"updatedAt":"23/06/2026 23:58:07"},{"type":"lpg","price":0.775,"self":false,"updatedAt":"23/06/2026 23:58:07"}]},{"id":"51055","lat":40.79478080990169,"lon":14.698933105340119,"name":"RV TRUCK - SIANO","brand":"Pompe Bianche","address":"VIA ZAMBRANO snc 84088, SIANO (SA) 169 84088, SIANO, SA","prices":[{"type":"petrol","price":1.819,"self":true,"updatedAt":"26/06/2026 18:53:28"},{"type":"diesel","price":1.899,"self":true,"updatedAt":"26/06/2026 18:53:29"}]},{"id":"54502","lat":40.80259558784415,"lon":14.698760701223378,"name":"STAROIL","brand":"Pompe Bianche","address":"EUROPA 54 84088, SIANO, SA","prices":[{"type":"petrol","price":1.879,"self":true,"updatedAt":"20/06/2026 08:15:30"},{"type":"diesel","price":1.969,"self":true,"updatedAt":"20/06/2026 08:15:30"}]}]