[{"id":"55905","lat":40.875549,"lon":14.444935,"name":"MEGA FUEL SRL","brand":"AF Petroli","address":"S.S. APPIA SNC 82018, SAN GIORGIO DEL SANNIO, BN","prices":[{"type":"petrol","price":1.899,"self":true,"updatedAt":"26/06/2026 07:15:38"},{"type":"diesel","price":1.899,"self":true,"updatedAt":"26/06/2026 07:15:38"}]},{"id":"57753","lat":40.8649728,"lon":14.270464,"name":"CAPUA","brand":"Api-Ip","address":"STRADA STATALE 7 APPIA KM 203 +374 SNC 81043, CAPUA, CE","prices":[{"type":"petrol","price":1.817,"self":true,"updatedAt":"26/06/2026 13:28:29"},{"type":"diesel","price":1.917,"self":true,"updatedAt":"26/06/2026 13:28:29"},{"type":"methane","price":1.449,"self":false,"updatedAt":"26/06/2026 13:28:29"}]},{"id":"56174","lat":40.7535616,"lon":14.341291,"name":"DISTRIBUTORE ESSO CUTILLO","brand":"Esso","address":"Viale Alberto Beneduce snc 81100, CASERTA, CE","prices":[{"type":"petrol","price":1.829,"self":false,"updatedAt":"28/06/2026 21:30:17"},{"type":"diesel","price":1.919,"self":false,"updatedAt":"28/06/2026 21:30:17"}]},{"id":"39278","lat":40.99145883361825,"lon":14.281416539695783,"name":"Easy Service Orta di Atella","brand":"Energas","address":"S.P. Orta di Atella - Marcianise S.N.C.  81030, ORTA DI ATELLA, CE","prices":[{"type":"petrol","price":1.799,"self":true,"updatedAt":"29/06/2026 00:50:27"},{"type":"diesel","price":1.899,"self":true,"updatedAt":"29/06/2026 00:50:27"},{"type":"lpg","price":0.749,"self":false,"updatedAt":"30/06/2026 00:21:47"}]},{"id":"32544","lat":40.97506646673391,"lon":14.276027977466583,"name":"TOTAL ERG SARRACINO PETROLI","brand":"Api-Ip","address":"7 bis di Terra di Lavoro, Km. 15+35, direziona nola - 81030, ORTA DI ATELLA, CE","prices":[{"type":"petrol","price":1.814,"self":true,"updatedAt":"29/06/2026 07:13:12"},{"type":"diesel","price":1.914,"self":true,"updatedAt":"29/06/2026 07:13:11"},{"type":"lpg","price":0.699,"self":false,"updatedAt":"29/06/2026 07:13:12"}]},{"id":"22948","lat":40.983910501492545,"lon":14.44845512509346,"name":"Centro Gas","brand":"Pompe Bianche","address":"STRADA PROVINCIALE POLVICA SNC 81027, SAN FELICE A CANCELLO, CE","prices":[{"type":"petrol","price":1.879,"self":true,"updatedAt":"29/06/2026 09:53:02"},{"type":"diesel","price":1.939,"self":true,"updatedAt":"29/06/2026 09:53:02"},{"type":"lpg","price":0.729,"self":false,"updatedAt":"29/06/2026 09:53:02"}]},{"id":"56489","lat":40.948989717917364,"lon":14.253058903027345,"name":"IP","brand":"Api-Ip","address":"MARTIRI ATELLANI 49 81030, SANT'ARPINO, CE","prices":[{"type":"petrol","price":1.799,"self":true,"updatedAt":"25/06/2026 11:12:08"},{"type":"diesel","price":1.899,"self":true,"updatedAt":"25/06/2026 11:12:08"}]},{"id":"60303","lat":40.95048961352258,"lon":14.253807740757138,"name":"MECK OIL - S.ARPINO","brand":"Pompe Bianche","address":"ALESSANDRO VOLTA SNC 81030, SANT'ARPINO, CE","prices":[{"type":"petrol","price":1.999,"self":true,"updatedAt":"29/06/2026 12:42:41"},{"type":"diesel","price":1.899,"self":true,"updatedAt":"29/06/2026 12:42:41"}]},{"id":"59387","lat":40.962898817910144,"lon":14.262544512748718,"name":"NATALE CARBURANTI SANT'ARPINO","brand":"Pompe Bianche","address":"ROTONDELLA 267 81030, SANT'ARPINO, CE","prices":[{"type":"petrol","price":1.789,"self":true,"updatedAt":"29/06/2026 08:42:44"},{"type":"diesel","price":1.889,"self":true,"updatedAt":"29/06/2026 08:42:44"}]},{"id":"15401","lat":40.97552048616645,"lon":14.261425188946532,"name":"BRP","brand":"Pompe Bianche","address":"Via Astragata SNC, Succivo, Caserta, Italy  81030, SUCCIVO, CE","prices":[{"type":"petrol","price":1.799,"self":true,"updatedAt":"27/06/2026 21:30:12"},{"type":"diesel","price":1.899,"self":true,"updatedAt":"27/06/2026 21:30:12"},{"type":"lpg","price":0.699,"self":false,"updatedAt":"27/06/2026 21:30:12"}]},{"id":"43647","lat":40.96857903788038,"lon":14.261868224536897,"name":"DI MARSILIO ANTONIO","brand":"Esso","address":"VIA CASERTA 25 81030, SUCCIVO, CE","prices":[{"type":"petrol","price":1.799,"self":true,"updatedAt":"25/06/2026 13:01:32"},{"type":"diesel","price":1.899,"self":true,"updatedAt":"25/06/2026 13:01:32"}]},{"id":"41921","lat":40.96680189023389,"lon":14.258250812850974,"name":"PERROTTA CLAUDIO","brand":"Bianco Carburanti","address":"CORSO SICILIA  36 81030, SUCCIVO, CE","prices":[{"type":"petrol","price":1.789,"self":false,"updatedAt":"27/06/2026 11:51:55"},{"type":"diesel","price":1.889,"self":false,"updatedAt":"27/06/2026 11:51:55"}]},{"id":"57205","lat":40.985846,"lon":14.251103,"name":"Stazione di Servizio Q8 Succivo","brand":"Q8","address":"S.S.7 Bis km 15+700  81030, SUCCIVO, CE","prices":[{"type":"petrol","price":1.799,"self":true,"updatedAt":"29/06/2026 23:38:05"},{"type":"diesel","price":1.899,"self":true,"updatedAt":"29/06/2026 23:38:05"},{"type":"lpg","price":0.699,"self":false,"updatedAt":"29/06/2026 23:38:05"}]},{"id":"32873","lat":40.966221265925505,"lon":14.260538892030695,"name":"SUCCIVO - MARCONI","brand":"Api-Ip","address":"VIA MARCONI 5 81100, SUCCIVO, CE","prices":[{"type":"petrol","price":1.799,"self":true,"updatedAt":"29/06/2026 09:03:21"},{"type":"diesel","price":1.899,"self":true,"updatedAt":"29/06/2026 09:03:21"}]},{"id":"54038","lat":40.8485888,"lon":14.4867328,"name":"GOIL CARUNCHIO","brand":"Pompe Bianche","address":"Via Provinciale  66050, CARUNCHIO, CH","prices":[{"type":"petrol","price":1.929,"self":true,"updatedAt":"29/06/2026 16:55:12"},{"type":"diesel","price":1.999,"self":true,"updatedAt":"29/06/2026 16:55:12"}]},{"id":"55310","lat":40.775425,"lon":14.47516,"name":"Q8","brand":"Q8","address":"PIAZZA ALDO MORO SNC 71021, ACCADIA, FG","prices":[{"type":"petrol","price":1.969,"self":true,"updatedAt":"16/06/2026 07:20:26"},{"type":"diesel","price":2.079,"self":true,"updatedAt":"16/06/2026 07:20:26"}]},{"id":"53706","lat":40.886331,"lon":14.2695735,"name":"IP","brand":"Api-Ip","address":"S.P. AUSENTE KM. 9,910 . 04021, CASTELFORTE, LT","prices":[{"type":"petrol","price":1.889,"self":true,"updatedAt":"24/06/2026 09:24:01"},{"type":"diesel","price":1.959,"self":true,"updatedAt":"24/06/2026 09:24:01"}]},{"id":"59692","lat":40.92732,"lon":14.359031,"name":"59353 ACERRA","brand":"Agip Eni","address":"STRADA STATALE  162 KM 3+848  SNC, ACERRA, NA","prices":[{"type":"petrol","price":1.824,"self":true,"updatedAt":"30/06/2026 00:15:59"},{"type":"diesel","price":1.889,"self":true,"updatedAt":"30/06/2026 00:15:59"},{"type":"methane","price":1.465,"self":false,"updatedAt":"29/06/2026 23:29:46"}]},{"id":"59605","lat":40.939594,"lon":14.368146,"name":"8013 ACERRA","brand":"Agip Eni","address":"CORSO ITALIA  SNC, ACERRA, NA","prices":[{"type":"petrol","price":1.824,"self":true,"updatedAt":"29/06/2026 23:43:28"},{"type":"diesel","price":1.889,"self":true,"updatedAt":"29/06/2026 23:43:28"}]},{"id":"16789","lat":40.962290376521054,"lon":14.428237974643707,"name":"Acerra","brand":"Api-Ip","address":"S.S.7 BIS - KM. 31,482 S.C. 80011, ACERRA, NA","prices":[{"type":"petrol","price":1.819,"self":true,"updatedAt":"29/06/2026 07:26:03"},{"type":"diesel","price":1.869,"self":true,"updatedAt":"29/06/2026 07:26:03"}]},{"id":"53862","lat":40.9488695,"lon":14.3817818,"name":"ACERRA CORSO VITTORIO EMANUELE, 168","brand":"Q8","address":"VITTORIO EMANUELE II N 198 80011, ACERRA, NA","prices":[{"type":"petrol","price":1.969,"self":true,"updatedAt":"27/06/2026 08:39:40"},{"type":"diesel","price":1.889,"self":true,"updatedAt":"27/06/2026 08:39:40"}]},{"id":"43084","lat":40.95814079541084,"lon":14.37202722453685,"name":"Agip","brand":"Agip Eni","address":"VIA MOLINO VECCHIO 32 80011, ACERRA, NA","prices":[{"type":"petrol","price":1.823,"self":true,"updatedAt":"29/06/2026 23:40:59"},{"type":"diesel","price":1.889,"self":true,"updatedAt":"29/06/2026 23:40:59"},{"type":"lpg","price":0.776,"self":false,"updatedAt":"29/06/2026 23:40:59"}]},{"id":"42321","lat":40.961351,"lon":14.3657666,"name":"ALT CARBURANTI","brand":"Pompe Bianche","address":"Via degli Etruschi 25 80011, ACERRA, NA","prices":[{"type":"petrol","price":1.849,"self":false,"updatedAt":"24/06/2026 07:33:32"},{"type":"diesel","price":1.899,"self":false,"updatedAt":"24/06/2026 07:33:32"},{"type":"lpg","price":0.699,"self":false,"updatedAt":"24/06/2026 07:33:31"}]},{"id":"17580","lat":40.9218335,"lon":14.3733038,"name":"DE.PI.","brand":"Pompe Bianche","address":"Via Aria di Settembre  80011, ACERRA, NA","prices":[{"type":"petrol","price":1.765,"self":true,"updatedAt":"29/06/2026 14:32:03"},{"type":"diesel","price":1.859,"self":true,"updatedAt":"29/06/2026 14:32:03"},{"type":"methane","price":1.499,"self":false,"updatedAt":"29/06/2026 14:32:03"},{"type":"lpg","price":0.689,"self":false,"updatedAt":"29/06/2026 14:32:03"}]},{"id":"53928","lat":40.972916,"lon":14.412031,"name":"IP / ITALIANA PETROLI","brand":"Api-Ip","address":"VIA DEI SANNITI 145/147 80011, ACERRA, NA","prices":[{"type":"petrol","price":1.819,"self":true,"updatedAt":"26/06/2026 23:57:37"},{"type":"diesel","price":1.919,"self":true,"updatedAt":"26/06/2026 23:57:37"},{"type":"lpg","price":0.699,"self":false,"updatedAt":"26/06/2026 23:57:37"}]},{"id":"20677","lat":40.94743853686717,"lon":14.366717487573624,"name":"MG CARBURANTI DI DE CHIARA G. E DE CHIARA M. S.N.C.","brand":"Pompe Bianche","address":"CORSO DELLA RESISTENZA 152 80011, ACERRA, NA","prices":[{"type":"petrol","price":1.849,"self":true,"updatedAt":"29/06/2026 21:49:58"},{"type":"diesel","price":1.899,"self":true,"updatedAt":"29/06/2026 21:49:58"}]},{"id":"61457","lat":40.93628,"lon":14.37101,"name":"SP FUEL","brand":"Pompe Bianche","address":"Via Giuseppe di Vittorio 73 80011, ACERRA, NA","prices":[{"type":"petrol","price":1.819,"self":true,"updatedAt":"26/06/2026 08:51:31"},{"type":"diesel","price":1.885,"self":true,"updatedAt":"26/06/2026 08:51:31"},{"type":"lpg","price":0.695,"self":true,"updatedAt":"26/06/2026 08:51:31"}]},{"id":"9884","lat":40.9562872876271,"lon":14.36212956905365,"name":"STAR OIL DISTRIBUTORE CARBURANTI","brand":"Pompe Bianche","address":"VIA DE GASPERI 35 80011, ACERRA, NA","prices":[{"type":"petrol","price":1.819,"self":false,"updatedAt":"29/06/2026 13:11:30"},{"type":"diesel","price":1.889,"self":false,"updatedAt":"29/06/2026 13:11:30"}]},{"id":"54744","lat":40.93373,"lon":14.30983,"name":"AD PETROLI SRL","brand":"Pompe Bianche","address":"SICILIA SNC 80021, AFRAGOLA, NA","prices":[{"type":"petrol","price":1.759,"self":true,"updatedAt":"29/06/2026 12:37:32"},{"type":"diesel","price":1.859,"self":true,"updatedAt":"29/06/2026 12:37:32"},{"type":"lpg","price":0.699,"self":true,"updatedAt":"29/06/2026 12:37:32"}]},{"id":"52319","lat":40.919400437782485,"lon":14.323402883258693,"name":"AGIP 018148","brand":"Agip Eni","address":"VIA  PROVINCIALE SAN MARCO  80021, AFRAGOLA, NA","prices":[{"type":"petrol","price":1.784,"self":true,"updatedAt":"29/06/2026 23:16:39"},{"type":"diesel","price":1.829,"self":true,"updatedAt":"30/06/2026 07:58:04"}]},{"id":"42403","lat":40.92039715802028,"lon":14.307874053474052,"name":"CPETROLI","brand":"Pompe Bianche","address":"CORSO ENRICO DE NICOLA 2 80021, AFRAGOLA, NA","prices":[{"type":"petrol","price":1.809,"self":true,"updatedAt":"29/06/2026 09:54:43"},{"type":"diesel","price":1.839,"self":true,"updatedAt":"29/06/2026 09:54:43"}]},{"id":"24752","lat":40.93129376948571,"lon":14.351913034915924,"name":"CPM AFRAGOLA","brand":"Pompe Bianche","address":"VIA MARZIA SEPE SC 80021, AFRAGOLA, NA","prices":[{"type":"petrol","price":1.759,"self":true,"updatedAt":"26/06/2026 15:40:30"},{"type":"diesel","price":1.849,"self":true,"updatedAt":"26/06/2026 15:40:30"},{"type":"methane","price":1.43,"self":false,"updatedAt":"26/06/2026 15:40:30"},{"type":"lpg","price":0.679,"self":false,"updatedAt":"26/06/2026 15:40:30"}]},{"id":"13186","lat":40.92847474908711,"lon":14.3096628968201,"name":"CRISPINO LUIGI & C. s.n.c.","brand":"Pompe Bianche","address":"ALCIDE DE GASPERI 110 80021, AFRAGOLA, NA","prices":[{"type":"petrol","price":1.789,"self":true,"updatedAt":"26/06/2026 18:04:38"},{"type":"diesel","price":1.859,"self":true,"updatedAt":"26/06/2026 18:04:38"}]},{"id":"44496","lat":40.944712021326595,"lon":14.303855895996094,"name":"ESSO","brand":"Esso","address":"VIA COM.LE VIOTTOLO DEI SERPI SNC 80021, AFRAGOLA, NA","prices":[{"type":"petrol","price":1.799,"self":true,"updatedAt":"29/06/2026 14:07:04"},{"type":"diesel","price":1.879,"self":true,"updatedAt":"29/06/2026 14:07:05"},{"type":"methane","price":1.599,"self":false,"updatedAt":"29/06/2026 14:07:04"},{"type":"lpg","price":0.699,"self":false,"updatedAt":"29/06/2026 14:07:04"}]},{"id":"48749","lat":40.92498209306916,"lon":14.304020845403667,"name":"esso","brand":"Esso","address":"VIA DARIO FIORE 61 80021, AFRAGOLA, NA","prices":[{"type":"petrol","price":1.819,"self":true,"updatedAt":"30/06/2026 07:06:55"},{"type":"diesel","price":1.869,"self":true,"updatedAt":"30/06/2026 07:06:55"}]},{"id":"61320","lat":40.92979978845533,"lon":14.350383635581986,"name":"GOFUEL","brand":"Pompe Bianche","address":"STRADA STATALE, KM. 27+300, NOLA  80021, AFRAGOLA, NA","prices":[{"type":"petrol","price":1.799,"self":true,"updatedAt":"26/06/2026 08:50:58"},{"type":"diesel","price":1.849,"self":true,"updatedAt":"26/06/2026 08:50:58"}]},{"id":"56203","lat":40.901429112959434,"lon":14.32958333435057,"name":"IP","brand":"Itala Petroli","address":"S.S. 162 KM.0,730 S.N.C. 80021, AFRAGOLA, NA","prices":[{"type":"petrol","price":1.819,"self":false,"updatedAt":"29/06/2026 10:55:50"},{"type":"diesel","price":1.899,"self":false,"updatedAt":"29/06/2026 10:55:50"}]},{"id":"42086","lat":40.93462082759129,"lon":14.301087856292725,"name":"IP","brand":"Api-Ip","address":"87 Sannitica, Km. 10,040, Napoli  80021, AFRAGOLA, NA","prices":[{"type":"petrol","price":1.799,"self":false,"updatedAt":"29/06/2026 10:55:35"},{"type":"diesel","price":1.879,"self":false,"updatedAt":"29/06/2026 10:55:35"}]},{"id":"57767","lat":40.919901,"lon":14.3135427,"name":"OSCAR DISTRIBUZIONE ( C FUEL )","brand":"4.0","address":"Piazza Castello SNC 80021, AFRAGOLA, NA","prices":[{"type":"petrol","price":1.999,"self":true,"updatedAt":"25/06/2026 22:30:36"},{"type":"diesel","price":1.839,"self":true,"updatedAt":"25/06/2026 22:30:36"}]},{"id":"43367","lat":40.921300160915735,"lon":14.345534744892618,"name":"ROIL","brand":"Pompe Bianche","address":"VIA SAGGESE SNC 80021, AFRAGOLA, NA","prices":[{"type":"petrol","price":1.779,"self":true,"updatedAt":"28/06/2026 22:00:17"},{"type":"diesel","price":1.859,"self":true,"updatedAt":"28/06/2026 22:00:17"},{"type":"methane","price":1.659,"self":false,"updatedAt":"28/06/2026 22:00:17"},{"type":"lpg","price":0.749,"self":false,"updatedAt":"28/06/2026 22:00:17"}]},{"id":"27853","lat":40.92684578451861,"lon":14.299802244705234,"name":"Salzano Antonio","brand":"Pompe Bianche","address":"VIA DARIO FIORE 131 80021, AFRAGOLA, NA","prices":[{"type":"petrol","price":1.759,"self":true,"updatedAt":"25/06/2026 19:57:15"},{"type":"diesel","price":1.859,"self":true,"updatedAt":"25/06/2026 19:57:15"}]},{"id":"16173","lat":40.92684392956943,"lon":14.299805886438776,"name":"Salzano Giovanni & figlio sas","brand":"Api-Ip","address":"DARIO FIORE 133 80021, AFRAGOLA, NA","prices":[{"type":"petrol","price":1.759,"self":true,"updatedAt":"28/06/2026 18:38:15"},{"type":"diesel","price":1.859,"self":true,"updatedAt":"28/06/2026 18:38:15"}]},{"id":"61110","lat":40.91079669661009,"lon":14.252041521148682,"name":"AREA SERVIZIO ESSO","brand":"Esso","address":"CIRCUMVALLAZIONE ESTERNA KM 20+500 SNC 80022, ARZANO, NA","prices":[{"type":"petrol","price":1.849,"self":true,"updatedAt":"26/06/2026 17:27:23"},{"type":"diesel","price":1.939,"self":true,"updatedAt":"26/06/2026 17:27:23"},{"type":"lpg","price":0.719,"self":false,"updatedAt":"26/06/2026 17:27:23"}]},{"id":"11735","lat":40.91677567789187,"lon":14.274977784061434,"name":"ARZANO-RETTIFILO AL BRAVO","brand":"Q8","address":"RETTIFILO AL BRAVO S/N 80022, ARZANO, NA","prices":[{"type":"petrol","price":1.769,"self":true,"updatedAt":"29/06/2026 16:36:01"},{"type":"diesel","price":1.869,"self":true,"updatedAt":"29/06/2026 16:36:01"}]},{"id":"31941","lat":40.90419284727805,"lon":14.264139086008072,"name":"AUTOSTAZIONE CANCELLO CARLO","brand":"Esso","address":"VIA CIRC.NE ARZANO SNC 80022, ARZANO, NA","prices":[{"type":"petrol","price":1.869,"self":true,"updatedAt":"29/06/2026 16:34:19"},{"type":"diesel","price":1.959,"self":true,"updatedAt":"29/06/2026 16:34:19"}]},{"id":"43902","lat":40.91803496306746,"lon":14.273615775115998,"name":"IP 45373 - Arzano","brand":"Api-Ip","address":"VIA REMO DE FEO 4 80022, ARZANO, NA","prices":[{"type":"petrol","price":1.776,"self":true,"updatedAt":"27/06/2026 16:13:44"},{"type":"diesel","price":1.876,"self":true,"updatedAt":"27/06/2026 16:13:44"}]},{"id":"36774","lat":40.91951308758025,"lon":14.266842304090929,"name":"La Cava Carburanti - Arzano","brand":"Pompe Bianche","address":"VIA A. PECCHIA SNC 80022, ARZANO, NA","prices":[{"type":"petrol","price":1.779,"self":false,"updatedAt":"27/06/2026 16:11:51"},{"type":"diesel","price":1.879,"self":false,"updatedAt":"27/06/2026 16:11:51"},{"type":"lpg","price":0.699,"self":false,"updatedAt":"27/06/2026 16:11:51"}]},{"id":"48457","lat":40.91623163920552,"lon":14.259299588954931,"name":"OCEANIA (ARZANO)","brand":"Oceania","address":"VIA DON SEBASTIANO DE ROSA SNC 80022, ARZANO, NA","prices":[{"type":"petrol","price":1.759,"self":true,"updatedAt":"24/06/2026 19:00:43"},{"type":"diesel","price":1.859,"self":true,"updatedAt":"24/06/2026 19:00:43"}]},{"id":"25273","lat":40.906906845069386,"lon":14.276156723499298,"name":"PV 8086","brand":"Agip Eni","address":"CORSO S.D'AMATO LOC.RETTIFILO 20, 80022 - -, ARZANO, NA","prices":[{"type":"petrol","price":1.789,"self":true,"updatedAt":"29/06/2026 00:48:09"},{"type":"diesel","price":1.824,"self":true,"updatedAt":"29/06/2026 00:48:09"}]},{"id":"62249","lat":40.91627580000001,"lon":14.2692411,"name":"SP PETROLI","brand":"Pompe Bianche","address":"Via Sette Re 5  80022, ARZANO, NA","prices":[{"type":"petrol","price":1.759,"self":true,"updatedAt":"29/06/2026 18:19:44"},{"type":"diesel","price":1.859,"self":true,"updatedAt":"29/06/2026 18:19:44"}]},{"id":"14148","lat":40.90736822170591,"lon":14.259292334318161,"name":"stazione Esso icel sas di Migliaccio","brand":"Esso","address":"VIA ATELLANA 14 80022, ARZANO, NA","prices":[{"type":"petrol","price":1.879,"self":false,"updatedAt":"30/06/2026 06:29:13"},{"type":"diesel","price":1.979,"self":false,"updatedAt":"30/06/2026 06:29:13"}]},{"id":"6706","lat":40.775989040825344,"lon":14.492576750926219,"name":"BOSCOREALE SS.268 KM.27 IMP.Q8","brand":"Q8","address":"SS.268 KM.27 IMP.Q8 SNC 80041, BOSCOREALE, NA","prices":[{"type":"petrol","price":1.819,"self":true,"updatedAt":"29/06/2026 16:35:59"},{"type":"diesel","price":1.839,"self":true,"updatedAt":"29/06/2026 16:35:59"}]},{"id":"59314","lat":40.76617952623268,"lon":14.46981153958095,"name":"EASY SERVICE SRL BOSCOREALE","brand":"Energas","address":"Via Settetermini snc 80041, BOSCOREALE, NA","prices":[{"type":"petrol","price":1.829,"self":true,"updatedAt":"29/06/2026 23:19:07"},{"type":"diesel","price":1.859,"self":true,"updatedAt":"29/06/2026 23:19:07"},{"type":"lpg","price":0.699,"self":false,"updatedAt":"29/06/2026 23:19:07"}]},{"id":"54421","lat":40.775938984422616,"lon":14.49696061226848,"name":"Stazione EASY FUEL di Pascale Filomena","brand":"Pompe Bianche","address":"PARRELLA 19 80041, BOSCOREALE, NA","prices":[{"type":"petrol","price":1.849,"self":true,"updatedAt":"27/06/2026 20:48:46"},{"type":"diesel","price":1.859,"self":true,"updatedAt":"27/06/2026 20:48:46"}]},{"id":"12642","lat":40.77694806456933,"lon":14.498139023780823,"name":"TAMOIL DI ALIBERTI VITTORIO 4588","brand":"Tamoil","address":"VIA PASSANTI  107 80041, BOSCOREALE, NA","prices":[{"type":"petrol","price":1.789,"self":true,"updatedAt":"29/06/2026 14:05:22"},{"type":"diesel","price":1.859,"self":true,"updatedAt":"29/06/2026 14:05:22"}]},{"id":"40335","lat":40.76970186414686,"lon":14.459966760747875,"name":"Api Ip","brand":"Api-Ip","address":"TENENTE LUIGI ROSSI 45 80042, BOSCOTRECASE, NA","prices":[{"type":"petrol","price":1.799,"self":true,"updatedAt":"26/06/2026 09:07:50"},{"type":"diesel","price":1.859,"self":true,"updatedAt":"26/06/2026 09:07:50"}]},{"id":"39975","lat":40.77272375051156,"lon":14.467321195106479,"name":"AR.CI PETROLI SAS DI CIVALE GIUSEPPE & C.","brand":"7sette","address":"via Cardinal Prisco 83 80042, BOSCOTRECASE, NA","prices":[{"type":"petrol","price":1.767,"self":true,"updatedAt":"25/06/2026 09:46:44"},{"type":"diesel","price":1.817,"self":true,"updatedAt":"25/06/2026 09:46:44"}]},{"id":"31992","lat":40.7689204763078,"lon":14.466066509485245,"name":"Energas","brand":"Pompe Bianche","address":"via nazionale  80042, BOSCOTRECASE, NA","prices":[{"type":"petrol","price":1.829,"self":true,"updatedAt":"25/06/2026 15:41:33"},{"type":"diesel","price":1.859,"self":true,"updatedAt":"25/06/2026 15:41:32"}]},{"id":"52991","lat":40.767015854932346,"lon":14.461350242135072,"name":"GAS AUTO","brand":"Energas","address":"PASTRENGO 44 80042, BOSCOTRECASE, NA","prices":[{"type":"petrol","price":1.829,"self":true,"updatedAt":"28/06/2026 17:43:18"},{"type":"diesel","price":1.859,"self":true,"updatedAt":"28/06/2026 17:43:18"},{"type":"lpg","price":0.699,"self":false,"updatedAt":"28/06/2026 17:43:18"}]},{"id":"42809","lat":40.762702468546806,"lon":14.455216974020004,"name":"IP","brand":"Api-Ip","address":"VIA SEPOLCRI S.N. 80042, BOSCOTRECASE, NA","prices":[{"type":"petrol","price":1.779,"self":true,"updatedAt":"25/06/2026 11:49:41"},{"type":"diesel","price":1.879,"self":true,"updatedAt":"25/06/2026 11:49:41"}]},{"id":"60536","lat":40.9075712,"lon":14.4244736,"name":"ANGI CARBURANTI","brand":"Pompe Bianche","address":"Via Guido De Ruggiero  80031, BRUSCIANO, NA","prices":[{"type":"petrol","price":1.89,"self":true,"updatedAt":"26/06/2026 20:03:19"},{"type":"diesel","price":1.91,"self":true,"updatedAt":"26/06/2026 20:03:19"},{"type":"lpg","price":0.799,"self":false,"updatedAt":"26/06/2026 20:03:19"}]},{"id":"42525","lat":40.922835450021324,"lon":14.431956857442856,"name":"EURO DISTRIBUZIONI CARBURANTI SRL","brand":"Pompe Bianche","address":"VIA C. CUCCA  SNC 80031, BRUSCIANO, NA","prices":[{"type":"petrol","price":1.778,"self":false,"updatedAt":"29/06/2026 13:49:29"},{"type":"diesel","price":1.828,"self":false,"updatedAt":"29/06/2026 13:49:29"},{"type":"lpg","price":0.708,"self":false,"updatedAt":"29/06/2026 13:49:29"}]},{"id":"54855","lat":40.92284647653992,"lon":14.431950365551751,"name":"ip brusciano","brand":"Api-Ip","address":"CAMILLO CUCCA 392 80031, BRUSCIANO, NA","prices":[{"type":"petrol","price":1.859,"self":true,"updatedAt":"29/06/2026 14:16:35"},{"type":"diesel","price":1.919,"self":true,"updatedAt":"29/06/2026 14:16:35"}]},{"id":"62023","lat":40.927891,"lon":14.419974,"name":"PAPA FUEL S.R.L.","brand":"Pompe Bianche","address":"ELEONORA FONSECA PIMENTEL 6 80031, BRUSCIANO, NA","prices":[{"type":"petrol","price":1.789,"self":true,"updatedAt":"27/06/2026 21:53:52"},{"type":"diesel","price":1.799,"self":true,"updatedAt":"27/06/2026 21:53:52"}]},{"id":"54227","lat":40.98033200554364,"lon":14.311836808919907,"name":"caivano","brand":"Esso","address":"PROV. 498 EX SS. SANNITICA 87 KM15,578 80023, CAIVANO, NA","prices":[{"type":"petrol","price":1.817,"self":true,"updatedAt":"29/06/2026 14:47:22"},{"type":"diesel","price":1.868,"self":true,"updatedAt":"29/06/2026 14:47:22"},{"type":"methane","price":1.575,"self":false,"updatedAt":"29/06/2026 14:47:22"},{"type":"lpg","price":0.686,"self":false,"updatedAt":"29/06/2026 14:47:22"}]},{"id":"28044","lat":40.9632405083603,"lon":14.307010728836076,"name":"CAIVANO - S.S. 87 KM 13,480","brand":"Api-Ip","address":"Statale 87 Sannitica, Km. 13,480, dir. NAPOLI - 80023, CAIVANO, NA","prices":[{"type":"petrol","price":1.779,"self":true,"updatedAt":"29/06/2026 09:03:25"},{"type":"diesel","price":1.879,"self":true,"updatedAt":"29/06/2026 09:03:25"}]},{"id":"51276","lat":40.949442548318544,"lon":14.302432538623066,"name":"IP","brand":"Api-Ip","address":"CORSO UMBERTO 17 80023, CAIVANO, NA","prices":[{"type":"petrol","price":1.779,"self":true,"updatedAt":"26/06/2026 09:14:33"},{"type":"diesel","price":1.879,"self":true,"updatedAt":"26/06/2026 09:14:33"}]},{"id":"31905","lat":40.997719694602644,"lon":14.318498745560646,"name":"Q8","brand":"Q8","address":"VIA PROV.498 EX SS SANNITICA  80023, CAIVANO, NA","prices":[{"type":"petrol","price":1.793,"self":true,"updatedAt":"29/06/2026 12:36:43"},{"type":"diesel","price":1.861,"self":true,"updatedAt":"29/06/2026 12:36:43"}]},{"id":"60834","lat":40.99547,"lon":14.31794,"name":"Q8","brand":"Q8","address":"PROV.LE 498 KM17+300 SNC 80023, CAIVANO, NA","prices":[{"type":"petrol","price":1.758,"self":true,"updatedAt":"29/06/2026 20:53:12"},{"type":"diesel","price":1.828,"self":true,"updatedAt":"29/06/2026 20:53:12"},{"type":"lpg","price":0.684,"self":false,"updatedAt":"29/06/2026 20:53:12"}]},{"id":"28161","lat":40.958610442664636,"lon":14.306846559047699,"name":"RI.AL.GA. PETROLI SAS","brand":"Agip Eni","address":"CORSO UMBERTO KM 12,900  80023, CAIVANO, NA","prices":[{"type":"petrol","price":1.829,"self":true,"updatedAt":"30/06/2026 00:26:32"},{"type":"diesel","price":1.879,"self":true,"updatedAt":"30/06/2026 00:26:32"}]},{"id":"38134","lat":40.94033678958917,"lon":14.303525320376593,"name":"Easy Service Cardito","brand":"Energas","address":"VIALE X MAGGIO  SNC 80024, CARDITO, NA","prices":[{"type":"petrol","price":1.779,"self":true,"updatedAt":"29/06/2026 00:52:23"},{"type":"diesel","price":1.879,"self":true,"updatedAt":"29/06/2026 00:52:23"}]},{"id":"41439","lat":40.9448143335362,"lon":14.299116432666779,"name":"EG ITALIA","brand":"Esso","address":"87 Sannitica, Km. 11.217, napoli - 80024, CARDITO, NA","prices":[{"type":"petrol","price":1.799,"self":true,"updatedAt":"25/06/2026 11:57:25"},{"type":"diesel","price":1.879,"self":true,"updatedAt":"25/06/2026 11:57:25"}]},{"id":"44197","lat":40.92943490029547,"lon":14.293616258930196,"name":"EURO CARBURANTI","brand":"Pompe Bianche","address":"CORSO ITALIA ANG. VIA PALERMO SNC 80024, CARDITO, NA","prices":[{"type":"petrol","price":1.759,"self":true,"updatedAt":"25/06/2026 19:58:11"},{"type":"diesel","price":1.859,"self":true,"updatedAt":"25/06/2026 19:58:11"},{"type":"methane","price":1.699,"self":false,"updatedAt":"25/06/2026 19:58:11"},{"type":"lpg","price":0.689,"self":false,"updatedAt":"25/06/2026 19:58:11"}]},{"id":"16073","lat":40.94322867055087,"lon":14.284775984731255,"name":"TOTALERG","brand":"Api-Ip","address":"VIA NUOVA BELVEDERE 157 80024, CARDITO, NA","prices":[{"type":"petrol","price":1.999,"self":true,"updatedAt":"29/06/2026 07:54:36"},{"type":"diesel","price":1.998,"self":true,"updatedAt":"29/06/2026 07:54:36"}]},{"id":"24753","lat":40.91173661597967,"lon":14.360486501991318,"name":"CPM CASALNUOVO","brand":"Pompe Bianche","address":"VIALE DEI TIGLI 782 80013, CASALNUOVO DI NAPOLI, NA","prices":[{"type":"petrol","price":1.799,"self":true,"updatedAt":"26/06/2026 15:40:35"},{"type":"diesel","price":1.899,"self":true,"updatedAt":"26/06/2026 15:40:35"},{"type":"methane","price":1.63,"self":false,"updatedAt":"26/06/2026 15:40:35"},{"type":"lpg","price":0.659,"self":false,"updatedAt":"26/06/2026 15:40:35"}]},{"id":"38747","lat":40.90041641829387,"lon":14.337139427661896,"name":"Easy Service Casalnuovo Meridiana","brand":"Q8","address":"Via Vecchia Nazionale delle Puglie SNC 80013, CASALNUOVO DI NAPOLI, NA","prices":[{"type":"petrol","price":1.769,"self":true,"updatedAt":"29/06/2026 00:21:17"},{"type":"diesel","price":1.89,"self":true,"updatedAt":"29/06/2026 00:21:17"}]},{"id":"38713","lat":40.90404850849062,"lon":14.35089647769928,"name":"Easy Service Via Arcora","brand":"Energas","address":"via arcora snc 80013, CASALNUOVO DI NAPOLI, NA","prices":[{"type":"petrol","price":1.799,"self":true,"updatedAt":"30/06/2026 00:25:16"},{"type":"diesel","price":1.889,"self":true,"updatedAt":"30/06/2026 00:25:16"},{"type":"lpg","price":0.659,"self":false,"updatedAt":"29/06/2026 00:21:30"}]},{"id":"51712","lat":40.90194435913628,"lon":14.341196850595276,"name":"ESSO","brand":"Esso","address":"PROF. FILIPPO MANNA 17 80013, CASALNUOVO DI NAPOLI, NA","prices":[{"type":"petrol","price":1.818,"self":true,"updatedAt":"25/06/2026 11:14:20"},{"type":"diesel","price":1.888,"self":true,"updatedAt":"25/06/2026 11:14:20"}]},{"id":"54043","lat":40.90974,"lon":14.36175,"name":"MERLINO CARBURANTI 2","brand":"Pompe Bianche","address":"VIALE DEI PLATANI  SNC 80013, CASALNUOVO DI NAPOLI, NA","prices":[{"type":"petrol","price":1.799,"self":false,"updatedAt":"29/06/2026 09:41:12"},{"type":"diesel","price":1.899,"self":false,"updatedAt":"29/06/2026 09:41:12"},{"type":"lpg","price":0.659,"self":false,"updatedAt":"29/06/2026 09:41:12"}]},{"id":"59559","lat":40.896121602541356,"lon":14.349366536794275,"name":"P.Petroli - Casalnuovo","brand":"Pompe Bianche","address":"Via Bolla, CASALNUOVO DI NAPOLI, NA","prices":[{"type":"petrol","price":1.769,"self":true,"updatedAt":"30/06/2026 06:35:42"},{"type":"diesel","price":1.89,"self":true,"updatedAt":"30/06/2026 06:35:42"},{"type":"lpg","price":0.699,"self":true,"updatedAt":"30/06/2026 06:35:42"}]},{"id":"48084","lat":40.918213906205224,"lon":14.359996693865783,"name":"PAKO CARBURANTI SRL","brand":"Pompe Bianche","address":"VIA SIVIGLIA snc 80013, CASALNUOVO DI NAPOLI, NA","prices":[{"type":"petrol","price":1.799,"self":true,"updatedAt":"26/06/2026 16:15:23"},{"type":"diesel","price":1.899,"self":true,"updatedAt":"26/06/2026 16:15:23"},{"type":"lpg","price":0.659,"self":false,"updatedAt":"26/06/2026 16:15:23"}]},{"id":"34851","lat":40.89696619390302,"lon":14.354470521211624,"name":"Q8 - Energas","brand":"Q8","address":"VIA FILICHITO 37 80013, CASALNUOVO DI NAPOLI, NA","prices":[{"type":"petrol","price":1.789,"self":true,"updatedAt":"30/06/2026 00:10:53"},{"type":"diesel","price":1.909,"self":true,"updatedAt":"30/06/2026 00:10:53"},{"type":"lpg","price":0.699,"self":false,"updatedAt":"30/06/2026 00:05:27"}]},{"id":"53070","lat":40.922734332974734,"lon":14.35908019109275,"name":"RUOTOLO PETROLI","brand":"Pompe Bianche","address":"VIA SIVIGLIA SNC 80013, CASALNUOVO DI NAPOLI (NA) SC 80013, CASALNUOVO DI NAPOLI, NA","prices":[{"type":"petrol","price":1.778,"self":true,"updatedAt":"26/06/2026 19:48:29"},{"type":"diesel","price":1.858,"self":true,"updatedAt":"26/06/2026 19:48:29"},{"type":"lpg","price":0.659,"self":false,"updatedAt":"26/06/2026 19:48:29"}]},{"id":"15902","lat":40.917703298373304,"lon":14.250720124606346,"name":"pit stop carburante sas","brand":"Pompe Bianche","address":"via paolo borsellino 200 80025, CASANDRINO, NA","prices":[{"type":"petrol","price":1.839,"self":true,"updatedAt":"27/06/2026 14:56:05"},{"type":"diesel","price":1.899,"self":true,"updatedAt":"27/06/2026 14:56:05"},{"type":"lpg","price":0.699,"self":false,"updatedAt":"27/06/2026 14:56:05"}]},{"id":"53564","lat":40.89819018314719,"lon":14.277453054119267,"name":"Q8 di FERRARIO Francesco","brand":"Q8","address":"GUGLIELMO MARCONI 110 80020, CASAVATORE, NA","prices":[{"type":"petrol","price":1.869,"self":true,"updatedAt":"27/06/2026 10:16:01"},{"type":"diesel","price":1.899,"self":true,"updatedAt":"27/06/2026 10:16:01"}]},{"id":"42376","lat":40.893851911513394,"lon":14.278422260713228,"name":"STAZIONE CASAVATORE","brand":"Pompe Bianche","address":"MARCONI 209 80020, CASAVATORE, NA","prices":[{"type":"petrol","price":1.814,"self":true,"updatedAt":"29/06/2026 19:58:41"},{"type":"diesel","price":1.879,"self":true,"updatedAt":"29/06/2026 19:58:41"}]},{"id":"42479","lat":40.89610105495309,"lon":14.294319953372906,"name":"B & A S.A.S DI FRANZESE PASQUALE","brand":"Italiana Carburanti","address":"CIRCUMVALLAZIONE ESTERNA SNC 80026, CASORIA, NA","prices":[{"type":"petrol","price":1.899,"self":true,"updatedAt":"29/06/2026 09:36:45"},{"type":"diesel","price":1.899,"self":true,"updatedAt":"29/06/2026 09:36:45"}]},{"id":"29071","lat":40.883618858465454,"lon":14.319015987627381,"name":"BENZINA - GASOLIO - HIQ CASORIA","brand":"Q8","address":"VIA DELLE PUGLIE 176/A 80026, CASORIA, NA","prices":[{"type":"petrol","price":1.819,"self":true,"updatedAt":"29/06/2026 18:54:03"},{"type":"diesel","price":1.899,"self":true,"updatedAt":"29/06/2026 18:54:03"}]},{"id":"29726","lat":40.92404121584755,"lon":14.296560555819724,"name":"CASORIA  SS SANNITICA 87 PAL.RUSSO","brand":"Q8","address":"SS SANNITICA 87 PAL.RUSSO  80026, CASORIA, NA","prices":[{"type":"petrol","price":1.779,"self":true,"updatedAt":"23/06/2026 18:05:57"},{"type":"diesel","price":1.859,"self":true,"updatedAt":"23/06/2026 18:05:57"}]},{"id":"62705","lat":40.886358130713596,"lon":14.317010790109634,"name":"CITTADELLA","brand":"Sarni Oil","address":"A1 MILANO-NAPOLI, Km. 755,700, SUD - 80026, CASORIA, NA","prices":[{"type":"diesel","price":1.899,"self":true,"updatedAt":"29/06/2026 09:39:31"}]},{"id":"41853","lat":40.886358130713596,"lon":14.317010790109634,"name":"CITTADELLA","brand":"Sarni Oil","address":"A1 MILANO-NAPOLI, Km. 755,700, SUD - 80026, CASORIA, NA","prices":[{"type":"petrol","price":1.859,"self":true,"updatedAt":"29/06/2026 06:30:09"},{"type":"diesel","price":1.959,"self":true,"updatedAt":"29/06/2026 10:00:07"},{"type":"lpg","price":0.759,"self":false,"updatedAt":"29/06/2026 06:30:20"}]},{"id":"61125","lat":40.89695037978537,"lon":14.303829073905904,"name":"DELTA PETROLI SRL CASORIA","brand":"Italiana Carburanti","address":"Via Circumvallazione Esterna 63  80026, CASORIA, NA","prices":[{"type":"petrol","price":1.839,"self":false,"updatedAt":"25/06/2026 16:10:17"},{"type":"diesel","price":1.899,"self":false,"updatedAt":"25/06/2026 16:10:17"}]},{"id":"36891","lat":40.904909265926584,"lon":14.306100904941559,"name":"drpetroli","brand":"Pompe Bianche","address":"VIA VIA BOCCACCIO SNC 80026, CASORIA (NA) snc 80026, CASORIA, NA","prices":[{"type":"petrol","price":1.789,"self":true,"updatedAt":"25/06/2026 22:07:35"},{"type":"diesel","price":1.889,"self":true,"updatedAt":"25/06/2026 22:07:35"},{"type":"lpg","price":0.689,"self":true,"updatedAt":"25/06/2026 22:07:35"}]},{"id":"48033","lat":40.89587429614623,"lon":14.29590151653291,"name":"Energas Spa","brand":"Energas","address":"VIA CIRCUMVALLAZIONE ESTERNA 24/26 80026, CASORIA, NA","prices":[{"type":"petrol","price":1.829,"self":true,"updatedAt":"30/06/2026 00:11:09"},{"type":"diesel","price":1.899,"self":true,"updatedAt":"30/06/2026 00:11:09"},{"type":"lpg","price":0.689,"self":false,"updatedAt":"30/06/2026 00:05:38"}]},{"id":"62521","lat":40.8862205,"lon":14.3205451,"name":"EOIL  4P","brand":"Pompe Bianche","address":"Via Nazionale delle Puglie 27  80026, CASORIA, NA","prices":[{"type":"petrol","price":1.799,"self":true,"updatedAt":"27/06/2026 08:58:47"},{"type":"diesel","price":1.899,"self":true,"updatedAt":"27/06/2026 08:58:48"}]},{"id":"35061","lat":40.896588681646804,"lon":14.329589009284973,"name":"Eurocarb srl","brand":"Esso","address":"VIA NAZIONALE DELLE PUGLIE KM 34+923 80026, CASORIA (NA)  80026, CASORIA, NA","prices":[{"type":"petrol","price":1.799,"self":true,"updatedAt":"29/06/2026 19:32:18"},{"type":"diesel","price":1.899,"self":true,"updatedAt":"29/06/2026 19:32:18"}]},{"id":"11285","lat":40.905396106582586,"lon":14.294157857880464,"name":"Giuseppe Campece","brand":"Agip Eni","address":"VIA A. DIAZ  80026, CASORIA, NA","prices":[{"type":"petrol","price":1.829,"self":true,"updatedAt":"30/06/2026 00:28:53"},{"type":"diesel","price":1.889,"self":true,"updatedAt":"30/06/2026 07:24:07"}]},{"id":"5295","lat":40.883934189888485,"lon":14.31889528822171,"name":"GPL CASORIA","brand":"Energas","address":"VIA DELLE PUGLIE 176/A 80026, CASORIA, NA","prices":[{"type":"lpg","price":0.699,"self":false,"updatedAt":"27/06/2026 09:43:11"}]},{"id":"3515","lat":40.891888397344644,"lon":14.318506530094282,"name":"MASSERIA EST","brand":"Q8","address":"Autostrada A1 MILANO-NAPOLI, Km. 754+000, dir. Nord - 80026, CASORIA, NA","prices":[{"type":"petrol","price":1.944,"self":true,"updatedAt":"29/06/2026 06:00:08"},{"type":"diesel","price":2.044,"self":true,"updatedAt":"29/06/2026 06:00:09"}]},{"id":"17704","lat":40.902248283429614,"lon":14.285856963458855,"name":"mauro e pasquale ciaramella snc","brand":"Esso","address":"VIA PRINCIPE DI PIEMONTE 38 80026, CASORIA (NA) 38 80026, CASORIA, NA","prices":[{"type":"petrol","price":1.779,"self":true,"updatedAt":"29/06/2026 06:12:40"},{"type":"diesel","price":1.849,"self":true,"updatedAt":"29/06/2026 06:12:40"}]},{"id":"61187","lat":40.8834791,"lon":14.3191171,"name":"METANO CASORIA","brand":"Pompe Bianche","address":"Viale delle Puglie 176/A 73055, CASORIA, NA","prices":[{"type":"methane","price":1.599,"self":false,"updatedAt":"27/06/2026 09:43:25"}]},{"id":"46730","lat":40.91233049813255,"lon":14.287055748886928,"name":"OCEANIA (CASORIA)","brand":"Oceania","address":"VIA PIETRO NENNI SNC 80026, CASORIA, NA","prices":[{"type":"petrol","price":1.759,"self":true,"updatedAt":"24/06/2026 19:00:30"},{"type":"diesel","price":1.859,"self":true,"updatedAt":"24/06/2026 19:00:30"},{"type":"lpg","price":0.689,"self":true,"updatedAt":"24/06/2026 19:00:30"}]},{"id":"42534","lat":40.9205732629621,"lon":14.415920072912286,"name":"DR CARBURANTI","brand":"Pompe Bianche","address":"VIA PAOLO BORSELLINO SNC 80030, CASTELLO DI CISTERNA, NA","prices":[{"type":"petrol","price":1.799,"self":false,"updatedAt":"27/06/2026 10:43:58"},{"type":"diesel","price":1.849,"self":false,"updatedAt":"27/06/2026 10:43:58"},{"type":"methane","price":1.799,"self":false,"updatedAt":"27/06/2026 10:43:58"},{"type":"lpg","price":0.699,"self":false,"updatedAt":"27/06/2026 10:43:58"}]},{"id":"58691","lat":40.93554532530145,"lon":14.408920751794433,"name":"Napoli - Castello di Cisterna","brand":"Api-Ip","address":"N. Snc, Ss 162 Km 3+650, 80030 Castello di Cisterna NA  80030, CASTELLO DI CISTERNA, NA","prices":[{"type":"petrol","price":1.819,"self":true,"updatedAt":"29/06/2026 09:08:23"},{"type":"diesel","price":1.869,"self":true,"updatedAt":"29/06/2026 09:08:23"}]},{"id":"37166","lat":40.9089513921984,"lon":14.412757605314255,"name":"P. PETROLI - Castello di Cisterna","brand":"Pompe Bianche","address":"VIA XI SETTEMBRE 272 80030, CASTELLO DI CISTERNA, NA","prices":[{"type":"petrol","price":1.769,"self":true,"updatedAt":"30/06/2026 06:35:32"},{"type":"diesel","price":1.89,"self":true,"updatedAt":"30/06/2026 06:35:32"},{"type":"lpg","price":0.699,"self":false,"updatedAt":"30/06/2026 06:35:32"}]},{"id":"22051","lat":40.91443685556678,"lon":14.4024458527565,"name":"RO.AL.SA.CE. DI CELLA MARIO & C SAS","brand":"Agip Eni","address":"S.S. 7 BIS APPIA KM 41.200  80030, CASTELLO DI CISTERNA, NA","prices":[{"type":"petrol","price":1.829,"self":true,"updatedAt":"29/06/2026 23:19:36"},{"type":"diesel","price":1.889,"self":true,"updatedAt":"29/06/2026 18:52:09"}]},{"id":"62922","lat":40.8501221,"lon":14.3571524,"name":"IP-41131","brand":"Api-Ip","address":"Via Europa 54  80040, CERCOLA, NA","prices":[{"type":"petrol","price":1.809,"self":true,"updatedAt":"28/06/2026 08:11:54"},{"type":"diesel","price":1.899,"self":true,"updatedAt":"28/06/2026 08:11:54"}]},{"id":"34266","lat":40.850842865916164,"lon":14.35477368832585,"name":"TAMOIL di Romano Lucia","brand":"Tamoil","address":"VIA EUROPA 26 80040, CERCOLA, NA","prices":[{"type":"petrol","price":1.799,"self":true,"updatedAt":"29/06/2026 00:13:26"},{"type":"diesel","price":1.899,"self":true,"updatedAt":"29/06/2026 00:13:26"}]},{"id":"18094","lat":40.94835180733347,"lon":14.282879680395126,"name":"DORANTOIL SAS","brand":"Esso","address":"CRISPANO - FRATTAMAGGIORE S.N.C. 80020, CRISPANO, NA","prices":[{"type":"petrol","price":1.779,"self":true,"updatedAt":"29/06/2026 09:30:45"},{"type":"diesel","price":1.859,"self":true,"updatedAt":"29/06/2026 09:30:45"}]},{"id":"36173","lat":40.95971152764272,"lon":14.290754646062851,"name":"MECK OIL CRISPANO","brand":"Pompe Bianche","address":"STR.PROVINCIALE AVERSA-CAIVANO SNC 80020, CRISPANO, NA","prices":[{"type":"petrol","price":1.999,"self":true,"updatedAt":"29/06/2026 12:42:33"},{"type":"diesel","price":1.899,"self":true,"updatedAt":"29/06/2026 12:42:33"}]},{"id":"50396","lat":40.81093159812765,"lon":14.358969293479788,"name":"3L PETROLI SRL","brand":"Pompe Bianche","address":"VIA ANTONIO GRAMSCI 21 80056, ERCOLANO, NA","prices":[{"type":"petrol","price":1.779,"self":true,"updatedAt":"26/06/2026 06:16:13"},{"type":"diesel","price":1.895,"self":true,"updatedAt":"26/06/2026 06:16:13"},{"type":"lpg","price":0.799,"self":true,"updatedAt":"26/06/2026 06:16:13"}]},{"id":"14708","lat":40.83495010160629,"lon":14.360169544816017,"name":"A5","brand":"Pompe Bianche","address":"VIA SACERDOTE B. COZZOLINO SNC 80056, ERCOLANO, NA","prices":[{"type":"petrol","price":1.847,"self":true,"updatedAt":"29/06/2026 10:06:59"},{"type":"diesel","price":1.887,"self":true,"updatedAt":"29/06/2026 10:06:57"}]},{"id":"35680","lat":40.80844738718757,"lon":14.358646720647812,"name":"Easy service Ercolano","brand":"Energas","address":"Via Aveta  snc 80056, ERCOLANO, NA","prices":[{"type":"petrol","price":1.799,"self":true,"updatedAt":"29/06/2026 00:52:31"},{"type":"diesel","price":1.889,"self":true,"updatedAt":"29/06/2026 00:52:31"},{"type":"lpg","price":0.799,"self":false,"updatedAt":"29/06/2026 00:21:56"}]},{"id":"41168","lat":40.8190151939431,"lon":14.36386029447749,"name":"easyfuel","brand":"Pompe Bianche","address":"GIUSEPPE SEMMOLA 179 80056, ERCOLANO, NA","prices":[{"type":"petrol","price":1.869,"self":true,"updatedAt":"25/06/2026 19:14:58"},{"type":"diesel","price":1.899,"self":true,"updatedAt":"25/06/2026 19:14:58"}]},{"id":"14034","lat":40.81413078123835,"lon":14.366668537259102,"name":"ECO TRADING AREA SRL","brand":"Pompe Bianche","address":"SAC. B. COZZOLINO  80056, ERCOLANO, NA","prices":[{"type":"petrol","price":1.819,"self":true,"updatedAt":"29/06/2026 00:51:11"},{"type":"diesel","price":1.879,"self":true,"updatedAt":"29/06/2026 00:51:11"},{"type":"lpg","price":0.799,"self":false,"updatedAt":"12/06/2026 14:03:57"}]},{"id":"44395","lat":40.82674310725152,"lon":14.356550574302673,"name":"ENERGAS","brand":"Energas","address":"VIA BENEDETTO COZZOLINO 66 80056, ERCOLANO, NA","prices":[{"type":"petrol","price":1.829,"self":true,"updatedAt":"30/06/2026 06:50:08"},{"type":"diesel","price":1.929,"self":true,"updatedAt":"30/06/2026 06:50:08"}]},{"id":"25008","lat":40.80445606762352,"lon":14.370515658301201,"name":"ERCOLANO VIA B. COZZOLINO, 101","brand":"Q8","address":"VIA B. COZZOLINO 101 80056, ERCOLANO, NA","prices":[{"type":"petrol","price":1.789,"self":true,"updatedAt":"26/06/2026 01:41:53"},{"type":"diesel","price":1.859,"self":true,"updatedAt":"26/06/2026 01:41:53"}]},{"id":"6702","lat":40.81446484078589,"lon":14.356227699999977,"name":"ERCOLANO VIA DEGLI ULIVI","brand":"Q8","address":"VIA DEGLI ULIVI SNC 80056, ERCOLANO, NA","prices":[{"type":"petrol","price":1.799,"self":true,"updatedAt":"29/06/2026 16:04:28"},{"type":"diesel","price":1.879,"self":true,"updatedAt":"29/06/2026 16:04:28"}]},{"id":"43824","lat":40.808991015071975,"lon":14.355970294477402,"name":"FFuel","brand":"Pompe Bianche","address":"VIA PANORAMICA 132/A 80056, ERCOLANO, NA","prices":[{"type":"petrol","price":1.769,"self":false,"updatedAt":"29/06/2026 09:33:31"},{"type":"diesel","price":1.849,"self":false,"updatedAt":"29/06/2026 09:33:31"}]},{"id":"51799","lat":40.83335786770854,"lon":14.358677976686488,"name":"GR7 SRL CARBRANTI","brand":"Pompe Bianche","address":"VIA SAC.BENEDETTO COZZOLINO SNC 80056, ERCOLANO, NA","prices":[{"type":"petrol","price":1.838,"self":true,"updatedAt":"29/06/2026 10:47:57"},{"type":"diesel","price":1.877,"self":true,"updatedAt":"29/06/2026 10:47:57"},{"type":"methane","price":1.699,"self":false,"updatedAt":"29/06/2026 10:47:57"},{"type":"lpg","price":0.795,"self":false,"updatedAt":"29/06/2026 10:47:57"}]},{"id":"57066","lat":40.81186,"lon":14.36782,"name":"PET - ERCOLANO","brand":"Pompe Bianche","address":"SAC. BENEDETTO COZZOLINO SNC 80056, ERCOLANO, NA","prices":[{"type":"petrol","price":1.799,"self":true,"updatedAt":"25/06/2026 15:45:38"},{"type":"diesel","price":1.869,"self":true,"updatedAt":"25/06/2026 15:45:38"}]},{"id":"43948","lat":40.83115682467383,"lon":14.357609565641383,"name":"Q8","brand":"Q8","address":"VIA SAC. BENEDETTO COZZOLINO 10 80056, ERCOLANO, NA","prices":[{"type":"petrol","price":1.889,"self":true,"updatedAt":"29/06/2026 10:47:32"},{"type":"diesel","price":1.939,"self":true,"updatedAt":"29/06/2026 10:47:32"}]},{"id":"53427","lat":40.8092672,"lon":14.3622144,"name":"STAZIONE DI SERVIZIO COPPOLA ANIELLO","brand":"Pompe Bianche","address":"G. MARCONI 59 80056, ERCOLANO, NA","prices":[{"type":"petrol","price":1.899,"self":true,"updatedAt":"24/06/2026 09:05:57"},{"type":"diesel","price":1.924,"self":true,"updatedAt":"24/06/2026 09:05:57"}]},{"id":"54019","lat":40.8097449,"lon":14.3564343,"name":"stazione di servizio esso coppola gennaro","brand":"Esso","address":"Via Panoramica 97 80056, ERCOLANO, NA","prices":[{"type":"petrol","price":1.799,"self":true,"updatedAt":"29/06/2026 09:39:20"},{"type":"diesel","price":1.889,"self":true,"updatedAt":"29/06/2026 09:39:20"}]},{"id":"38660","lat":40.808535148804474,"lon":14.35413208808086,"name":"TOTALERG","brand":"Api-Ip","address":"VIA PANORAMICA 2 80056, ERCOLANO, NA","prices":[{"type":"petrol","price":1.799,"self":true,"updatedAt":"29/06/2026 09:01:00"},{"type":"diesel","price":1.899,"self":true,"updatedAt":"29/06/2026 09:01:00"}]},{"id":"63340","lat":40.8364889,"lon":14.3607328,"name":"VESUVIANA PETROLI ERCOLANO","brand":"Q8","address":"Contrada Patacca 96  80056, ERCOLANO, NA","prices":[{"type":"petrol","price":1.838,"self":true,"updatedAt":"29/06/2026 00:52:11"},{"type":"diesel","price":1.887,"self":true,"updatedAt":"29/06/2026 00:52:11"}]},{"id":"31906","lat":40.9453243014181,"lon":14.27582089723569,"name":"api-ip","brand":"Api-Ip","address":"VIA MASSIMO STANZIONE 114 80027, FRATTAMAGGIORE, NA","prices":[{"type":"petrol","price":1.99,"self":true,"updatedAt":"26/06/2026 11:05:56"},{"type":"diesel","price":1.94,"self":true,"updatedAt":"26/06/2026 11:05:56"}]},{"id":"46579","lat":40.93356082719643,"lon":14.272224284834579,"name":"BNC Power","brand":"Pompe Bianche","address":"Via Roma 251 80027, FRATTAMAGGIORE, NA","prices":[{"type":"petrol","price":1.749,"self":true,"updatedAt":"29/06/2026 09:50:49"},{"type":"diesel","price":1.849,"self":true,"updatedAt":"29/06/2026 09:50:49"}]},{"id":"35900","lat":40.926981859975164,"lon":14.283426851034164,"name":"FRATTAMAGGIORE EX SS 87 DIREZIONE CE","brand":"Q8","address":"EX SS 87 DIREZIONE CE  80027, FRATTAMAGGIORE, NA","prices":[{"type":"petrol","price":1.889,"self":true,"updatedAt":"29/06/2026 18:06:15"},{"type":"diesel","price":1.979,"self":true,"updatedAt":"29/06/2026 18:06:15"},{"type":"lpg","price":0.878,"self":false,"updatedAt":"29/06/2026 18:06:15"}]},{"id":"6700","lat":40.93349968936316,"lon":14.272496311045074,"name":"FRATTAMAGGIORE VIA ROMA 262 IMP. Q8","brand":"Q8","address":"VIA ROMA IMP. Q8 262 80027, FRATTAMAGGIORE, NA","prices":[{"type":"petrol","price":1.749,"self":true,"updatedAt":"29/06/2026 16:04:26"},{"type":"diesel","price":1.849,"self":true,"updatedAt":"29/06/2026 16:04:26"}]},{"id":"11739","lat":40.93547163223486,"lon":14.283683906745864,"name":"FRATTAMAGGIORE-SP PER AFRAGOLA","brand":"Q8","address":"SP PER AFRAGOLA S/N 80027, FRATTAMAGGIORE, NA","prices":[{"type":"petrol","price":1.779,"self":true,"updatedAt":"30/06/2026 07:45:13"},{"type":"diesel","price":1.879,"self":true,"updatedAt":"30/06/2026 07:45:13"}]},{"id":"62886","lat":40.92703,"lon":14.28338,"name":"GP CARBURANTI","brand":"Pompe Bianche","address":"EX SS 87 SANNITICA KM 50+3 SNC 80027, FRATTAMAGGIORE, NA","prices":[{"type":"petrol","price":1.799,"self":true,"updatedAt":"29/06/2026 11:18:45"},{"type":"diesel","price":1.899,"self":true,"updatedAt":"29/06/2026 11:18:45"},{"type":"methane","price":1.549,"self":false,"updatedAt":"29/06/2026 11:18:45"},{"type":"lpg","price":0.699,"self":false,"updatedAt":"29/06/2026 11:18:45"}]},{"id":"31887","lat":40.937370855372606,"lon":14.280422284866404,"name":"IP","brand":"Api-Ip","address":"P.MARIO VERGARA 98 80027, FRATTAMAGGIORE, NA","prices":[{"type":"petrol","price":1.799,"self":true,"updatedAt":"27/06/2026 07:49:16"},{"type":"diesel","price":1.899,"self":true,"updatedAt":"27/06/2026 07:49:16"}]},{"id":"50666","lat":40.92441653110147,"lon":14.274900933669414,"name":"IP 46001 - Frattamaggiore","brand":"Api-Ip","address":"Via Roma 365 80027, FRATTAMAGGIORE, NA","prices":[{"type":"petrol","price":1.776,"self":true,"updatedAt":"27/06/2026 16:12:07"},{"type":"diesel","price":1.876,"self":true,"updatedAt":"27/06/2026 16:12:07"}]},{"id":"60523","lat":40.94158643925558,"lon":14.278065247850416,"name":"Moil","brand":"Pompe Bianche","address":"PADRE MARIO VERGARA 222 80027, FRATTAMAGGIORE, NA","prices":[{"type":"petrol","price":1.799,"self":false,"updatedAt":"29/06/2026 19:52:56"},{"type":"diesel","price":1.899,"self":false,"updatedAt":"29/06/2026 19:52:56"}]},{"id":"61072","lat":40.946670918056,"lon":14.271750707857924,"name":"NEOFUEL FRATTAMAGGIORE","brand":"Pompe Bianche","address":"VIA DOMENICO PIROZZI - A. VIA MAZZINI S.N.C. 80027, FRATTAMAGGIORE, NA","prices":[{"type":"petrol","price":1.799,"self":true,"updatedAt":"29/06/2026 08:51:21"},{"type":"diesel","price":1.899,"self":true,"updatedAt":"29/06/2026 08:51:21"}]},{"id":"16956","lat":40.95377120368689,"lon":14.267773479223251,"name":"VESUVIOGAS SRL","brand":"Pompe Bianche","address":"VIA CUPA POMIGLIANO S.N.C. 80027, FRATTAMAGGIORE, NA","prices":[{"type":"petrol","price":1.799,"self":true,"updatedAt":"27/06/2026 08:19:49"},{"type":"diesel","price":1.899,"self":true,"updatedAt":"27/06/2026 08:19:49"},{"type":"lpg","price":0.699,"self":false,"updatedAt":"27/06/2026 08:19:49"}]},{"id":"30242","lat":40.96120101274002,"lon":14.264659766864725,"name":"FRATTAMINORE - MARTIRI ATELLANI","brand":"Api-Ip","address":"VIA MARTIRI ATELLANI  80100, FRATTAMINORE, NA","prices":[{"type":"petrol","price":1.799,"self":true,"updatedAt":"29/06/2026 09:03:26"},{"type":"diesel","price":1.899,"self":true,"updatedAt":"29/06/2026 09:03:26"}]},{"id":"33496","lat":40.94951728248129,"lon":14.271504431962967,"name":"MECK OIL - FRATTAMINORE","brand":"Pompe Bianche","address":"VIA GIOVANNI XXIII 131 80020, FRATTAMINORE, NA","prices":[{"type":"petrol","price":1.999,"self":true,"updatedAt":"29/06/2026 12:42:30"},{"type":"diesel","price":1.899,"self":true,"updatedAt":"29/06/2026 12:42:30"}]},{"id":"42363","lat":40.92860548617181,"lon":14.259247801852439,"name":"MERLINO CARBURANTI","brand":"Pompe Bianche","address":"VIA GALILEI SNC 80028, GRUMO NEVANO, NA","prices":[{"type":"petrol","price":1.799,"self":false,"updatedAt":"29/06/2026 09:40:51"},{"type":"diesel","price":1.899,"self":false,"updatedAt":"29/06/2026 09:40:51"},{"type":"lpg","price":0.699,"self":false,"updatedAt":"29/06/2026 09:40:51"}]},{"id":"15394","lat":40.946680439922034,"lon":14.258404523134232,"name":"TAMOIL","brand":"Tamoil","address":"VIA EX STRADA PR.LE GRUMO-FRATTA 12/14 80028, GRUMO NEVANO, NA","prices":[{"type":"petrol","price":1.749,"self":true,"updatedAt":"29/06/2026 14:05:00"},{"type":"diesel","price":1.849,"self":true,"updatedAt":"29/06/2026 14:04:59"}]},{"id":"32618","lat":40.93158103505807,"lon":14.26202813617624,"name":"TOCCO ASSUNTA","brand":"Pompe Bianche","address":"CORSO GIUSEPPE GARIBALDI 155 80028, GRUMO NEVANO, NA","prices":[{"type":"petrol","price":1.789,"self":true,"updatedAt":"23/06/2026 17:26:45"},{"type":"diesel","price":1.869,"self":true,"updatedAt":"23/06/2026 17:26:45"}]},{"id":"53275","lat":40.9361130974554,"lon":14.25568486676724,"name":"VD Grumo","brand":"Pompe Bianche","address":"CIRILLO 78 80028, GRUMO NEVANO, NA","prices":[{"type":"petrol","price":1.979,"self":true,"updatedAt":"27/06/2026 16:14:16"},{"type":"diesel","price":2.059,"self":true,"updatedAt":"27/06/2026 16:14:16"}]},{"id":"57978","lat":40.93701010238064,"lon":14.264284225401473,"name":"VRS Petroli","brand":"Pompe Bianche","address":"via Giacomo Matteotti 30 80028, GRUMO NEVANO, NA","prices":[{"type":"petrol","price":1.749,"self":false,"updatedAt":"29/06/2026 15:43:51"},{"type":"diesel","price":1.859,"self":false,"updatedAt":"29/06/2026 15:43:51"}]},{"id":"51685","lat":40.93831922154807,"lon":14.439150187516388,"name":"Easy Mariglianella","brand":"Pompe Bianche","address":"Via Galileo Galilei  24 80030, MARIGLIANELLA, NA","prices":[{"type":"petrol","price":1.849,"self":true,"updatedAt":"29/06/2026 00:24:13"},{"type":"diesel","price":1.869,"self":true,"updatedAt":"29/06/2026 00:24:13"},{"type":"lpg","price":0.659,"self":false,"updatedAt":"30/06/2026 00:26:28"}]},{"id":"50951","lat":40.932867372058496,"lon":14.433668363661285,"name":"GT-FUEL (MARIGLIANELLA)","brand":"GT-FUEL","address":"VIA XI SETTEMBRE 2001 SNC 80030, MARIGLIANELLA, NA","prices":[{"type":"petrol","price":1.769,"self":true,"updatedAt":"29/06/2026 16:48:22"},{"type":"diesel","price":1.789,"self":true,"updatedAt":"29/06/2026 16:48:22"},{"type":"lpg","price":0.659,"self":false,"updatedAt":"29/06/2026 16:48:22"}]},{"id":"45505","lat":40.935846,"lon":14.441752,"name":"Ital Mare","brand":"Pompe Bianche","address":"VIA 11 SETTEMBRE 2001 SN 80030, MARIGLIANELLA, NA","prices":[{"type":"petrol","price":1.809,"self":true,"updatedAt":"29/06/2026 07:26:20"},{"type":"diesel","price":1.829,"self":true,"updatedAt":"29/06/2026 07:26:20"},{"type":"lpg","price":0.699,"self":false,"updatedAt":"29/06/2026 07:26:20"}]},{"id":"25791","lat":40.93310259678763,"lon":14.432668723417692,"name":"MARIGLIANELLA SS. 7BIS KM. 44+847","brand":"Q8","address":"SS. 7BIS KM. 44+847  80030, MARIGLIANELLA, NA","prices":[{"type":"petrol","price":1.779,"self":true,"updatedAt":"29/06/2026 16:35:57"},{"type":"diesel","price":1.799,"self":true,"updatedAt":"29/06/2026 16:35:57"}]},{"id":"25243","lat":40.924862041785886,"lon":14.441366792976396,"name":"Q8 MARIGLIANELLA","brand":"Q8","address":"VIA MARCONI 13, 80030, MARIGLIANELLA, NA","prices":[{"type":"petrol","price":1.829,"self":true,"updatedAt":"27/06/2026 09:31:46"},{"type":"diesel","price":1.889,"self":true,"updatedAt":"27/06/2026 09:31:46"}]},{"id":"36459","lat":40.92263501334621,"lon":14.436247050762177,"name":"toil mariglianella","brand":"Toil","address":"via roma  80030, MARIGLIANELLA, NA","prices":[{"type":"petrol","price":1.809,"self":true,"updatedAt":"29/06/2026 00:51:03"},{"type":"diesel","price":1.849,"self":true,"updatedAt":"29/06/2026 00:51:03"},{"type":"lpg","price":0.679,"self":false,"updatedAt":"29/06/2026 23:46:21"}]},{"id":"34733","lat":40.92578779075373,"lon":14.448272734880447,"name":"8158","brand":"Tamoil","address":"UMBERTO I 117 80034, MARIGLIANO, NA","prices":[{"type":"petrol","price":1.779,"self":true,"updatedAt":"29/06/2026 12:33:07"},{"type":"diesel","price":1.819,"self":true,"updatedAt":"29/06/2026 12:33:07"}]},{"id":"42283","lat":40.907995413153095,"lon":14.451717026531696,"name":"AG CARBURANTI","brand":"Pompe Bianche","address":"VIA SOMMA 120 80034, MARIGLIANO, NA","prices":[{"type":"petrol","price":1.839,"self":true,"updatedAt":"29/06/2026 11:51:01"},{"type":"diesel","price":1.889,"self":true,"updatedAt":"29/06/2026 11:51:00"}]},{"id":"42450","lat":40.933381736292134,"lon":14.450716227293015,"name":"Area di servizio marigliano","brand":"Agip Eni","address":"7 bis di Terra di Lavoro, Km. 35, Villa Literno-Nola - 80034, MARIGLIANO, NA","prices":[{"type":"petrol","price":1.824,"self":true,"updatedAt":"29/06/2026 00:53:32"},{"type":"diesel","price":1.889,"self":true,"updatedAt":"29/06/2026 05:32:07"}]},{"id":"46408","lat":40.958485869254815,"lon":14.469875147862354,"name":"Area di servizio Marigliano Est","brand":"Pompe Bianche","address":"7 bis di Terra di Lavoro, Km. 42+064, Villa Literno - 80034, MARIGLIANO, NA","prices":[{"type":"petrol","price":1.859,"self":true,"updatedAt":"24/06/2026 08:41:17"},{"type":"diesel","price":1.899,"self":true,"updatedAt":"24/06/2026 08:41:17"},{"type":"lpg","price":0.749,"self":false,"updatedAt":"24/06/2026 08:41:17"}]},{"id":"51426","lat":40.92411421858801,"lon":14.46394370231971,"name":"ENI 08115","brand":"Agip Eni","address":"CORSO UMBERTO I 583 80034, MARIGLIANO, NA","prices":[{"type":"petrol","price":1.824,"self":true,"updatedAt":"29/06/2026 23:40:16"},{"type":"diesel","price":1.889,"self":true,"updatedAt":"29/06/2026 19:20:13"}]},{"id":"42251","lat":40.92036490907793,"lon":14.444906562566757,"name":"gold carburanti","brand":"Pompe Bianche","address":"VIA GIORGIO AMENDOLA SNC 80034, MARIGLIANO, NA","prices":[{"type":"petrol","price":1.809,"self":true,"updatedAt":"29/06/2026 09:26:13"},{"type":"diesel","price":1.849,"self":true,"updatedAt":"29/06/2026 09:26:13"},{"type":"lpg","price":0.679,"self":false,"updatedAt":"29/06/2026 09:26:13"}]},{"id":"42341","lat":40.93504513250292,"lon":14.447655826807022,"name":"Marino petroli","brand":"Q8","address":"VIA PONTE DEI CANI 1 80034, MARIGLIANO, NA","prices":[{"type":"petrol","price":1.749,"self":true,"updatedAt":"26/06/2026 08:27:15"},{"type":"diesel","price":1.789,"self":true,"updatedAt":"26/06/2026 08:27:15"}]},{"id":"38304","lat":40.93336937565988,"lon":14.450710192322731,"name":"Stazione di Servizio Eni Spa 55607","brand":"Agip Eni","address":"VIA XI SETTEMBRE 25 80034, MARIGLIANO, NA","prices":[{"type":"petrol","price":1.824,"self":true,"updatedAt":"29/06/2026 00:13:59"},{"type":"diesel","price":1.889,"self":true,"updatedAt":"29/06/2026 20:50:09"}]},{"id":"22319","lat":40.95146226138661,"lon":14.471424221992493,"name":"TRE PONTI OVEST","brand":"Esso","address":"Autostrada A30 CASERTA-SALERNO,  Km. 16,200, dir. sud - 80034, MARIGLIANO, NA","prices":[{"type":"petrol","price":1.919,"self":true,"updatedAt":"29/06/2026 22:31:30"},{"type":"diesel","price":1.999,"self":true,"updatedAt":"29/06/2026 22:31:30"},{"type":"lpg","price":0.839,"self":false,"updatedAt":"29/06/2026 22:31:30"}]},{"id":"52754","lat":40.850695188913356,"lon":14.372517113272181,"name":"LUDOIL","brand":"Agip Eni","address":"PIRANDELLO 27 80040, MASSA DI SOMMA, NA","prices":[{"type":"petrol","price":1.819,"self":true,"updatedAt":"29/06/2026 22:01:32"},{"type":"diesel","price":1.899,"self":true,"updatedAt":"29/06/2026 22:01:31"}]},{"id":"49635","lat":40.84557216349965,"lon":14.279558878732132,"name":"28061 – Napoli Volta","brand":"Agip Eni","address":"Via Volta 31 80142, NAPOLI, NA","prices":[{"type":"petrol","price":1.814,"self":true,"updatedAt":"30/06/2026 00:09:10"},{"type":"diesel","price":1.879,"self":true,"updatedAt":"30/06/2026 00:09:10"}]},{"id":"46945","lat":40.87210163102492,"lon":14.281972039881111,"name":"8335","brand":"Tamoil","address":"UMBERTO MADDALENA SNC 80144, NAPOLI, NA","prices":[{"type":"petrol","price":1.849,"self":true,"updatedAt":"29/06/2026 00:18:27"},{"type":"diesel","price":1.929,"self":true,"updatedAt":"29/06/2026 00:18:27"}]},{"id":"41142","lat":40.856026618162694,"lon":14.322723224759102,"name":"8336","brand":"Tamoil","address":"ARGINE 619 80147, NAPOLI, NA","prices":[{"type":"petrol","price":1.749,"self":true,"updatedAt":"29/06/2026 00:18:39"},{"type":"diesel","price":1.859,"self":true,"updatedAt":"29/06/2026 00:18:39"}]},{"id":"12555","lat":40.862960192370096,"lon":14.293411170835611,"name":"acanfora stefania","brand":"Pompe Bianche","address":"VIA MACELLO  80143, NAPOLI, NA","prices":[{"type":"petrol","price":1.769,"self":true,"updatedAt":"25/06/2026 19:39:54"},{"type":"diesel","price":1.849,"self":true,"updatedAt":"25/06/2026 19:39:54"}]},{"id":"36273","lat":40.86776852872776,"lon":14.326131641864777,"name":"accardo","brand":"Esso","address":"via provinciale delle brecce 132 80147, NAPOLI, NA","prices":[{"type":"petrol","price":1.879,"self":false,"updatedAt":"26/06/2026 08:28:58"},{"type":"diesel","price":1.929,"self":false,"updatedAt":"26/06/2026 08:28:58"}]},{"id":"47763","lat":40.87055235871878,"lon":14.284129958826911,"name":"ADS ENI MADDALENA","brand":"Agip Eni","address":"Viale Umberto Maddalena 53 80144, NAPOLI, NA","prices":[{"type":"petrol","price":1.814,"self":true,"updatedAt":"30/06/2026 00:19:03"},{"type":"diesel","price":1.879,"self":true,"updatedAt":"30/06/2026 00:19:03"}]},{"id":"13181","lat":40.89514532961387,"lon":14.255109196505373,"name":"AGIP","brand":"Agip Eni","address":"Via Miano (fronte caserma Caretto)  80145, NAPOLI, NA","prices":[{"type":"petrol","price":1.819,"self":true,"updatedAt":"29/06/2026 00:53:23"},{"type":"diesel","price":1.879,"self":true,"updatedAt":"29/06/2026 00:53:23"}]},{"id":"35366","lat":40.83992727849721,"lon":14.255327355516783,"name":"AGIP DI DE LUCA FERDINANDO","brand":"Agip Eni","address":"VIA MARITTIMA  80133, NAPOLI, NA","prices":[{"type":"petrol","price":1.859,"self":false,"updatedAt":"29/06/2026 23:20:27"},{"type":"diesel","price":1.934,"self":false,"updatedAt":"29/06/2026 12:40:06"}]},{"id":"56362","lat":40.836392,"lon":14.302496,"name":"Ancora petroli","brand":"GB Petroli","address":"SAN GIOVANNI 219 80146, NAPOLI, NA","prices":[{"type":"petrol","price":1.898,"self":true,"updatedAt":"29/06/2026 10:03:10"},{"type":"diesel","price":1.918,"self":true,"updatedAt":"29/06/2026 10:03:10"}]},{"id":"20970","lat":40.85272015344219,"lon":14.314351379871368,"name":"b.oil srl","brand":"Pompe Bianche","address":"VIA ARGINE 461 80147, NAPOLI, NA","prices":[{"type":"petrol","price":1.73,"self":false,"updatedAt":"26/06/2026 06:19:38"},{"type":"diesel","price":1.819,"self":false,"updatedAt":"26/06/2026 06:19:38"},{"type":"lpg","price":0.705,"self":false,"updatedAt":"26/06/2026 06:19:38"}]},{"id":"50375","lat":40.840508256893045,"lon":14.29263822734356,"name":"BFUELCARBURANTI di BARBERIO CIRO","brand":"Pompe Bianche","address":"VIA PONTE DEI GRANILI 5 80146, NAPOLI, NA","prices":[{"type":"petrol","price":1.849,"self":true,"updatedAt":"24/06/2026 08:42:33"},{"type":"diesel","price":1.899,"self":true,"updatedAt":"24/06/2026 08:42:33"}]},{"id":"12899","lat":40.85078302173115,"lon":14.32946428656578,"name":"BORRELLI RAFFAELE","brand":"Esso","address":"VIA C. DE MEIS 1 80147, NAPOLI, NA","prices":[{"type":"petrol","price":1.789,"self":true,"updatedAt":"30/06/2026 07:42:00"},{"type":"diesel","price":1.899,"self":true,"updatedAt":"30/06/2026 07:42:00"}]},{"id":"33636","lat":40.900292927556215,"lon":14.266694063337695,"name":"CARBURANTI S.N.C. DI GIORGIO VARRIALE","brand":"Q8","address":"VIA CIRCUMVALLAZIONE ESTERNA 31 80144, NAPOLI, NA","prices":[{"type":"petrol","price":1.869,"self":true,"updatedAt":"29/06/2026 20:15:34"},{"type":"diesel","price":1.959,"self":true,"updatedAt":"29/06/2026 20:15:34"},{"type":"lpg","price":0.679,"self":true,"updatedAt":"29/06/2026 20:15:34"}]},{"id":"18241","lat":40.86192487605891,"lon":14.280980819582396,"name":"CARUFFO VALENTINA","brand":"Pompe Bianche","address":"VIA NUOVA POGGIOREALE SNC, 80143, NAPOLI, NA","prices":[{"type":"petrol","price":1.789,"self":true,"updatedAt":"28/06/2026 08:47:26"},{"type":"diesel","price":1.858,"self":true,"updatedAt":"28/06/2026 08:47:26"}]},{"id":"35375","lat":40.874918260187705,"lon":14.306204840540886,"name":"DE LUCA LUIGI","brand":"Agip Eni","address":"VIA STADERA A POGGIOREALE  80143, NAPOLI, NA","prices":[{"type":"petrol","price":1.814,"self":true,"updatedAt":"29/06/2026 00:50:28"},{"type":"diesel","price":1.879,"self":true,"updatedAt":"29/06/2026 21:02:04"}]},{"id":"62166","lat":40.8492077,"lon":14.3252874,"name":"DFUEL","brand":"Pompe Bianche","address":"LUIGI VOLPICELLA 356 80147, NAPOLI, NA","prices":[{"type":"petrol","price":1.785,"self":true,"updatedAt":"29/06/2026 08:20:17"},{"type":"diesel","price":1.885,"self":true,"updatedAt":"29/06/2026 08:20:17"}]},{"id":"48414","lat":40.848380101695064,"lon":14.323330202083584,"name":"DISTRIBUTORE Q8","brand":"Q8","address":"via luigi volpicella 411 80142, NAPOLI, NA","prices":[{"type":"petrol","price":1.799,"self":true,"updatedAt":"26/06/2026 09:22:43"},{"type":"diesel","price":1.939,"self":true,"updatedAt":"26/06/2026 09:22:43"}]},{"id":"13092","lat":40.845943261022875,"lon":14.312672622965238,"name":"Distributore Tamoil Impianto 8332","brand":"Tamoil","address":"VIA LUIGI VOLPICELLA 208 80147, NAPOLI, NA","prices":[{"type":"petrol","price":1.789,"self":true,"updatedAt":"29/06/2026 23:23:40"},{"type":"diesel","price":1.899,"self":true,"updatedAt":"29/06/2026 23:23:40"}]},{"id":"50584","lat":40.87269129600387,"lon":14.278909115960005,"name":"DOGANELLA OVEST","brand":"Agip Eni","address":"TANG.LE DI NAPOLI, Km. 19,4, OVEST -, NAPOLI, NA","prices":[{"type":"petrol","price":1.885,"self":true,"updatedAt":"29/06/2026 00:33:24"},{"type":"diesel","price":1.944,"self":true,"updatedAt":"29/06/2026 22:10:04"}]},{"id":"52093","lat":40.84236742724523,"lon":14.334224202735637,"name":"Easy Ponticelli","brand":"Q8","address":"Via Delle Ville Romane  snc 80147, NAPOLI, NA","prices":[{"type":"petrol","price":1.798,"self":true,"updatedAt":"29/06/2026 00:22:37"},{"type":"diesel","price":1.888,"self":true,"updatedAt":"29/06/2026 00:22:37"}]},{"id":"49640","lat":40.88896486215444,"lon":14.270124699252884,"name":"Easy Service Via Del Cassano","brand":"Energas","address":"Via Del Cassano  18 80100, NAPOLI, NA","prices":[{"type":"petrol","price":1.799,"self":true,"updatedAt":"30/06/2026 00:26:56"},{"type":"diesel","price":1.899,"self":true,"updatedAt":"30/06/2026 00:26:56"}]},{"id":"46341","lat":40.839096810191535,"lon":14.312379536468825,"name":"Easy Service, via Alveo Art.","brand":"Energas","address":"Via delle Repubbliche Marinare, alt. alveo artificiale SNC 80100, NAPOLI, NA","prices":[{"type":"petrol","price":1.809,"self":true,"updatedAt":"30/06/2026 07:50:28"},{"type":"diesel","price":1.919,"self":true,"updatedAt":"30/06/2026 07:50:28"}]},{"id":"55250","lat":40.90205124846068,"lon":14.261659383773804,"name":"EcoFuel","brand":"Eco Fuel","address":"LIMITONE DI ARZANO SNC 80144, NAPOLI, NA","prices":[{"type":"petrol","price":1.859,"self":false,"updatedAt":"29/06/2026 18:43:29"},{"type":"diesel","price":1.949,"self":false,"updatedAt":"29/06/2026 18:43:29"},{"type":"methane","price":1.595,"self":false,"updatedAt":"29/06/2026 18:43:29"},{"type":"lpg","price":0.679,"self":false,"updatedAt":"29/06/2026 18:43:29"}]},{"id":"35599","lat":40.89066579584919,"lon":14.278779923915863,"name":"ENI","brand":"Agip Eni","address":"VIA CASERTA AL BRAVO 116 80144, NAPOLI, NA","prices":[{"type":"petrol","price":1.814,"self":true,"updatedAt":"29/06/2026 23:20:03"},{"type":"diesel","price":1.874,"self":true,"updatedAt":"29/06/2026 21:02:08"}]},{"id":"48194","lat":40.87103647502646,"lon":14.30035925986909,"name":"ENI 08063","brand":"Agip Eni","address":"via stadera  80143, NAPOLI, NA","prices":[{"type":"petrol","price":1.814,"self":true,"updatedAt":"29/06/2026 23:44:31"},{"type":"diesel","price":1.879,"self":true,"updatedAt":"30/06/2026 07:32:28"}]},{"id":"62523","lat":40.8499005,"lon":14.2878914,"name":"EOIL 3F","brand":"Pompe Bianche","address":"Via Galileo Ferraris 118A  80146, NAPOLI, NA","prices":[{"type":"petrol","price":1.789,"self":true,"updatedAt":"27/06/2026 08:58:58"},{"type":"diesel","price":1.849,"self":true,"updatedAt":"27/06/2026 08:58:58"}]},{"id":"39068","lat":40.83308916199512,"lon":14.319584369659424,"name":"ERG","brand":"Pompe Bianche","address":"VIA DELLE REPUBBLICHE MARINARE 0 80146, NAPOLI, NA","prices":[{"type":"petrol","price":1.809,"self":true,"updatedAt":"30/06/2026 06:15:40"},{"type":"diesel","price":1.919,"self":true,"updatedAt":"30/06/2026 06:15:40"}]},{"id":"56524","lat":40.8635749,"lon":14.340056,"name":"ESSO","brand":"Esso","address":"Via Argine 875 80147, NAPOLI, NA","prices":[{"type":"petrol","price":1.789,"self":true,"updatedAt":"29/06/2026 20:53:39"},{"type":"diesel","price":1.869,"self":true,"updatedAt":"29/06/2026 20:53:39"}]},{"id":"56369","lat":40.88263908675011,"lon":14.307793378829956,"name":"ESSO","brand":"Esso","address":"Via detta nuova casoria snc 80143, NAPOLI, NA","prices":[{"type":"petrol","price":1.819,"self":true,"updatedAt":"29/06/2026 16:06:58"},{"type":"diesel","price":1.899,"self":true,"updatedAt":"29/06/2026 16:06:58"},{"type":"methane","price":1.899,"self":false,"updatedAt":"29/06/2026 16:06:59"},{"type":"lpg","price":0.689,"self":false,"updatedAt":"29/06/2026 16:06:59"}]},{"id":"27723","lat":40.87055987770187,"lon":14.28497314453125,"name":"ESSO","brand":"Esso","address":"VIA DEL RIPOSO SNC 80144, NAPOLI, NA","prices":[{"type":"petrol","price":1.814,"self":true,"updatedAt":"29/06/2026 16:06:45"},{"type":"diesel","price":1.889,"self":true,"updatedAt":"29/06/2026 16:06:46"}]},{"id":"29789","lat":40.85974447977975,"lon":14.262575384440652,"name":"esso","brand":"Esso","address":"VIA FORIA  200 80136, NAPOLI, NA","prices":[{"type":"petrol","price":1.859,"self":true,"updatedAt":"29/06/2026 06:55:03"},{"type":"diesel","price":1.919,"self":true,"updatedAt":"29/06/2026 06:55:03"}]},{"id":"48999","lat":40.85030964996206,"lon":14.27604404038709,"name":"ESSO - G.FERRARIS","brand":"Esso","address":"VIA GALILEO FERRARIS 44/48 80142, NAPOLI, NA","prices":[{"type":"petrol","price":1.789,"self":true,"updatedAt":"24/06/2026 19:54:08"},{"type":"diesel","price":1.859,"self":true,"updatedAt":"24/06/2026 19:54:08"}]},{"id":"49879","lat":40.88637862409743,"lon":14.276351535809221,"name":"ESSO - VITULLO S.A.S. DI TESORONE PATRIZIA","brand":"Esso","address":"VIA CASERTA AL BRAVO 8 80144, NAPOLI, NA","prices":[{"type":"petrol","price":1.799,"self":true,"updatedAt":"26/06/2026 07:46:58"},{"type":"diesel","price":1.869,"self":true,"updatedAt":"26/06/2026 07:46:58"}]},{"id":"52964","lat":40.8112793,"lon":14.3442908,"name":"F FUEL","brand":"Bianco Carburanti","address":"via f.de pinedo  105 80100, NAPOLI, NA","prices":[{"type":"petrol","price":1.729,"self":true,"updatedAt":"29/06/2026 15:37:54"},{"type":"diesel","price":1.825,"self":true,"updatedAt":"29/06/2026 15:37:54"}]},{"id":"61506","lat":40.847,"lon":14.265,"name":"F.FUEL","brand":"Pompe Bianche","address":"VIA GALILEO FERRAIS SNC 80100, NAPOLI, NA","prices":[{"type":"petrol","price":1.769,"self":false,"updatedAt":"29/06/2026 13:42:11"},{"type":"diesel","price":1.829,"self":false,"updatedAt":"29/06/2026 13:42:11"}]},{"id":"45422","lat":40.90039997614225,"lon":14.267061746873878,"name":"Francesco Cancello 56409","brand":"Agip Eni","address":"sp1 circumvallazione esterna di napoli 1 80100, NAPOLI, NA","prices":[{"type":"petrol","price":1.809,"self":true,"updatedAt":"29/06/2026 00:50:49"},{"type":"diesel","price":1.889,"self":true,"updatedAt":"29/06/2026 00:50:49"}]},{"id":"59985","lat":40.85752523939907,"lon":14.267124664289558,"name":"Fuel Station","brand":"Api-Ip","address":"Via Francesco Cilea 280 80127, NAPOLI, NA","prices":[{"type":"petrol","price":1.999,"self":false,"updatedAt":"29/06/2026 02:18:14"},{"type":"diesel","price":1.899,"self":false,"updatedAt":"29/06/2026 02:18:14"}]},{"id":"52703","lat":40.84234568910942,"lon":14.282923204202085,"name":"Fuel Station srl","brand":"Api-Ip","address":"REGGIA DI PORTICI 135 80146, NAPOLI, NA","prices":[{"type":"petrol","price":2.099,"self":false,"updatedAt":"29/06/2026 02:17:49"},{"type":"diesel","price":2.099,"self":false,"updatedAt":"29/06/2026 02:17:49"}]},{"id":"55331","lat":40.85021737181208,"lon":14.27346110343937,"name":"fv petroli srl","brand":"Pompe Bianche","address":"Corso Arnaldo Lucci snc 80142, NAPOLI, NA","prices":[{"type":"petrol","price":1.949,"self":false,"updatedAt":"29/06/2026 12:58:22"},{"type":"diesel","price":1.949,"self":false,"updatedAt":"29/06/2026 12:58:22"}]},{"id":"40405","lat":40.888981214422074,"lon":14.257028303726202,"name":"GHEPARDOIL","brand":"Pompe Bianche","address":"via Regina Margherita  107 80145, NAPOLI, NA","prices":[{"type":"petrol","price":1.89,"self":true,"updatedAt":"23/06/2026 11:26:09"},{"type":"diesel","price":1.98,"self":true,"updatedAt":"23/06/2026 11:26:09"}]},{"id":"32813","lat":40.85626242562899,"lon":14.288100868987158,"name":"Impianto ESSO Buoniconti Maria","brand":"Esso","address":"Via Emanuele Gianturco 123 80143, NAPOLI, NA","prices":[{"type":"petrol","price":1.999,"self":true,"updatedAt":"27/06/2026 11:05:25"},{"type":"diesel","price":2.089,"self":true,"updatedAt":"27/06/2026 11:05:25"}]},{"id":"55466","lat":40.8575737,"lon":14.2671162,"name":"Ip","brand":"Api-Ip","address":"VIA VIA PETRARCA 135 80122, NAPOLI (NA) 135 80141, NAPOLI, NA","prices":[{"type":"petrol","price":1.876,"self":false,"updatedAt":"26/06/2026 06:28:16"},{"type":"diesel","price":1.987,"self":false,"updatedAt":"26/06/2026 06:28:16"}]},{"id":"56932","lat":40.89955730654885,"lon":14.25401248582276,"name":"IP","brand":"Italiana Carburanti","address":"ROMA VERSO SCAMPIA 52 80144, NAPOLI, NA","prices":[{"type":"petrol","price":1.866,"self":true,"updatedAt":"22/06/2026 11:59:27"},{"type":"diesel","price":1.916,"self":true,"updatedAt":"22/06/2026 11:59:27"}]},{"id":"57549","lat":40.85761292722807,"lon":14.267295762442375,"name":"IP","brand":"Api-Ip","address":"Via Santa Teresa degli Scalzi  80137, NAPOLI, NA","prices":[{"type":"petrol","price":1.999,"self":false,"updatedAt":"29/06/2026 02:18:00"},{"type":"diesel","price":1.999,"self":false,"updatedAt":"29/06/2026 02:18:00"}]},{"id":"52744","lat":40.857611928278686,"lon":14.267100327682705,"name":"IP","brand":"Api-Ip","address":"Via Emilio Scaglione 19, NAPOLI, NA","prices":[{"type":"petrol","price":1.999,"self":false,"updatedAt":"29/06/2026 02:21:31"},{"type":"diesel","price":1.999,"self":false,"updatedAt":"29/06/2026 02:21:31"}]},{"id":"52743","lat":40.857611928278686,"lon":14.267100327682705,"name":"IP","brand":"Api-Ip","address":"VIA VIA GEMITO SNC 80127, NAPOLI (NA)  80141, NAPOLI, NA","prices":[{"type":"petrol","price":1.999,"self":false,"updatedAt":"29/06/2026 02:21:13"},{"type":"diesel","price":2.099,"self":false,"updatedAt":"29/06/2026 02:21:13"}]},{"id":"52740","lat":40.857611928278686,"lon":14.267100327682705,"name":"IP","brand":"Api-Ip","address":"DELLE REPUBBLICHE MARINARE SNC 80146, NAPOLI, NA","prices":[{"type":"petrol","price":1.829,"self":false,"updatedAt":"29/06/2026 02:21:06"},{"type":"diesel","price":1.939,"self":false,"updatedAt":"29/06/2026 02:21:06"}]},{"id":"60204","lat":40.8288,"lon":14.3279,"name":"IP","brand":"Itala Petroli","address":"MARGHERITA SNC 80147, NAPOLI, NA","prices":[{"type":"petrol","price":1.789,"self":true,"updatedAt":"29/06/2026 09:33:09"},{"type":"diesel","price":1.899,"self":true,"updatedAt":"29/06/2026 09:33:09"}]},{"id":"43420","lat":40.841399970847995,"lon":14.340875682209003,"name":"IP B.LONGO ANGOLO V. MORMONE","brand":"Api-Ip","address":"VIA BARTOLO LONGO ANGOLO V. MORMONE 347 80147, NAPOLI, NA","prices":[{"type":"petrol","price":1.759,"self":true,"updatedAt":"28/06/2026 08:10:19"},{"type":"diesel","price":1.849,"self":true,"updatedAt":"28/06/2026 08:10:19"}]},{"id":"23055","lat":40.85786741826476,"lon":14.329958131358012,"name":"IP di ANNA PRISCO","brand":"Api-Ip","address":"VIALE MARGHERITA 49 80147, NAPOLI, NA","prices":[{"type":"petrol","price":1.839,"self":true,"updatedAt":"30/06/2026 06:53:31"},{"type":"diesel","price":1.919,"self":true,"updatedAt":"30/06/2026 06:53:31"}]},{"id":"53696","lat":40.9023992,"lon":14.356248,"name":"IP Fico Giuseppe","brand":"Api-Ip","address":"VIA DELLE PUGLIE 360 80143, NAPOLI, NA","prices":[{"type":"petrol","price":1.799,"self":true,"updatedAt":"29/06/2026 16:17:20"},{"type":"diesel","price":1.889,"self":true,"updatedAt":"29/06/2026 16:17:20"}]},{"id":"39906","lat":40.84403183316626,"lon":14.339287206530571,"name":"Ip V. Bartolo Longo","brand":"Api-Ip","address":"VIA BARTOLO LONGO SNC 80147, NAPOLI, NA","prices":[{"type":"petrol","price":1.759,"self":true,"updatedAt":"28/06/2026 08:11:14"},{"type":"diesel","price":1.849,"self":true,"updatedAt":"28/06/2026 08:11:15"}]},{"id":"58473","lat":40.8685886,"lon":14.268064615344223,"name":"Italiana Petroli S.P.A","brand":"Api-Ip","address":"Via Nicola Nicolini 39 80141, NAPOLI, NA","prices":[{"type":"petrol","price":1.806,"self":true,"updatedAt":"29/06/2026 11:25:14"},{"type":"diesel","price":1.906,"self":true,"updatedAt":"29/06/2026 11:25:14"}]},{"id":"36512","lat":40.85017557683085,"lon":14.278401732444763,"name":"LUDOIL","brand":"Lukoil","address":"VIA GALILEO FERRARIS 1/A 80142, NAPOLI, NA","prices":[{"type":"petrol","price":1.779,"self":true,"updatedAt":"27/06/2026 22:02:18"},{"type":"diesel","price":1.849,"self":true,"updatedAt":"27/06/2026 22:02:18"}]},{"id":"16846","lat":40.84787307234628,"lon":14.288344113215317,"name":"masi vito","brand":"Agip Eni","address":"VIA E.GIANTURCO 114 80142, NAPOLI, NA","prices":[{"type":"petrol","price":1.814,"self":true,"updatedAt":"29/06/2026 23:15:55"},{"type":"diesel","price":1.879,"self":true,"updatedAt":"29/06/2026 19:22:09"}]},{"id":"55139","lat":40.8649728,"lon":14.3294464,"name":"MICHELANGELO","brand":"Esso","address":"VIALE MICHELANGELO  60/A 80129, NAPOLI, NA","prices":[{"type":"petrol","price":1.879,"self":true,"updatedAt":"30/06/2026 06:52:14"},{"type":"diesel","price":1.929,"self":true,"updatedAt":"30/06/2026 06:52:14"}]},{"id":"55410","lat":40.86333439037792,"lon":14.32515080414885,"name":"MM CARBURANTI","brand":"Pompe Bianche","address":"MARIO PALERMO 53 80147, NAPOLI, NA","prices":[{"type":"petrol","price":1.786,"self":true,"updatedAt":"29/06/2026 10:00:47"},{"type":"diesel","price":1.856,"self":true,"updatedAt":"29/06/2026 10:00:47"}]},{"id":"14328","lat":40.84985379511883,"lon":14.309363812208176,"name":"MYLTON S.R.L.","brand":"Pompe Bianche","address":"VIA ARGINE 336 80147, NAPOLI, NA","prices":[{"type":"petrol","price":1.729,"self":true,"updatedAt":"29/06/2026 10:28:39"},{"type":"diesel","price":1.809,"self":true,"updatedAt":"29/06/2026 10:28:39"}]},{"id":"55454","lat":40.8368576,"lon":14.3156607,"name":"NAPOLI  VIA REP.MARINARE(STADIO)","brand":"Q8","address":"VIA REP.MARINARE(STADIO)  80145, NAPOLI, NA","prices":[{"type":"petrol","price":1.789,"self":true,"updatedAt":"29/06/2026 16:35:58"},{"type":"diesel","price":1.899,"self":true,"updatedAt":"29/06/2026 16:35:58"}]},{"id":"33373","lat":40.850559846199396,"lon":14.311264157295227,"name":"NAPOLI - ARGINE 360","brand":"Api-Ip","address":"VIA ARGINE 360 80100, NAPOLI, NA","prices":[{"type":"petrol","price":1.757,"self":true,"updatedAt":"29/06/2026 09:03:20"},{"type":"diesel","price":1.857,"self":true,"updatedAt":"29/06/2026 09:03:20"}]},{"id":"30323","lat":40.85680811472159,"lon":14.298689271163994,"name":"NAPOLI - FERRANTE IMPARATO","brand":"Api-Ip","address":"VIA FERRANTE IMPARATO 439 80146, NAPOLI, NA","prices":[{"type":"petrol","price":1.757,"self":true,"updatedAt":"29/06/2026 09:03:17"},{"type":"diesel","price":1.857,"self":true,"updatedAt":"29/06/2026 09:03:17"}]},{"id":"33545","lat":40.8510773751301,"lon":14.314423906745901,"name":"NAPOLI - VICINALE FOSSITELLI","brand":"Api-Ip","address":"TRAVERSA VICINALE FOSSITELLI  80147, NAPOLI, NA","prices":[{"type":"petrol","price":1.757,"self":true,"updatedAt":"29/06/2026 09:06:48"},{"type":"diesel","price":1.857,"self":true,"updatedAt":"29/06/2026 09:06:48"}]},{"id":"60626","lat":40.8757515,"lon":14.3120735,"name":"NAPOLI BOTTEGHELLE","brand":"Pompe Bianche","address":"Via Botteghelle SNC 80147, NAPOLI, NA","prices":[{"type":"petrol","price":1.866,"self":true,"updatedAt":"29/06/2026 08:33:15"},{"type":"diesel","price":1.874,"self":true,"updatedAt":"29/06/2026 08:33:15"}]},{"id":"60627","lat":40.8819446,"lon":14.2705394,"name":"NAPOLI CAPODICHINO","brand":"Pompe Bianche","address":"VIA CASERTA AL BRAVO  83 80100, NAPOLI, NA","prices":[{"type":"petrol","price":1.739,"self":true,"updatedAt":"29/06/2026 17:50:10"},{"type":"diesel","price":1.835,"self":true,"updatedAt":"29/06/2026 17:50:10"}]},{"id":"26018","lat":40.84657667223769,"lon":14.298712766270455,"name":"NAPOLI G. FERRARIS 172","brand":"Q8","address":"G. FERRARIS 172 80147, NAPOLI, NA","prices":[{"type":"petrol","price":1.799,"self":true,"updatedAt":"26/06/2026 01:41:52"},{"type":"diesel","price":1.879,"self":true,"updatedAt":"26/06/2026 01:41:52"}]},{"id":"54344","lat":40.9018825,"lon":14.2619918,"name":"NAPOLI LIMITONE DI ARZANO 6","brand":"Q8","address":"LIMITONE DI ARZANO 6 80144, NAPOLI, NA","prices":[{"type":"petrol","price":1.869,"self":true,"updatedAt":"29/06/2026 18:06:15"},{"type":"diesel","price":1.959,"self":true,"updatedAt":"29/06/2026 18:06:15"}]},{"id":"6836","lat":40.844458162052035,"lon":14.283217930688465,"name":"NAPOLI P.ZA S. ERASMO IMPIANTO Q8","brand":"Q8","address":"P.ZA S. ERASMO IMPIANTO Q8 SNC 80142, NAPOLI, NA","prices":[{"type":"petrol","price":1.799,"self":true,"updatedAt":"29/06/2026 16:04:27"},{"type":"diesel","price":1.869,"self":true,"updatedAt":"29/06/2026 16:04:27"}]},{"id":"25792","lat":40.836761953755826,"lon":14.31483351600798,"name":"NAPOLI V.REP.MARINARE","brand":"Q8","address":"VIA REP. MARINARE  80146, NAPOLI, NA","prices":[{"type":"petrol","price":1.784,"self":true,"updatedAt":"29/06/2026 16:04:31"},{"type":"diesel","price":1.894,"self":true,"updatedAt":"29/06/2026 16:04:31"}]},{"id":"11734","lat":40.831767528857256,"lon":14.320937550926146,"name":"NAPOLI-VIA REPUBBLICHE MARINARE 392","brand":"Q8","address":"VIA REPUBBLICHE MARINARE 392 80146, NAPOLI, NA","prices":[{"type":"petrol","price":1.789,"self":true,"updatedAt":"29/06/2026 16:36:03"},{"type":"diesel","price":1.899,"self":true,"updatedAt":"29/06/2026 16:36:03"}]},{"id":"62333","lat":40.8514942,"lon":14.2906324,"name":"NATALE CARBURANTI GIANTURCO","brand":"Pompe Bianche","address":"Via Emanuele Gianturco 100  80142, NAPOLI, NA","prices":[{"type":"petrol","price":1.789,"self":true,"updatedAt":"29/06/2026 08:43:38"},{"type":"diesel","price":1.859,"self":true,"updatedAt":"29/06/2026 08:43:38"}]},{"id":"59584","lat":40.84303788621287,"lon":14.286883819573992,"name":"Neofuel via Marina","brand":"Pompe Bianche","address":"Via Reggia di Portici SNC 80146, NAPOLI, NA","prices":[{"type":"petrol","price":1.859,"self":true,"updatedAt":"29/06/2026 08:50:43"},{"type":"diesel","price":1.929,"self":true,"updatedAt":"29/06/2026 08:50:43"}]},{"id":"55151","lat":40.857551,"lon":14.267098,"name":"Orazio","brand":"Api-Ip","address":"VIA VIA ORAZIO SNC 80122, NAPOLI (NA) Snc 80141, NAPOLI, NA","prices":[{"type":"petrol","price":1.876,"self":false,"updatedAt":"29/06/2026 02:24:39"},{"type":"diesel","price":1.987,"self":false,"updatedAt":"29/06/2026 02:24:39"}]},{"id":"57063","lat":40.8581,"lon":14.29837,"name":"PET - IMPARATO","brand":"Esso","address":"FERRANTE IMPARATO 455 80146, NAPOLI, NA","prices":[{"type":"petrol","price":1.757,"self":true,"updatedAt":"26/06/2026 15:35:48"},{"type":"diesel","price":1.857,"self":true,"updatedAt":"26/06/2026 15:35:48"}]},{"id":"57064","lat":40.84316566135385,"lon":14.286060993723936,"name":"PET - REGGIA","brand":"Esso","address":"REGGIA DI PORTICI 46 80142, NAPOLI, NA","prices":[{"type":"petrol","price":1.789,"self":true,"updatedAt":"24/06/2026 20:02:24"},{"type":"diesel","price":1.859,"self":true,"updatedAt":"24/06/2026 20:02:24"}]},{"id":"17155","lat":40.85030685074771,"lon":14.289340482265288,"name":"PIETRO CARRARA","brand":"Q8","address":"E.GIANTURCO DI PARTE DI CIVICO 79 80142, NAPOLI, NA","prices":[{"type":"petrol","price":1.859,"self":true,"updatedAt":"21/06/2026 11:39:29"},{"type":"diesel","price":1.959,"self":true,"updatedAt":"21/06/2026 11:39:29"}]},{"id":"17301","lat":40.85536601779113,"lon":14.288224699697594,"name":"Q8","brand":"Q8","address":"VIA EMANUELE GIANTURCO P.V. Q8  80142, NAPOLI, NA","prices":[{"type":"petrol","price":1.834,"self":true,"updatedAt":"27/06/2026 16:57:24"},{"type":"diesel","price":1.924,"self":true,"updatedAt":"27/06/2026 16:57:24"}]},{"id":"54799","lat":40.85766801820702,"lon":14.2671504466884,"name":"Q8","brand":"Q8","address":"FORIA - ANGOLO VIA TENORE SNC 80137, NAPOLI, NA","prices":[{"type":"petrol","price":2.199,"self":false,"updatedAt":"29/06/2026 02:21:41"},{"type":"diesel","price":2.299,"self":false,"updatedAt":"29/06/2026 02:21:41"}]},{"id":"44235","lat":40.888578000123,"lon":14.250550000123,"name":"quotidiano emanuele","brand":"Agip Eni","address":"via miano 151 80145, NAPOLI, NA","prices":[{"type":"petrol","price":1.699,"self":true,"updatedAt":"29/06/2026 00:26:37"},{"type":"diesel","price":1.719,"self":true,"updatedAt":"29/06/2026 00:26:37"}]},{"id":"24454","lat":40.85875967622646,"lon":14.27059772143923,"name":"retitalia","brand":"Retitalia","address":"VIA ARENACCIA 77 80141, NAPOLI, NA","prices":[{"type":"petrol","price":1.829,"self":true,"updatedAt":"27/06/2026 06:38:38"},{"type":"diesel","price":1.919,"self":true,"updatedAt":"27/06/2026 06:38:38"}]},{"id":"38070","lat":40.89807390517839,"lon":14.25569397699303,"name":"RUSSO RAFFAELE - SCAMPIA","brand":"Q8","address":"VIA ROMA VERSO SCAMPIA SNC 80144, NAPOLI, NA","prices":[{"type":"petrol","price":1.859,"self":true,"updatedAt":"29/06/2026 12:56:21"},{"type":"diesel","price":1.949,"self":true,"updatedAt":"29/06/2026 12:56:21"}]},{"id":"3513","lat":40.88415920489065,"lon":14.29818723411563,"name":"S.PIETRO","brand":"Q8","address":"Autostrada A1 MILANO-NAPOLI Ramo Capodichino, Km. 1+600, dir. Tangenzial - 80144, NAPOLI, NA","prices":[{"type":"petrol","price":1.944,"self":true,"updatedAt":"29/06/2026 06:00:06"},{"type":"diesel","price":2.044,"self":true,"updatedAt":"29/06/2026 06:00:06"}]},{"id":"18622","lat":40.88963560826791,"lon":14.26982154106986,"name":"santangelo carburanti","brand":"Q8","address":"VIA DEL CASSANO 181-ABC, 80144, NAPOLI, NA","prices":[{"type":"petrol","price":1.879,"self":true,"updatedAt":"25/06/2026 11:11:03"},{"type":"diesel","price":1.979,"self":true,"updatedAt":"25/06/2026 11:11:03"}]},{"id":"41371","lat":40.84786299922204,"lon":14.288355434862751,"name":"SC. OIL","brand":"Pompe Bianche","address":"VIA EMANUELE GIANTURCO  78 80146, NAPOLI, NA","prices":[{"type":"petrol","price":1.749,"self":true,"updatedAt":"29/06/2026 23:31:59"},{"type":"diesel","price":1.809,"self":true,"updatedAt":"29/06/2026 23:31:59"}]},{"id":"19425","lat":40.84932019405211,"lon":14.333755820989609,"name":"SIMONETTI ANTONIO RAFFAELE","brand":"Q8","address":"VIA BARTOLO LONGO  80147, NAPOLI, NA","prices":[{"type":"petrol","price":1.899,"self":false,"updatedAt":"27/06/2026 06:46:55"},{"type":"diesel","price":1.999,"self":false,"updatedAt":"27/06/2026 06:46:55"}]},{"id":"36303","lat":40.87240924540136,"lon":14.302085129695683,"name":"Staroil","brand":"Pompe Bianche","address":"VIA STADERA A POGGIOREALE 76 80143, NAPOLI, NA","prices":[{"type":"petrol","price":1.799,"self":true,"updatedAt":"29/06/2026 07:23:17"},{"type":"diesel","price":1.889,"self":true,"updatedAt":"29/06/2026 07:23:17"}]},{"id":"62350","lat":40.8467921,"lon":14.3376112,"name":"StarOil SARNO MARTINA","brand":"Pompe Bianche","address":"BARTOLO LONGO 94 80147, NAPOLI, NA","prices":[{"type":"petrol","price":1.795,"self":true,"updatedAt":"22/06/2026 13:06:41"},{"type":"diesel","price":1.895,"self":true,"updatedAt":"22/06/2026 13:06:40"}]},{"id":"62282","lat":40.8467921,"lon":14.3376112,"name":"StarOil SARNO MARTINA","brand":"Pompe Bianche","address":"BARTOLO LONGO 94 80147, NAPOLI, NA","prices":[{"type":"petrol","price":1.795,"self":true,"updatedAt":"22/06/2026 13:06:06"},{"type":"diesel","price":1.895,"self":true,"updatedAt":"22/06/2026 13:06:06"}]},{"id":"17040","lat":40.860093110866615,"lon":14.270334894045618,"name":"Staz.Q8 Santangelo A.","brand":"Q8","address":"PIAZZA PODERICO S.N. 80141, NAPOLI, NA","prices":[{"type":"petrol","price":1.829,"self":true,"updatedAt":"27/06/2026 06:26:53"},{"type":"diesel","price":1.929,"self":true,"updatedAt":"27/06/2026 06:26:53"}]},{"id":"59679","lat":40.7759255,"lon":14.4816433,"name":"STAZIONE DI SERVIZIO ESSO","brand":"Esso","address":"SCARFOGLIO 13 80125, NAPOLI, NA","prices":[{"type":"petrol","price":1.839,"self":true,"updatedAt":"22/06/2026 16:49:05"},{"type":"diesel","price":1.949,"self":true,"updatedAt":"22/06/2026 16:49:05"}]},{"id":"54965","lat":40.8551424,"lon":14.2606336,"name":"STAZIONE DI SERVIZIO ESSO","brand":"Esso","address":"DELLE REPUBBLICHE MARINARE 292 80146, NAPOLI, NA","prices":[{"type":"petrol","price":1.789,"self":true,"updatedAt":"29/06/2026 12:21:28"},{"type":"diesel","price":1.899,"self":true,"updatedAt":"29/06/2026 12:21:28"}]},{"id":"58489","lat":40.878199265717,"lon":14.270573302340026,"name":"STAZIONE UNOIL CALATA CAPODICHINO","brand":"Pompe Bianche","address":"Calata Capodichino snc, NAPOLI, NA","prices":[{"type":"petrol","price":1.859,"self":true,"updatedAt":"29/06/2026 08:19:58"},{"type":"diesel","price":1.899,"self":true,"updatedAt":"29/06/2026 08:19:58"}]},{"id":"20214","lat":40.874372383450705,"lon":14.264776338943761,"name":"Tamoil di Vitale G.ppe","brand":"Tamoil","address":"VIA ULDERICO MASONI SNC 80141, NAPOLI, NA","prices":[{"type":"petrol","price":1.799,"self":true,"updatedAt":"30/06/2026 00:27:55"},{"type":"diesel","price":1.869,"self":true,"updatedAt":"30/06/2026 00:27:55"}]},{"id":"54174","lat":40.888922382140294,"lon":14.25703089684248,"name":"TIBER","brand":"Pompe Bianche","address":"via regina margherita 88 80145, NAPOLI, NA","prices":[{"type":"petrol","price":1.979,"self":false,"updatedAt":"25/06/2026 22:27:17"},{"type":"diesel","price":1.999,"self":false,"updatedAt":"25/06/2026 22:27:17"}]},{"id":"35669","lat":40.86996616260606,"lon":14.266964194482966,"name":"TIBER","brand":"Pompe Bianche","address":"VIA NICOLA NICOLINI FRONTE 40 80141, NAPOLI, NA","prices":[{"type":"petrol","price":1.798,"self":true,"updatedAt":"24/06/2026 21:34:32"},{"type":"diesel","price":1.899,"self":true,"updatedAt":"24/06/2026 21:34:32"}]},{"id":"52792","lat":40.8411873655859,"lon":14.256052838277302,"name":"TIBER COLOMBO","brand":"Pompe Bianche","address":"Via Cristoforo Colombo 51 80133, NAPOLI, NA","prices":[{"type":"petrol","price":1.899,"self":false,"updatedAt":"29/06/2026 09:32:27"},{"type":"diesel","price":1.979,"self":false,"updatedAt":"29/06/2026 09:32:27"}]},{"id":"54531","lat":40.8677386,"lon":14.2731642,"name":"TIBER DON BOSCO","brand":"Pompe Bianche","address":"Via Don Giovanni Bosco 56 80141, NAPOLI, NA","prices":[{"type":"petrol","price":1.899,"self":false,"updatedAt":"29/06/2026 09:32:42"},{"type":"diesel","price":1.979,"self":false,"updatedAt":"29/06/2026 09:32:42"}]},{"id":"36990","lat":40.85767154214771,"lon":14.326563896172615,"name":"Total - Erg","brand":"Api-Ip","address":"ARGINE DISTRIB. FINA 707 80147, NAPOLI, NA","prices":[{"type":"petrol","price":1.819,"self":false,"updatedAt":"29/06/2026 10:33:45"},{"type":"diesel","price":1.919,"self":false,"updatedAt":"29/06/2026 10:33:45"}]},{"id":"32831","lat":40.86229217758946,"lon":14.287518560886383,"name":"totalerg","brand":"Api-Ip","address":"Statale 162 dir del Centro Direzionale, Km. 162, dir. USCITA NAPOLI  80142, NAPOLI, NA","prices":[{"type":"petrol","price":1.859,"self":true,"updatedAt":"27/06/2026 08:58:04"},{"type":"diesel","price":1.964,"self":true,"updatedAt":"27/06/2026 08:58:04"}]},{"id":"40691","lat":40.862242479019024,"lon":14.287491738796234,"name":"TOTALERG","brand":"Api-Ip","address":"INGRESSO RAMPA DIR.PAESI VESUVIANI SNC 80100, NAPOLI, NA","prices":[{"type":"petrol","price":1.859,"self":true,"updatedAt":"27/06/2026 08:58:13"},{"type":"diesel","price":1.964,"self":true,"updatedAt":"27/06/2026 08:58:13"}]},{"id":"36224","lat":40.8671967359026,"lon":14.272671863436699,"name":"TOTALERG","brand":"Pompe Bianche","address":"VIA DON BOSCO 84 80141, NAPOLI, NA","prices":[{"type":"petrol","price":1.969,"self":true,"updatedAt":"16/06/2026 16:23:37"},{"type":"diesel","price":1.999,"self":true,"updatedAt":"16/06/2026 16:23:37"}]},{"id":"15690","lat":40.8660534,"lon":14.2652022,"name":"Unoil","brand":"Esso","address":"Piazza Gian Battista Vico  80137, NAPOLI, NA","prices":[{"type":"petrol","price":1.859,"self":false,"updatedAt":"27/06/2026 19:25:00"},{"type":"diesel","price":1.919,"self":false,"updatedAt":"27/06/2026 19:25:00"}]},{"id":"62196","lat":40.8477845,"lon":14.3004442,"name":"VAL FUEL S.R.L. - NAPOLI FERRANTE IMPARATO","brand":"Pompe Bianche","address":"Via Ferrante Imparato 251  80147, NAPOLI, NA","prices":[{"type":"petrol","price":1.999,"self":true,"updatedAt":"26/06/2026 10:57:49"},{"type":"diesel","price":1.899,"self":true,"updatedAt":"26/06/2026 10:57:49"}]},{"id":"57528","lat":40.8116806,"lon":14.3437226,"name":"via argine 425","brand":"Pompe Bianche","address":"ARGINE 425 80147, NAPOLI, NA","prices":[{"type":"petrol","price":1.729,"self":false,"updatedAt":"29/06/2026 09:34:11"},{"type":"diesel","price":1.805,"self":false,"updatedAt":"29/06/2026 09:34:11"}]},{"id":"35028","lat":40.875841762819945,"lon":14.27816212560731,"name":"VIALE MADDALENA","brand":"Pompe Bianche","address":"Viale Umberto Maddalena 180 80143, NAPOLI, NA","prices":[{"type":"petrol","price":1.899,"self":true,"updatedAt":"29/06/2026 08:18:39"},{"type":"diesel","price":1.969,"self":true,"updatedAt":"29/06/2026 08:18:39"}]},{"id":"36261","lat":40.84555651635302,"lon":14.30244217668644,"name":"ZACCARO ILARIA & C. SAS","brand":"Q8","address":"REPUBBLICHE MARINARE 7/11 80147, NAPOLI, NA","prices":[{"type":"petrol","price":1.879,"self":true,"updatedAt":"26/06/2026 09:55:45"},{"type":"diesel","price":1.979,"self":true,"updatedAt":"26/06/2026 09:55:45"}]},{"id":"38714","lat":40.96090009531539,"lon":14.487860798835754,"name":"Easy Service Interporto","brand":"Energas","address":"Ingresso Interporto Campano SNC 80035, NOLA, NA","prices":[{"type":"petrol","price":1.849,"self":true,"updatedAt":"29/06/2026 00:23:00"},{"type":"diesel","price":1.899,"self":true,"updatedAt":"29/06/2026 00:23:00"},{"type":"lpg","price":0.769,"self":false,"updatedAt":"29/06/2026 00:23:00"}]},{"id":"55092","lat":40.8901983,"lon":14.4722089,"name":"ip","brand":"Api-Ip","address":"Via Nuova Circumvallazione snc 80035, NOLA, NA","prices":[{"type":"petrol","price":1.799,"self":true,"updatedAt":"26/06/2026 07:47:40"},{"type":"diesel","price":1.869,"self":true,"updatedAt":"26/06/2026 07:47:40"},{"type":"lpg","price":0.729,"self":false,"updatedAt":"26/06/2026 07:47:40"}]},{"id":"5956","lat":40.95376230339099,"lon":14.485746034393287,"name":"NOLA","brand":"Api-Ip","address":"Comprensorio CIS SNC 80035, NOLA, NA","prices":[{"type":"petrol","price":1.809,"self":true,"updatedAt":"29/06/2026 09:09:46"},{"type":"diesel","price":1.859,"self":true,"updatedAt":"29/06/2026 09:09:46"}]},{"id":"53600","lat":40.8518656,"lon":14.270464,"name":"RMN","brand":"Pompe Bianche","address":"Via Castellammare, NOLA, NA","prices":[{"type":"petrol","price":1.979,"self":true,"updatedAt":"28/06/2026 21:30:26"},{"type":"diesel","price":1.939,"self":true,"updatedAt":"28/06/2026 21:30:26"}]},{"id":"61894","lat":40.87096350002856,"lon":14.480229914188385,"name":"STAR OIL - MIKKI","brand":"Pompe Bianche","address":"STATALE 268 DEL VESUVIO KM 11+392 80035, NOLA, NA","prices":[{"type":"petrol","price":1.859,"self":true,"updatedAt":"29/06/2026 09:39:58"},{"type":"diesel","price":1.829,"self":true,"updatedAt":"29/06/2026 09:39:58"},{"type":"lpg","price":0.675,"self":false,"updatedAt":"29/06/2026 09:39:58"}]},{"id":"55040","lat":40.9572,"lon":14.3075,"name":"ESSO","brand":"Esso","address":"ROMA SNC 80044, OTTAVIANO, NA","prices":[{"type":"petrol","price":1.849,"self":true,"updatedAt":"27/06/2026 09:26:44"},{"type":"diesel","price":1.929,"self":true,"updatedAt":"27/06/2026 09:26:44"}]},{"id":"52761","lat":40.8526725393052,"lon":14.490157452594225,"name":"ITALMARE SRL","brand":"CarbonOil","address":"VIA FERROVIA DELLO STATO 101A 80044, OTTAVIANO, NA","prices":[{"type":"petrol","price":1.879,"self":true,"updatedAt":"22/06/2026 12:19:02"},{"type":"diesel","price":1.919,"self":true,"updatedAt":"24/06/2026 12:59:36"},{"type":"lpg","price":0.695,"self":false,"updatedAt":"24/06/2026 12:59:36"}]},{"id":"41990","lat":40.862311489491795,"lon":14.496031226428158,"name":"MANU GAS SRL","brand":"Pompe Bianche","address":"via bosco del gaudio 21/C 80044, OTTAVIANO, NA","prices":[{"type":"petrol","price":1.797,"self":true,"updatedAt":"25/06/2026 11:02:21"},{"type":"diesel","price":1.849,"self":true,"updatedAt":"25/06/2026 11:02:21"},{"type":"methane","price":1.31,"self":false,"updatedAt":"25/06/2026 11:02:21"},{"type":"lpg","price":0.675,"self":false,"updatedAt":"25/06/2026 11:02:21"}]},{"id":"62430","lat":40.876377,"lon":14.371171,"name":"38148 POLLENA TROCCHIA","brand":"Agip Eni","address":"STRADA STATALE 162 DIR. KM6 + 513 DIREZIONE NAPOLI, POLLENA TROCCHIA, NA","prices":[{"type":"petrol","price":1.83,"self":true,"updatedAt":"29/06/2026 00:09:17"},{"type":"diesel","price":1.889,"self":true,"updatedAt":"29/06/2026 00:09:17"},{"type":"methane","price":1.699,"self":false,"updatedAt":"29/06/2026 00:09:17"},{"type":"lpg","price":0.757,"self":false,"updatedAt":"29/06/2026 00:09:17"}]},{"id":"62693","lat":40.855341034513096,"lon":14.37297124281808,"name":"ANGI CARBURANTI","brand":"Pompe Bianche","address":"Via Cimitero  80040, POLLENA TROCCHIA, NA","prices":[{"type":"petrol","price":1.869,"self":true,"updatedAt":"26/06/2026 20:04:20"},{"type":"diesel","price":1.899,"self":true,"updatedAt":"26/06/2026 20:04:20"}]},{"id":"52408","lat":40.85544197127793,"lon":14.373478906745895,"name":"ANGI CARBURANTI","brand":"Pompe Bianche","address":"Via Cimitero SNC 80040, POLLENA TROCCHIA, NA","prices":[{"type":"petrol","price":1.919,"self":true,"updatedAt":"25/05/2026 17:18:55"},{"type":"diesel","price":1.965,"self":true,"updatedAt":"25/05/2026 17:18:55"}]},{"id":"14037","lat":40.86595719221165,"lon":14.377052038908005,"name":"ECO TRADING AREA SRL","brand":"Pompe Bianche","address":"VIA GARIBALDI 11 80040, POLLENA TROCCHIA, NA","prices":[{"type":"petrol","price":1.869,"self":true,"updatedAt":"29/06/2026 12:36:08"},{"type":"diesel","price":1.919,"self":true,"updatedAt":"29/06/2026 12:36:08"},{"type":"lpg","price":0.699,"self":false,"updatedAt":"29/06/2026 12:36:08"}]},{"id":"7526","lat":40.876544472375066,"lon":14.371241382063545,"name":"PICCOLO GROUP","brand":"Agip Eni","address":"S.S.162 dir Napoli Km 6+513  80040, POLLENA TROCCHIA, NA","prices":[{"type":"petrol","price":1.712,"self":true,"updatedAt":"28/05/2026 23:39:59"},{"type":"diesel","price":2.044,"self":true,"updatedAt":"28/05/2026 23:39:59"},{"type":"methane","price":1.699,"self":false,"updatedAt":"28/05/2026 23:39:59"},{"type":"lpg","price":0.772,"self":false,"updatedAt":"28/05/2026 23:39:59"}]},{"id":"62636","lat":40.85494989141933,"lon":14.379171364348586,"name":"SA.GI. CARBURANTI","brand":"Pompe Bianche","address":"Piazza Amodio Nicola 24  80040, POLLENA TROCCHIA, NA","prices":[{"type":"petrol","price":1.949,"self":true,"updatedAt":"25/05/2026 09:50:05"},{"type":"diesel","price":2.039,"self":true,"updatedAt":"25/05/2026 09:50:05"}]},{"id":"61612","lat":40.864109,"lon":14.372058,"name":"star oil","brand":"Agip Eni","address":"GIUSEPPE GARIBALDI 85 80040, POLLENA TROCCHIA, NA","prices":[{"type":"petrol","price":1.819,"self":true,"updatedAt":"29/06/2026 13:24:51"},{"type":"diesel","price":1.899,"self":true,"updatedAt":"29/06/2026 13:24:51"}]},{"id":"55065","lat":40.870985072465,"lon":14.369579318707295,"name":"STAZIONE SERVIZIO IP","brand":"Api-Ip","address":"SS268 268  80048, POLLENA TROCCHIA, NA","prices":[{"type":"petrol","price":1.799,"self":true,"updatedAt":"28/06/2026 08:11:41"},{"type":"diesel","price":1.829,"self":true,"updatedAt":"28/06/2026 08:11:42"},{"type":"methane","price":1.499,"self":false,"updatedAt":"28/06/2026 08:11:42"},{"type":"lpg","price":0.689,"self":false,"updatedAt":"28/06/2026 08:11:42"}]},{"id":"38749","lat":40.9016575467778,"lon":14.41037580370903,"name":"Easy Service Pomigliano D'Arco","brand":"Energas","address":"Via Vesuviana SNC 80038, POMIGLIANO D'ARCO, NA","prices":[{"type":"petrol","price":1.769,"self":true,"updatedAt":"30/06/2026 00:26:08"},{"type":"diesel","price":1.889,"self":true,"updatedAt":"30/06/2026 00:26:08"},{"type":"methane","price":1.399,"self":false,"updatedAt":"29/06/2026 00:23:25"},{"type":"lpg","price":0.699,"self":false,"updatedAt":"29/06/2026 00:23:25"}]},{"id":"14035","lat":40.90014718642661,"lon":14.403037279844284,"name":"ECO TRADING AREA SRL","brand":"Pompe Bianche","address":"VIA VESUVIANA  80038, POMIGLIANO D'ARCO, NA","prices":[{"type":"petrol","price":1.779,"self":true,"updatedAt":"30/06/2026 00:12:43"},{"type":"diesel","price":1.899,"self":true,"updatedAt":"30/06/2026 00:12:43"},