[{"id":"28196","lat":40.99001939347394,"lon":14.79802742600441,"name":"Ghepardoil Altavilla Iprina (AV)","brand":"Pompe Bianche","address":"C.da Casa di Paola sn 83011, ALTAVILLA IRPINA, AV","prices":[{"type":"petrol","price":1.899,"self":true,"updatedAt":"25/06/2026 15:53:28"},{"type":"diesel","price":1.929,"self":true,"updatedAt":"25/06/2026 15:53:28"}]},{"id":"17772","lat":40.98815835921397,"lon":14.779768288135529,"name":"IP-GAS AUTO","brand":"Api-Ip","address":"Statale 88 dei Due Principati, Km. 47.00, dir. AVELLINO  83011, ALTAVILLA IRPINA, AV","prices":[{"type":"petrol","price":1.899,"self":true,"updatedAt":"20/06/2026 21:29:44"},{"type":"diesel","price":1.949,"self":true,"updatedAt":"20/06/2026 21:29:44"},{"type":"lpg","price":0.739,"self":false,"updatedAt":"20/06/2026 21:29:44"}]},{"id":"37281","lat":40.9229603602327,"lon":14.825047063789043,"name":"ESSO ATRIPALDA","brand":"Esso","address":"via san lorenzo 24 83042, ATRIPALDA, AV","prices":[{"type":"petrol","price":1.849,"self":true,"updatedAt":"26/06/2026 07:22:17"},{"type":"diesel","price":1.939,"self":true,"updatedAt":"26/06/2026 07:22:17"},{"type":"lpg","price":0.729,"self":false,"updatedAt":"25/06/2026 00:54:23"}]},{"id":"20140","lat":40.911796544116825,"lon":14.817553907632828,"name":"Ludoil","brand":"Q8","address":"S.S. 7 BIS  83042, ATRIPALDA, AV","prices":[{"type":"petrol","price":1.819,"self":true,"updatedAt":"25/06/2026 12:20:59"},{"type":"diesel","price":1.899,"self":true,"updatedAt":"25/06/2026 12:20:59"}]},{"id":"16883","lat":40.924116284775046,"lon":14.830764457583427,"name":"stazione esso Atripalda","brand":"Esso","address":"MANFREDI 97 83042, ATRIPALDA, AV","prices":[{"type":"petrol","price":1.819,"self":true,"updatedAt":"26/06/2026 07:42:56"},{"type":"diesel","price":1.909,"self":true,"updatedAt":"26/06/2026 07:42:56"}]},{"id":"54042","lat":40.915109765804104,"lon":14.81030176083243,"name":"ENI 08253","brand":"Agip Eni","address":"F.TEDESCO SNC 83100, AVELLINO, AV","prices":[{"type":"petrol","price":1.829,"self":true,"updatedAt":"25/06/2026 01:12:03"},{"type":"diesel","price":1.909,"self":true,"updatedAt":"26/06/2026 05:40:09"},{"type":"lpg","price":0.732,"self":false,"updatedAt":"25/06/2026 23:31:57"}]},{"id":"15720","lat":40.929371500629365,"lon":14.81932282447815,"name":"AVELLINO","brand":"Api-Ip","address":"Contrada Fontanatetta 24 83100, AVELLINO, AV","prices":[{"type":"petrol","price":1.869,"self":true,"updatedAt":"25/06/2026 11:27:32"},{"type":"diesel","price":1.959,"self":true,"updatedAt":"25/06/2026 11:27:32"},{"type":"methane","price":1.499,"self":false,"updatedAt":"25/06/2026 11:27:32"},{"type":"lpg","price":0.739,"self":false,"updatedAt":"25/06/2026 11:27:32"}]},{"id":"6709","lat":40.92372251983429,"lon":14.82066155893017,"name":"AVELLINO VIA F. TEDESCO","brand":"Q8","address":"VIA F. TEDESCO SNC 83100, AVELLINO, AV","prices":[{"type":"petrol","price":1.829,"self":true,"updatedAt":"24/06/2026 16:37:16"},{"type":"diesel","price":1.909,"self":true,"updatedAt":"24/06/2026 16:37:16"}]},{"id":"25512","lat":40.90781606934293,"lon":14.766097355155921,"name":"ENI","brand":"Agip Eni","address":"VIALE ITALIA 481 83100, AVELLINO, AV","prices":[{"type":"petrol","price":1.829,"self":true,"updatedAt":"25/06/2026 19:32:08"},{"type":"diesel","price":1.909,"self":true,"updatedAt":"25/06/2026 19:32:08"}]},{"id":"17307","lat":40.93833715152555,"lon":14.824255406856537,"name":"essofuelservice","brand":"Esso","address":"VIA CONSORTILE SNC 83100, AVELLINO, AV","prices":[{"type":"petrol","price":1.849,"self":true,"updatedAt":"25/06/2026 18:59:10"},{"type":"diesel","price":1.909,"self":true,"updatedAt":"25/06/2026 18:59:10"}]},{"id":"43626","lat":40.92774513253251,"lon":14.765995457672147,"name":"EUGENIO MATARAZZO","brand":"Pompe Bianche","address":"VIA PENNINI SNC 83100, AVELLINO, AV","prices":[{"type":"petrol","price":1.839,"self":true,"updatedAt":"25/06/2026 12:24:30"},{"type":"diesel","price":1.919,"self":true,"updatedAt":"25/06/2026 12:24:30"}]},{"id":"52287","lat":40.928338923017954,"lon":14.79492835367,"name":"IMPIANTO CARBURANTI Q8 DI CUCCINIELLO ANTONIO","brand":"Q8","address":"CONTRADA AMORETTA SNC 83100, AVELLINO, AV","prices":[{"type":"petrol","price":1.849,"self":true,"updatedAt":"25/06/2026 11:17:48"},{"type":"diesel","price":1.939,"self":true,"updatedAt":"25/06/2026 11:17:48"}]},{"id":"58130","lat":40.90365,"lon":14.79283,"name":"Impianto IP Avellino Quattrograne","brand":"Api-Ip","address":"VIA DE CONCILIIS - LOC. QUATTROGRANE (EX MERCATONE 38)  83100, AVELLINO, AV","prices":[{"type":"petrol","price":1.819,"self":true,"updatedAt":"25/06/2026 11:01:31"},{"type":"diesel","price":1.899,"self":true,"updatedAt":"25/06/2026 11:01:31"}]},{"id":"3686","lat":40.926156813840905,"lon":14.782506880950905,"name":"IRPINIA NORD","brand":"Tamoil","address":"Autostrada A16 NAPOLI-CANOSA, Km. 44+200, dir. Ovest - 83100, AVELLINO, AV","prices":[{"type":"petrol","price":1.869,"self":true,"updatedAt":"25/06/2026 16:23:04"},{"type":"diesel","price":1.949,"self":true,"updatedAt":"25/06/2026 16:23:04"},{"type":"lpg","price":0.879,"self":false,"updatedAt":"25/06/2026 16:23:04"}]},{"id":"60755","lat":40.92606276039391,"lon":14.783987084655775,"name":"IRPINIA SUD","brand":"Api-Ip","address":"Autostrada A16 NAPOLI-CANOSA,  Km. 44, dir. CANOSA 83100, AVELLINO, AV","prices":[{"type":"petrol","price":1.829,"self":true,"updatedAt":"25/06/2026 09:13:58"},{"type":"diesel","price":1.929,"self":true,"updatedAt":"25/06/2026 09:13:58"}]},{"id":"51627","lat":40.919786018036866,"lon":14.802547979012015,"name":"NEOFUEL AVELLINO","brand":"Pompe Bianche","address":"VIA DON GIOVANNI FESTA SNC 83100, AVELLINO, AV","prices":[{"type":"petrol","price":1.819,"self":true,"updatedAt":"25/06/2026 13:14:12"},{"type":"diesel","price":1.899,"self":true,"updatedAt":"25/06/2026 13:14:12"}]},{"id":"60900","lat":40.90996,"lon":14.7952,"name":"PET - AVELLINO","brand":"Pompe Bianche","address":"DE CONCILIS GIUSEPPE SNC 83100, AVELLINO, AV","prices":[{"type":"petrol","price":1.819,"self":true,"updatedAt":"25/06/2026 15:47:25"},{"type":"diesel","price":1.899,"self":true,"updatedAt":"25/06/2026 15:47:25"},{"type":"lpg","price":0.739,"self":false,"updatedAt":"25/06/2026 15:47:25"}]},{"id":"35040","lat":40.92303122478552,"lon":14.779494032263756,"name":"PETROIL","brand":"Pompe Bianche","address":"VIA TAGLIAMENTO 357/B 83100, AVELLINO, AV","prices":[{"type":"petrol","price":1.819,"self":true,"updatedAt":"23/06/2026 16:31:10"},{"type":"diesel","price":1.909,"self":true,"updatedAt":"23/06/2026 16:31:10"}]},{"id":"59321","lat":40.92424,"lon":14.79731,"name":"STAROIL","brand":"Lukoil","address":"Contrada Amoretta  83100, AVELLINO, AV","prices":[{"type":"petrol","price":1.814,"self":true,"updatedAt":"25/06/2026 21:18:34"},{"type":"diesel","price":1.899,"self":true,"updatedAt":"25/06/2026 21:18:34"}]},{"id":"32344","lat":40.91620916577134,"lon":14.801430478692055,"name":"Stazione di servizio Q8","brand":"Q8","address":"VIA CIRCUMVALLAZIONE 333 83100, AVELLINO, AV","prices":[{"type":"petrol","price":1.829,"self":true,"updatedAt":"25/06/2026 12:18:21"},{"type":"diesel","price":1.919,"self":true,"updatedAt":"25/06/2026 12:18:21"}]},{"id":"46325","lat":40.905027877274534,"lon":14.786371860118834,"name":"Stazione di Servizio Q8","brand":"Q8","address":"7 bis di Terra di Lavoro, Km. 81.113, NordOvest - 83100, AVELLINO, AV","prices":[{"type":"petrol","price":1.839,"self":true,"updatedAt":"26/06/2026 07:29:11"},{"type":"diesel","price":1.939,"self":true,"updatedAt":"26/06/2026 07:29:11"}]},{"id":"20817","lat":40.91805204350412,"lon":14.772965889549255,"name":"Stazione di servizio Q8","brand":"Q8","address":"VIA MORELLI E SILVATI 182 83100, AVELLINO, AV","prices":[{"type":"petrol","price":1.829,"self":true,"updatedAt":"25/06/2026 12:17:16"},{"type":"diesel","price":1.929,"self":true,"updatedAt":"25/06/2026 12:17:16"}]},{"id":"16840","lat":40.908048523426544,"lon":14.796711131930351,"name":"stazione esso via due principati","brand":"Esso","address":"VIA DUE PRINCIPATI 244 83100, AVELLINO, AV","prices":[{"type":"petrol","price":1.869,"self":true,"updatedAt":"26/06/2026 07:42:21"},{"type":"diesel","price":1.969,"self":true,"updatedAt":"26/06/2026 07:42:21"}]},{"id":"46690","lat":40.91360705503763,"lon":14.766263108224848,"name":"STAZIONE SERVIZIO Q8","brand":"Q8","address":"VIA U. NOBILE LOC. VALLE  83100, AVELLINO, AV","prices":[{"type":"petrol","price":1.849,"self":true,"updatedAt":"25/06/2026 12:15:37"},{"type":"diesel","price":1.939,"self":true,"updatedAt":"25/06/2026 12:15:37"}]},{"id":"36405","lat":40.92832543554228,"lon":14.789339751005173,"name":"TOIL","brand":"Toil","address":"VIA ANNARUMMA 108 83100, AVELLINO, AV","prices":[{"type":"petrol","price":1.829,"self":false,"updatedAt":"25/06/2026 00:09:56"},{"type":"diesel","price":1.929,"self":false,"updatedAt":"25/06/2026 00:09:56"},{"type":"lpg","price":0.739,"self":false,"updatedAt":"25/06/2026 00:09:56"}]},{"id":"29648","lat":40.88386148696783,"lon":14.992573410272598,"name":"EWA POINT CASSANO IRPINO","brand":"Pompe Bianche","address":"S.S. 7 OFANTINA BIS KM 328+041 SNC 83040, CASSANO IRPINO, AV","prices":[{"type":"petrol","price":1.654,"self":true,"updatedAt":"25/06/2026 23:14:10"},{"type":"diesel","price":1.595,"self":true,"updatedAt":"25/06/2026 23:14:10"}]},{"id":"36239","lat":40.94157572065289,"lon":14.969776645302773,"name":"stazione esso baratta sas castelvetere","brand":"Esso","address":"Statale 400 di Castelvetere, Km. 8+025, dir. castelvetere  83040, CASTELVETERE SUL CALORE, AV","prices":[{"type":"petrol","price":1.879,"self":true,"updatedAt":"23/06/2026 13:30:51"},{"type":"diesel","price":1.939,"self":true,"updatedAt":"23/06/2026 13:30:51"}]},{"id":"56113","lat":40.89843179134665,"lon":14.825677166228118,"name":"STAR OIL","brand":"Pompe Bianche","address":"Viale Sabino Cocchia  83020, CESINALI, AV","prices":[{"type":"petrol","price":1.969,"self":false,"updatedAt":"08/06/2026 12:48:20"},{"type":"diesel","price":2.099,"self":false,"updatedAt":"08/06/2026 12:48:20"}]},{"id":"35970","lat":40.93127917921176,"lon":14.905255436897278,"name":"TOLINO MARIO","brand":"Q8","address":"VIA SS 400 OFANTINA SNC 83040, CHIUSANO DI SAN DOMENICO (AV)  83040, CHIUSANO DI SAN DOMENICO, AV","prices":[{"type":"petrol","price":1.869,"self":true,"updatedAt":"24/06/2026 08:28:39"},{"type":"diesel","price":1.959,"self":true,"updatedAt":"24/06/2026 08:28:39"}]},{"id":"59105","lat":40.87207,"lon":14.78137,"name":"IMPIANTO CARBURANTI Q8 DI IANNACCONE PIETRO","brand":"Q8","address":"VAROSANO 7 83020, CONTRADA, AV","prices":[{"type":"petrol","price":1.869,"self":true,"updatedAt":"22/06/2026 20:02:29"},{"type":"diesel","price":1.969,"self":true,"updatedAt":"22/06/2026 20:02:29"}]},{"id":"41410","lat":40.85903162674426,"lon":14.753436188678165,"name":"FACOM GAS SRL","brand":"Pompe Bianche","address":"S.S. 88  KM 25+200 SNC 83020, FORINO, AV","prices":[{"type":"petrol","price":1.899,"self":true,"updatedAt":"25/06/2026 19:17:01"},{"type":"diesel","price":1.999,"self":true,"updatedAt":"25/06/2026 19:17:01"}]},{"id":"34887","lat":40.85911829117599,"lon":14.750862792134285,"name":"TOTALERG","brand":"Api-Ip","address":"SS 403 KM 26+930 SNC 83020, FORINO, AV","prices":[{"type":"petrol","price":1.899,"self":true,"updatedAt":"23/06/2026 22:39:40"},{"type":"diesel","price":1.999,"self":true,"updatedAt":"23/06/2026 22:39:40"}]},{"id":"40457","lat":40.97699510035347,"lon":14.782076328992844,"name":"Stazione di servizio Grottolella","brand":"Beneco","address":"STRADA STATALE 88  83010, GROTTOLELLA, AV","prices":[{"type":"petrol","price":1.895,"self":true,"updatedAt":"22/06/2026 10:49:35"},{"type":"diesel","price":1.925,"self":true,"updatedAt":"22/06/2026 10:49:35"}]},{"id":"62462","lat":40.980923,"lon":14.943927,"name":"StarOil","brand":"Pompe Bianche","address":"Via S. Martino 42  83030, LAPIO, AV","prices":[{"type":"petrol","price":1.849,"self":false,"updatedAt":"23/06/2026 20:46:54"},{"type":"diesel","price":1.889,"self":false,"updatedAt":"23/06/2026 20:46:54"}]},{"id":"26651","lat":40.93954425839254,"lon":14.832382500171661,"name":"AGIP","brand":"Agip Eni","address":"VIA VARIANTE EST  83030, MANOCALZATI, AV","prices":[{"type":"petrol","price":1.859,"self":true,"updatedAt":"25/06/2026 00:36:45"},{"type":"diesel","price":1.954,"self":true,"updatedAt":"25/06/2026 19:40:11"}]},{"id":"35675","lat":40.932124587056784,"lon":14.83059212565422,"name":"Automarketsas","brand":"Esso","address":"VARIANTE EST  83030, MANOCALZATI, AV","prices":[{"type":"petrol","price":1.819,"self":true,"updatedAt":"25/06/2026 19:22:49"},{"type":"diesel","price":1.899,"self":true,"updatedAt":"25/06/2026 19:22:49"}]},{"id":"39642","lat":40.93722557906391,"lon":14.83199492096901,"name":"BARRASSOCARBURANTI","brand":"Api-Ip","address":"Statale 7 bis di Terra di Lavoro, Km. 7+305, dir. avellino - 83035, MANOCALZATI, AV","prices":[{"type":"petrol","price":1.959,"self":true,"updatedAt":"22/06/2026 17:23:33"},{"type":"diesel","price":1.999,"self":true,"updatedAt":"22/06/2026 17:23:33"},{"type":"methane","price":1.499,"self":false,"updatedAt":"22/06/2026 17:23:33"}]},{"id":"23588","lat":40.9308682244521,"lon":14.83266681432724,"name":"Ip Manocalzati","brand":"Api-Ip","address":"S.S. OFANTINA SNC 83030, MANOCALZATI, AV","prices":[{"type":"petrol","price":1.849,"self":true,"updatedAt":"25/06/2026 11:18:57"},{"type":"diesel","price":1.869,"self":true,"updatedAt":"25/06/2026 11:18:57"},{"type":"lpg","price":0.699,"self":false,"updatedAt":"25/06/2026 11:18:57"}]},{"id":"29550","lat":40.940732865107506,"lon":14.832680225372314,"name":"stazione esso manocalzati(av)","brand":"Esso","address":"S.S.7BIS KM 307+316 SNC 83030, MANOCALZATI, AV","prices":[{"type":"petrol","price":1.869,"self":true,"updatedAt":"22/06/2026 13:08:59"},{"type":"diesel","price":1.959,"self":true,"updatedAt":"22/06/2026 13:08:59"}]},{"id":"53109","lat":40.9073699,"lon":14.7580384,"name":"Stazione di Servizio Esso","brand":"Esso","address":"S.S. 7 BIS KM. 78+600 SNC 83013, MERCOGLIANO, AV","prices":[{"type":"petrol","price":1.859,"self":true,"updatedAt":"24/06/2026 12:14:46"},{"type":"diesel","price":1.959,"self":true,"updatedAt":"24/06/2026 12:14:46"}]},{"id":"5378","lat":40.907350382974286,"lon":14.753007888793945,"name":"Stazione di Servizio Q8 Giliberti Carburanti S.r.l.","brand":"Q8","address":"VIA NAZIONALE TORRETTE 225 83013, MERCOGLIANO, AV","prices":[{"type":"petrol","price":1.849,"self":true,"updatedAt":"25/06/2026 11:29:34"},{"type":"diesel","price":1.949,"self":true,"updatedAt":"25/06/2026 11:29:34"}]},{"id":"13954","lat":40.96253910094148,"lon":14.877860024571419,"name":"STAZIONE DI SERVIZIO Q8 di COLARUSSO FRANCO","brand":"Q8","address":"VIA FORESTA  83030, MONTEFALCIONE, AV","prices":[{"type":"petrol","price":1.889,"self":true,"updatedAt":"24/06/2026 08:39:53"},{"type":"diesel","price":1.989,"self":true,"updatedAt":"24/06/2026 08:39:53"}]},{"id":"25898","lat":40.96199729379133,"lon":14.832959175109863,"name":"siniscalchi alessandro","brand":"Q8","address":"VIA PROVINCIALE  83030, MONTEFREDANE, AV","prices":[{"type":"petrol","price":1.864,"self":false,"updatedAt":"22/06/2026 08:06:34"},{"type":"diesel","price":1.944,"self":false,"updatedAt":"22/06/2026 08:06:34"},{"type":"lpg","price":0.729,"self":false,"updatedAt":"22/06/2026 08:06:34"}]},{"id":"5372","lat":40.99456080934492,"lon":14.89971935749054,"name":"stazione di servizio q8 di colella carlo & c. snc","brand":"Q8","address":"Statale 7 Via Appia, Km. 295+415, dir. foggia - 83038, MONTEMILETTO, AV","prices":[{"type":"petrol","price":1.899,"self":true,"updatedAt":"20/06/2026 08:08:57"},{"type":"diesel","price":1.969,"self":true,"updatedAt":"20/06/2026 08:08:57"}]},{"id":"39971","lat":40.82019305938883,"lon":14.779603332281113,"name":"CALIFANO SERVICE - MONTORO","brand":"Pompe Bianche","address":"VIA cimitero snc 83025, MONTORO (AV) SNC 83025, MONTORO, AV","prices":[{"type":"petrol","price":1.849,"self":true,"updatedAt":"25/06/2026 14:28:08"},{"type":"diesel","price":1.949,"self":true,"updatedAt":"25/06/2026 14:28:08"},{"type":"methane","price":1.469,"self":false,"updatedAt":"25/06/2026 14:28:08"},{"type":"lpg","price":0.779,"self":false,"updatedAt":"25/06/2026 14:28:08"}]},{"id":"18695","lat":40.826716519464625,"lon":14.779516160488129,"name":"Demav petroli","brand":"Q8","address":"VIA L. DA VINCI 23 83025, MONTORO, AV","prices":[{"type":"petrol","price":1.859,"self":true,"updatedAt":"24/06/2026 08:00:42"},{"type":"diesel","price":1.949,"self":true,"updatedAt":"24/06/2026 08:00:42"}]},{"id":"56594","lat":40.81083903600853,"lon":14.773026668211617,"name":"ENI Belmonte Giuseppe","brand":"Agip Eni","address":"P. ASCOLESE 13 83025, MONTORO, AV","prices":[{"type":"petrol","price":1.829,"self":true,"updatedAt":"25/06/2026 00:23:38"},{"type":"diesel","price":1.919,"self":true,"updatedAt":"25/06/2026 00:23:38"}]},{"id":"32471","lat":40.82303472011694,"lon":14.760104343295097,"name":"fuelsorrentino","brand":"Pompe Bianche","address":"VIA ROMA 8 83025, MONTORO, AV","prices":[{"type":"petrol","price":1.849,"self":true,"updatedAt":"22/06/2026 08:14:54"},{"type":"diesel","price":1.949,"self":true,"updatedAt":"22/06/2026 08:14:55"}]},{"id":"50721","lat":40.817279572041805,"lon":14.775605282777565,"name":"Irpinia Carburanti","brand":"Pompe Bianche","address":"Via Leone   83025, MONTORO, AV","prices":[{"type":"petrol","price":1.829,"self":true,"updatedAt":"22/06/2026 06:24:17"},{"type":"diesel","price":1.919,"self":true,"updatedAt":"22/06/2026 06:24:17"}]},{"id":"52531","lat":40.82230787546919,"lon":14.804164320230484,"name":"LUDOIL","brand":"Pompe Bianche","address":"VIA CAMPO DEI FIORI  83025, MONTORO, AV","prices":[{"type":"petrol","price":1.859,"self":true,"updatedAt":"22/06/2026 08:42:34"},{"type":"diesel","price":1.959,"self":true,"updatedAt":"22/06/2026 08:42:34"}]},{"id":"60921","lat":40.82618725611425,"lon":14.814599531760404,"name":"STAR OIL","brand":"Pompe Bianche","address":"PROV.LE N.5 LOC. CHIUSA SNC 83025, MONTORO, AV","prices":[{"type":"petrol","price":1.899,"self":true,"updatedAt":"22/06/2026 11:48:17"},{"type":"diesel","price":1.999,"self":true,"updatedAt":"22/06/2026 11:48:17"},{"type":"lpg","price":0.769,"self":true,"updatedAt":"22/06/2026 11:48:17"}]},{"id":"40971","lat":40.93603577457025,"lon":14.750839993357658,"name":"STAZIONE DI SERVIZIO Q8","brand":"Q8","address":"CONTRADA CASALE SNC 83014, OSPEDALETTO D'ALPINOLO, AV","prices":[{"type":"petrol","price":1.869,"self":true,"updatedAt":"23/06/2026 09:03:59"},{"type":"diesel","price":1.959,"self":true,"updatedAt":"23/06/2026 09:03:59"}]},{"id":"63325","lat":40.99381,"lon":14.852891,"name":"SAT PRATA","brand":"Pompe Bianche","address":"VIA TAVERNANOVA S.P. 243 83030, PRATA DI PRINCIPATO ULTRA, AV","prices":[{"type":"petrol","price":1.829,"self":true,"updatedAt":"25/06/2026 11:40:16"},{"type":"diesel","price":1.929,"self":true,"updatedAt":"25/06/2026 11:40:16"}]},{"id":"27565","lat":40.96860987232541,"lon":14.839010238647461,"name":"MOCCIA","brand":"Pompe Bianche","address":"7/BIS KM. 304+200 SNC 83039, PRATOLA SERRA, AV","prices":[{"type":"petrol","price":1.856,"self":false,"updatedAt":"22/06/2026 15:50:28"},{"type":"diesel","price":1.958,"self":false,"updatedAt":"22/06/2026 15:50:28"},{"type":"methane","price":1.499,"self":false,"updatedAt":"22/06/2026 15:50:28"}]},{"id":"27561","lat":40.96932721289087,"lon":14.839375019073486,"name":"MOCCIA","brand":"Pompe Bianche","address":"VIA VIA SS. 7 BIS KM.304+50 SNC 83039, PRATOLA SERRA (AV)  83039, PRATOLA SERRA, AV","prices":[{"type":"lpg","price":0.729,"self":false,"updatedAt":"20/06/2026 09:20:49"}]},{"id":"20092","lat":40.9722685922129,"lon":14.841953963041306,"name":"Pratola Serra","brand":"Api-Ip","address":"Strada Statale 7 Km. 302+100   83039, PRATOLA SERRA, AV","prices":[{"type":"petrol","price":1.859,"self":true,"updatedAt":"25/06/2026 09:15:03"},{"type":"diesel","price":1.939,"self":true,"updatedAt":"25/06/2026 19:05:47"}]},{"id":"9836","lat":40.96470425961358,"lon":14.837045520544052,"name":"staz.carburanti est","brand":"Q8","address":"Statale 7 Via Appia, Km. 304, dir. sud, PRATOLA SERRA, AV","prices":[{"type":"petrol","price":1.869,"self":true,"updatedAt":"23/06/2026 06:19:23"},{"type":"diesel","price":1.969,"self":true,"updatedAt":"23/06/2026 06:19:23"}]},{"id":"40535","lat":40.96654023423361,"lon":14.993946701288223,"name":"Stazione di servizio San Mango sul Calore","brand":"Beneco","address":"STRADA STATALE 291 1 LOC. PESCORE  83050, SAN MANGO SUL CALORE, AV","prices":[{"type":"petrol","price":1.895,"self":true,"updatedAt":"22/06/2026 10:49:59"},{"type":"diesel","price":1.925,"self":true,"updatedAt":"22/06/2026 10:49:59"}]},{"id":"21999","lat":40.87207496989957,"lon":14.85431358218193,"name":"carburanti Q8 di romeo liberato","brand":"Q8","address":"via taverna ferriera 38 83020, SAN MICHELE DI SERINO, AV","prices":[{"type":"petrol","price":1.899,"self":true,"updatedAt":"25/06/2026 12:38:20"},{"type":"diesel","price":1.959,"self":true,"updatedAt":"25/06/2026 12:38:20"}]},{"id":"46372","lat":40.93029056181697,"lon":14.867800179149981,"name":"P.V. ESSO GILIBERTI CARBURANTI S.R.L.","brand":"Esso","address":"S.S. 7 OFANTINA KM 4+400  83050, SAN POTITO ULTRA, AV","prices":[{"type":"petrol","price":1.859,"self":true,"updatedAt":"25/06/2026 11:30:11"},{"type":"diesel","price":1.869,"self":true,"updatedAt":"25/06/2026 11:30:11"},{"type":"lpg","price":0.729,"self":false,"updatedAt":"25/06/2026 11:30:11"}]},{"id":"44428","lat":40.88603094421147,"lon":14.855096915344234,"name":"Delta Petroli S.S.del Sole","brand":"Pompe Bianche","address":"strada Provinciale Turci 5 48 83050, SANTO STEFANO DEL SOLE, AV","prices":[{"type":"petrol","price":1.929,"self":true,"updatedAt":"25/06/2026 16:03:54"},{"type":"diesel","price":1.949,"self":true,"updatedAt":"25/06/2026 16:03:54"}]},{"id":"61175","lat":40.8688408957116,"lon":14.856973383922586,"name":"DISTRIBUTORE SERINO","brand":"Beneco","address":"VIA FERRIERE 3 83028, SERINO, AV","prices":[{"type":"lpg","price":0.725,"self":false,"updatedAt":"25/06/2026 17:08:51"}]},{"id":"49501","lat":40.85395646020643,"lon":14.87045340736075,"name":"ESSO","brand":"Esso","address":"VIA ROMA 4 83028, SERINO, AV","prices":[{"type":"petrol","price":1.929,"self":true,"updatedAt":"24/06/2026 21:30:41"},{"type":"diesel","price":1.959,"self":true,"updatedAt":"24/06/2026 21:30:41"}]},{"id":"36316","lat":40.86431842755153,"lon":14.871104881167412,"name":"Impianto Carburanti Q8 Serino","brand":"Q8","address":"Via Lenze snc 83028, SERINO, AV","prices":[{"type":"petrol","price":1.899,"self":true,"updatedAt":"25/06/2026 12:16:00"},{"type":"diesel","price":1.959,"self":true,"updatedAt":"25/06/2026 12:16:00"}]},{"id":"60920","lat":40.8574518,"lon":14.8682378,"name":"SACOL","brand":"Q8","address":"Via Terminio 19  83028, SERINO, AV","prices":[{"type":"petrol","price":1.899,"self":true,"updatedAt":"24/06/2026 20:18:24"},{"type":"diesel","price":1.979,"self":true,"updatedAt":"24/06/2026 20:18:24"}]},{"id":"9420","lat":40.85612602453218,"lon":14.870915114879608,"name":"Stazione servizio carburanti","brand":"Pompe Bianche","address":"VIA PESCATORE SNC 83028, SERINO, AV","prices":[{"type":"petrol","price":1.889,"self":true,"updatedAt":"22/06/2026 10:49:24"},{"type":"diesel","price":1.959,"self":true,"updatedAt":"22/06/2026 10:49:24"}]},{"id":"20205","lat":40.83402212493339,"lon":14.841050023942557,"name":"SOLOFRA SAMBUCO","brand":"Q8","address":"VIA SAMBUCO  83029, SOLOFRA, AV","prices":[{"type":"petrol","price":1.849,"self":true,"updatedAt":"24/06/2026 17:39:31"},{"type":"diesel","price":1.949,"self":true,"updatedAt":"24/06/2026 17:39:31"}]},{"id":"41880","lat":40.83287140634859,"lon":14.836620390415192,"name":"STAR OIL","brand":"Pompe Bianche","address":"VIA NUOVA STRADA ASI ZONA IND. SNC 83029, SOLOFRA, AV","prices":[{"type":"petrol","price":1.849,"self":true,"updatedAt":"23/06/2026 18:25:41"},{"type":"diesel","price":1.949,"self":true,"updatedAt":"23/06/2026 18:25:41"}]},{"id":"58365","lat":40.95587480828688,"lon":14.766692254298999,"name":"ROSITA E IVAN PETROLI SRL - SUMMONTE","brand":"Pompe Bianche","address":"EMBRICERA SS 88 83010, SUMMONTE, AV","prices":[{"type":"petrol","price":1.969,"self":true,"updatedAt":"25/06/2026 15:45:00"},{"type":"diesel","price":1.969,"self":true,"updatedAt":"25/06/2026 15:45:00"}]},{"id":"38478","lat":40.75497355486711,"lon":14.78448825281339,"name":"Aliberti Fortunato & figli s.n.c.","brand":"Api-Ip","address":"VIA SALVATORE ALLENDE 88/AB 84081, BARONISSI, SA","prices":[{"type":"petrol","price":1.889,"self":true,"updatedAt":"26/06/2026 07:15:05"},{"type":"diesel","price":1.978,"self":true,"updatedAt":"26/06/2026 07:15:05"}]},{"id":"4363","lat":40.760558399137096,"lon":14.775000558370607,"name":"C. Galdieri & Figli SpA","brand":"Api-Ip","address":"Statale 88 dei Due Principati, Km. 10,500, dir. Salerno - 84084, FISCIANO, SA","prices":[{"type":"petrol","price":1.889,"self":true,"updatedAt":"25/06/2026 07:01:29"},{"type":"diesel","price":1.979,"self":true,"updatedAt":"25/06/2026 07:01:29"}]},{"id":"44418","lat":40.780738000123,"lon":14.767337000123,"name":"Esso","brand":"Esso","address":"VIA GIOVANNI PAOLO II 5 84084, FISCIANO, SA","prices":[{"type":"petrol","price":1.919,"self":true,"updatedAt":"25/06/2026 19:55:30"},{"type":"diesel","price":1.959,"self":true,"updatedAt":"25/06/2026 19:55:30"}]},{"id":"62870","lat":40.7771327,"lon":14.7873046,"name":"IP FISCIANO","brand":"Api-Ip","address":"Via G. Paolo II 79  84084, FISCIANO, SA","prices":[{"type":"petrol","price":1.889,"self":true,"updatedAt":"25/06/2026 23:49:19"},{"type":"diesel","price":1.979,"self":true,"updatedAt":"25/06/2026 23:49:19"},{"type":"methane","price":1.599,"self":false,"updatedAt":"25/06/2026 00:32:56"}]},{"id":"27362","lat":40.77498096602795,"lon":14.768837487622022,"name":"Sica & c. srl","brand":"Q8","address":"Statale 88 dei Due Principati, Km. 12+400, dir. Salerno - 84084, FISCIANO, SA","prices":[{"type":"petrol","price":1.899,"self":true,"updatedAt":"26/06/2026 05:54:34"},{"type":"diesel","price":1.979,"self":true,"updatedAt":"26/06/2026 05:54:34"}]},{"id":"38034","lat":40.801749651090155,"lon":14.768231794232634,"name":"Stazione di Servizio IP GPL","brand":"Api-Ip","address":"VIA PRIGNANO 97 84084, FISCIANO, SA","prices":[{"type":"petrol","price":1.899,"self":false,"updatedAt":"25/06/2026 00:10:12"},{"type":"diesel","price":1.989,"self":false,"updatedAt":"25/06/2026 00:10:12"},{"type":"lpg","price":0.779,"self":false,"updatedAt":"25/06/2026 00:10:12"}]},{"id":"57136","lat":40.79164699126939,"lon":14.759110903702489,"name":"107358 MERCATO SAN SEVERINO","brand":"Esso","address":"SS  88 KM 14+550 SNC 84085, MERCATO SAN SEVERINO, SA","prices":[{"type":"petrol","price":1.939,"self":true,"updatedAt":"16/06/2026 11:01:34"},{"type":"diesel","price":1.999,"self":true,"updatedAt":"16/06/2026 11:01:34"}]},{"id":"61468","lat":40.78035660932374,"lon":14.752388632679757,"name":"CASCONE SAS - MERCATO SAN SEVERINO","brand":"Pompe Bianche","address":"Via Macello 3 84085, MERCATO SAN SEVERINO, SA","prices":[{"type":"petrol","price":1.879,"self":true,"updatedAt":"26/06/2026 07:43:48"},{"type":"diesel","price":1.929,"self":true,"updatedAt":"26/06/2026 07:43:48"}]},{"id":"10136","lat":40.7820074016377,"lon":14.754300713539124,"name":"Mercato San Severino","brand":"Api-Ip","address":"Strada Provinciale numero 4  84085, MERCATO SAN SEVERINO, SA","prices":[{"type":"petrol","price":1.929,"self":true,"updatedAt":"25/06/2026 09:17:09"},{"type":"diesel","price":1.979,"self":true,"updatedAt":"25/06/2026 09:17:09"}]},{"id":"63294","lat":40.7937752,"lon":14.7606017,"name":"TOIL260 - M.S.SEVERINO","brand":"Esso","address":"ss 88 mercato sanseverino  84085, MERCATO SAN SEVERINO, SA","prices":[{"type":"petrol","price":1.829,"self":true,"updatedAt":"25/06/2026 12:59:11"},{"type":"diesel","price":1.919,"self":true,"updatedAt":"25/06/2026 12:59:11"}]}]