[{"id":"23682","lat":40.92735333447829,"lon":9.063703972071137,"name":"TAMOIL AGGIUS - V. ROMA","brand":"Tamoil","address":"VIA ROMA  07020, AGGIUS, SS","prices":[{"type":"petrol","price":1.849,"self":true,"updatedAt":"22/06/2026 07:46:10"},{"type":"diesel","price":1.959,"self":true,"updatedAt":"22/06/2026 07:46:10"}]},{"id":"14287","lat":40.78272250205262,"lon":9.168380498886108,"name":"STAZIONE ESSO PIANEZZI ROMANO","brand":"Esso","address":"VIA UMBERTO I 50 07022, BERCHIDDA, SS","prices":[{"type":"petrol","price":1.959,"self":true,"updatedAt":"20/06/2026 13:14:26"},{"type":"diesel","price":1.999,"self":true,"updatedAt":"20/06/2026 13:14:26"}]},{"id":"61953","lat":40.920254,"lon":9.195821,"name":"7796 CALANGIANUS","brand":"Agip Eni","address":"P.ZZA FONTE VECCHIA  SNC, CALANGIANUS, SS","prices":[{"type":"petrol","price":1.829,"self":true,"updatedAt":"22/06/2026 00:19:17"},{"type":"diesel","price":1.919,"self":true,"updatedAt":"22/06/2026 00:19:17"}]},{"id":"38232","lat":40.916600360090484,"lon":9.167602062225342,"name":"san biagio servizi","brand":"Pompe Bianche","address":"località la sarra snc 07023, CALANGIANUS, SS","prices":[{"type":"petrol","price":1.93,"self":true,"updatedAt":"22/06/2026 07:15:58"},{"type":"diesel","price":2.019,"self":true,"updatedAt":"22/06/2026 07:15:58"}]},{"id":"11206","lat":40.934819607075625,"lon":9.177730679512024,"name":"Cabras S.N.C.di Cabras Pier Paolo & C.","brand":"Agip Eni","address":"VIA NAZIONALE  07025, LURAS, SS","prices":[{"type":"petrol","price":1.829,"self":true,"updatedAt":"21/06/2026 22:08:12"},{"type":"diesel","price":1.919,"self":true,"updatedAt":"21/06/2026 22:08:12"}]},{"id":"42101","lat":40.900187109405515,"lon":9.105227214477509,"name":"8474","brand":"Tamoil","address":"SETTEMBRINI SNC 07029, TEMPIO PAUSANIA, SS","prices":[{"type":"petrol","price":1.869,"self":true,"updatedAt":"21/06/2026 13:28:10"},{"type":"diesel","price":1.979,"self":true,"updatedAt":"21/06/2026 13:28:10"}]},{"id":"53144","lat":40.904883081622195,"lon":9.119123411045052,"name":"Esso Tempio","brand":"Esso","address":"Via Olbia 40 07027, TEMPIO PAUSANIA, SS","prices":[{"type":"petrol","price":1.829,"self":true,"updatedAt":"19/06/2026 11:32:26"},{"type":"diesel","price":1.919,"self":true,"updatedAt":"19/06/2026 11:32:26"}]},{"id":"6994","lat":40.90523402363672,"lon":9.09940481185913,"name":"IMPIANTO 7767","brand":"Agip Eni","address":"VIA PALAU 21, 07029 - -, TEMPIO PAUSANIA, SS","prices":[{"type":"petrol","price":1.829,"self":true,"updatedAt":"22/06/2026 00:50:50"},{"type":"diesel","price":1.919,"self":true,"updatedAt":"22/06/2026 00:50:50"}]},{"id":"61041","lat":40.89714132933976,"lon":9.145859597553256,"name":"TEMPIO PAUSANIA  - ISOLA GAS","brand":"ISOLA GAS","address":"ZONA INDUSTRIALE - STRADA PER OSCHIRI SNC 07029, TEMPIO PAUSANIA, SS","prices":[{"type":"petrol","price":1.839,"self":true,"updatedAt":"20/06/2026 07:55:10"},{"type":"diesel","price":1.947,"self":true,"updatedAt":"20/06/2026 07:55:10"},{"type":"lpg","price":0.859,"self":false,"updatedAt":"20/06/2026 07:55:10"}]}]