[{"id":"27220","lat":40.96531815662782,"lon":14.215456927647438,"name":"Aversa","brand":"Api-Ip","address":"Via S.Pertini 62 81031, AVERSA, CE","prices":[{"type":"petrol","price":1.749,"self":true,"updatedAt":"25/06/2026 09:15:55"},{"type":"diesel","price":1.829,"self":true,"updatedAt":"25/06/2026 09:15:55"}]},{"id":"34565","lat":40.96247438592287,"lon":14.207907553372934,"name":"AVERSA VITO DE JASI","brand":"Q8","address":"VITO DE JASI  81031, AVERSA, CE","prices":[{"type":"petrol","price":1.759,"self":true,"updatedAt":"24/06/2026 17:39:36"},{"type":"diesel","price":1.839,"self":true,"updatedAt":"24/06/2026 17:39:36"}]},{"id":"52820","lat":40.9817956963659,"lon":14.206278977080018,"name":"BI PETROLI - AVERSA","brand":"Pompe Bianche","address":"VIALE EUROPA SNC 81031, AVERSA, CE","prices":[{"type":"petrol","price":1.799,"self":true,"updatedAt":"23/06/2026 15:05:38"},{"type":"diesel","price":1.839,"self":true,"updatedAt":"23/06/2026 15:05:38"}]},{"id":"53930","lat":40.98309760507358,"lon":14.200821256154423,"name":"DG di Grazia - Aversa","brand":"Pompe Bianche","address":"Viale Europa 91 81031, AVERSA, CE","prices":[{"type":"petrol","price":1.799,"self":true,"updatedAt":"23/06/2026 14:45:45"},{"type":"diesel","price":1.839,"self":true,"updatedAt":"23/06/2026 14:45:45"}]},{"id":"60880","lat":40.96767171247651,"lon":14.208145988832257,"name":"ESSO - AVERSA VIA VITO","brand":"Esso","address":"Via Vito di Jasi 5 81031, AVERSA, CE","prices":[{"type":"petrol","price":1.779,"self":true,"updatedAt":"24/06/2026 16:03:03"},{"type":"diesel","price":1.879,"self":true,"updatedAt":"24/06/2026 16:03:03"}]},{"id":"58204","lat":40.9774307,"lon":14.2078362,"name":"FABOZZI PETROLI - F.D. CARBURANTI SRL","brand":"Fabozzi Petroli","address":"FILIPPO SAPORITO S.C. 81031, AVERSA, CE","prices":[{"type":"petrol","price":1.989,"self":true,"updatedAt":"24/06/2026 15:31:20"},{"type":"diesel","price":1.829,"self":true,"updatedAt":"24/06/2026 15:31:20"}]},{"id":"57796","lat":40.987646,"lon":14.189132,"name":"Impianto Distribuzione Carburanti Lukoil","brand":"Lukoil","address":"Viale Europa snc 81031, AVERSA, CE","prices":[{"type":"petrol","price":1.794,"self":true,"updatedAt":"25/06/2026 00:12:15"},{"type":"diesel","price":1.814,"self":true,"updatedAt":"25/06/2026 00:12:15"},{"type":"methane","price":1.399,"self":false,"updatedAt":"26/05/2026 11:22:08"},{"type":"lpg","price":0.648,"self":false,"updatedAt":"25/06/2026 00:12:15"}]},{"id":"50083","lat":40.970464686620126,"lon":14.223478703147293,"name":"MARCOLIVA SRLS","brand":"Api-Ip","address":"VIA ATELLANA SNC 81031, AVERSA, CE","prices":[{"type":"petrol","price":1.849,"self":true,"updatedAt":"25/06/2026 21:58:57"},{"type":"diesel","price":1.959,"self":true,"updatedAt":"25/06/2026 21:58:57"}]},{"id":"28508","lat":40.95391725708272,"lon":14.212466329336166,"name":"RAN S.R.L.","brand":"AP Stazioni di Servizio","address":"VIA A. GRAMSCI SNC 81031, AVERSA, CE","prices":[{"type":"petrol","price":1.839,"self":true,"updatedAt":"23/06/2026 22:46:36"},{"type":"diesel","price":1.939,"self":true,"updatedAt":"23/06/2026 22:46:36"},{"type":"methane","price":1.599,"self":false,"updatedAt":"23/06/2026 22:46:36"},{"type":"lpg","price":0.699,"self":false,"updatedAt":"23/06/2026 22:46:36"}]},{"id":"53718","lat":40.98236595033954,"lon":14.199632929191592,"name":"REFUEL","brand":"4.0","address":"EUROPA 14 81031, AVERSA, CE","prices":[{"type":"petrol","price":1.799,"self":true,"updatedAt":"24/06/2026 10:06:39"},{"type":"diesel","price":1.839,"self":true,"updatedAt":"24/06/2026 10:06:39"}]},{"id":"54286","lat":40.97961129999999,"lon":14.2116818,"name":"STAZIONE DI SERVIZIO GREEN CARBURANTI","brand":"Lukoil","address":"Viale della Libertà 156, AVERSA, CE","prices":[{"type":"petrol","price":1.979,"self":true,"updatedAt":"25/06/2026 12:29:34"},{"type":"diesel","price":1.979,"self":true,"updatedAt":"25/06/2026 12:29:34"}]},{"id":"16766","lat":40.95991326969028,"lon":14.209619164466858,"name":"stazione eni di barbato & cavallaccio","brand":"Agip Eni","address":"via vito di iasi/via kennedy  81031, AVERSA, CE","prices":[{"type":"petrol","price":1.824,"self":true,"updatedAt":"25/06/2026 00:59:50"},{"type":"diesel","price":1.919,"self":true,"updatedAt":"25/06/2026 00:59:50"},{"type":"methane","price":1.46,"self":false,"updatedAt":"25/06/2026 00:59:50"}]},{"id":"20813","lat":40.96344552470608,"lon":14.207936161406337,"name":"Tamoil di Zuppa Raffaele","brand":"Tamoil","address":"VIA VITO DI IASI  81031, AVERSA, CE","prices":[{"type":"petrol","price":1.769,"self":true,"updatedAt":"25/06/2026 14:07:39"},{"type":"diesel","price":1.839,"self":true,"updatedAt":"25/06/2026 14:07:39"}]},{"id":"57135","lat":40.96530829315174,"lon":14.215450871641542,"name":"Verde Carburanti & Gpl","brand":"Esso","address":"PROVINCIALE AVERSA-CESA SNC 81031, AVERSA, CE","prices":[{"type":"petrol","price":1.859,"self":false,"updatedAt":"25/06/2026 19:01:03"},{"type":"diesel","price":1.919,"self":false,"updatedAt":"25/06/2026 19:01:03"},{"type":"lpg","price":0.699,"self":false,"updatedAt":"25/06/2026 19:01:03"}]},{"id":"50159","lat":40.99891688955482,"lon":14.216348826885223,"name":"Eni barbato francesco sas","brand":"Agip Eni","address":"7 bis di Terra di Lavoro, Km. ss 7 bis km 19,300, nola - 81032, CARINARO, CE","prices":[{"type":"petrol","price":1.829,"self":true,"updatedAt":"25/06/2026 23:39:02"},{"type":"diesel","price":1.919,"self":true,"updatedAt":"25/06/2026 23:39:02"}]},{"id":"54694","lat":40.9829376,"lon":14.2311424,"name":"SMART OIL","brand":"Bianco Carburanti","address":"SAN SALVATORE SNC 81032, CARINARO, CE","prices":[{"type":"petrol","price":1.799,"self":true,"updatedAt":"24/06/2026 09:24:32"},{"type":"diesel","price":1.899,"self":true,"updatedAt":"24/06/2026 09:24:32"}]},{"id":"21981","lat":40.991740220682075,"lon":14.136884414608971,"name":"BASILE PETROLI S.A.S. DI BASILE LUIGI & C.","brand":"Api-Ip","address":"PIAZZA PETRILLO SNC, 81030 - 81030, CASAPESENNA, CE","prices":[{"type":"petrol","price":1.849,"self":true,"updatedAt":"25/06/2026 16:51:07"},{"type":"diesel","price":1.879,"self":true,"updatedAt":"25/06/2026 16:51:07"}]},{"id":"57155","lat":40.959749202406904,"lon":14.002445340156555,"name":"CASTELVOLTURNO","brand":"Pompe Bianche","address":"DOMITIANA SNC 81030, CASTEL VOLTURNO, CE","prices":[{"type":"petrol","price":1.859,"self":false,"updatedAt":"25/06/2026 15:25:43"},{"type":"diesel","price":1.879,"self":false,"updatedAt":"25/06/2026 15:25:43"},{"type":"lpg","price":0.729,"self":false,"updatedAt":"25/06/2026 15:25:43"}]},{"id":"8895","lat":40.95449032610142,"lon":14.006136059761047,"name":"VASTA","brand":"Pompe Bianche","address":"VIA DOMIZIANA KM. 38-735  81030, CASTEL VOLTURNO, CE","prices":[{"type":"petrol","price":1.857,"self":true,"updatedAt":"24/06/2026 07:09:29"},{"type":"diesel","price":1.867,"self":true,"updatedAt":"24/06/2026 07:09:29"}]},{"id":"62876","lat":40.968306537949616,"lon":14.23143327314147,"name":"Ap Stazione di servizio CESA","brand":"AP Stazioni di Servizio","address":"Via M. Atellani 18 - 20 81030, CESA, CE","prices":[{"type":"petrol","price":1.799,"self":true,"updatedAt":"23/06/2026 22:48:13"},{"type":"diesel","price":1.899,"self":true,"updatedAt":"23/06/2026 22:48:13"}]},{"id":"54413","lat":40.9943427,"lon":14.1897344,"name":"7253","brand":"Tamoil","address":"S.S. 265 KM. 42+966 SNC 81030, FRIGNANO, CE","prices":[{"type":"petrol","price":1.739,"self":true,"updatedAt":"25/06/2026 15:14:09"},{"type":"diesel","price":1.819,"self":true,"updatedAt":"25/06/2026 15:14:09"}]},{"id":"23226","lat":40.97959522519232,"lon":14.226364766088636,"name":"AP GESTIONE QUATTRO SRL","brand":"AP Stazioni di Servizio","address":"VIA AVERSA 103 81030, GRICIGNANO DI AVERSA, CE","prices":[{"type":"petrol","price":1.798,"self":true,"updatedAt":"24/06/2026 19:32:35"},{"type":"diesel","price":1.848,"self":true,"updatedAt":"24/06/2026 19:32:35"}]},{"id":"7544","lat":40.977571411485286,"lon":14.232864528894424,"name":"Cossutia srl Distributore Q8","brand":"Q8","address":"CORSO UMBERTO I 75 81030, GRICIGNANO DI AVERSA, CE","prices":[{"type":"petrol","price":1.799,"self":true,"updatedAt":"25/06/2026 08:35:37"},{"type":"diesel","price":1.899,"self":true,"updatedAt":"25/06/2026 08:35:37"}]},{"id":"59525","lat":40.9798,"lon":14.2198,"name":"ENERD-GRICIGNANO","brand":"Pompe Bianche","address":"SANT'ANTONIO ABATE 124 81030, GRICIGNANO DI AVERSA, CE","prices":[{"type":"petrol","price":1.798,"self":true,"updatedAt":"23/06/2026 17:39:45"},{"type":"diesel","price":1.848,"self":true,"updatedAt":"23/06/2026 17:39:45"}]},{"id":"35485","lat":40.98593591937014,"lon":14.236886657702598,"name":"ENI SPA","brand":"Agip Eni","address":"VIA BOSCARIELLO SNC 81030, GRICIGNANO DI AVERSA, CE","prices":[{"type":"petrol","price":1.829,"self":true,"updatedAt":"25/06/2026 19:14:11"},{"type":"diesel","price":1.919,"self":true,"updatedAt":"25/06/2026 23:24:54"},{"type":"lpg","price":0.752,"self":false,"updatedAt":"25/06/2026 23:24:54"}]},{"id":"62588","lat":40.9990472,"lon":14.2372027,"name":"NEL GREEN ENERGY","brand":"Pompe Bianche","address":"Via della Stazione SNC  81030, GRICIGNANO DI AVERSA, CE","prices":[{"type":"petrol","price":1.869,"self":true,"updatedAt":"22/06/2026 19:46:53"},{"type":"diesel","price":1.899,"self":true,"updatedAt":"22/06/2026 19:46:53"}]},{"id":"38286","lat":40.9687293620897,"lon":14.173929691314697,"name":"EASY JAMBO","brand":"Energas","address":"SP TRENTOLA PARETE C/O CENTRO COMM JAMBO SNC 81030, LUSCIANO, CE","prices":[{"type":"lpg","price":0.679,"self":false,"updatedAt":"25/06/2026 00:21:07"}]},{"id":"61668","lat":40.962218024294955,"lon":14.183249512343256,"name":"EUROSPEED","brand":"Pompe Bianche","address":"VIA CAMPANA SNC 81030, LUSCIANO, CE","prices":[{"type":"petrol","price":1.875,"self":true,"updatedAt":"22/06/2026 09:52:06"},{"type":"diesel","price":1.885,"self":true,"updatedAt":"22/06/2026 09:52:06"},{"type":"lpg","price":0.697,"self":false,"updatedAt":"22/06/2026 09:52:06"}]},{"id":"28197","lat":40.96053348087241,"lon":14.189985394477844,"name":"Ghepardoil lusciano","brand":"Pompe Bianche","address":"Provinciale ex alleati snc 81030, LUSCIANO, CE","prices":[{"type":"petrol","price":1.869,"self":false,"updatedAt":"25/06/2026 15:56:54"},{"type":"diesel","price":1.885,"self":false,"updatedAt":"25/06/2026 15:56:54"}]},{"id":"55975","lat":40.95392462898399,"lon":14.182934759478005,"name":"Italmare Lusciano","brand":"Pompe Bianche","address":"S.S. 265 KM 48 + 077 81030, LUSCIANO, CE","prices":[{"type":"petrol","price":1.799,"self":true,"updatedAt":"26/06/2026 06:56:01"},{"type":"diesel","price":1.899,"self":true,"updatedAt":"26/06/2026 06:56:01"},{"type":"methane","price":1.399,"self":false,"updatedAt":"26/06/2026 06:56:01"},{"type":"lpg","price":0.689,"self":false,"updatedAt":"26/06/2026 06:56:01"}]},{"id":"45455","lat":40.961383780467195,"lon":14.187689423561096,"name":"NEW PETROL","brand":"Pompe Bianche","address":"VIALE DELLA LIBERTA' 56 81030, LUSCIANO, CE","prices":[{"type":"petrol","price":1.875,"self":true,"updatedAt":"24/06/2026 19:33:45"},{"type":"diesel","price":1.885,"self":true,"updatedAt":"24/06/2026 19:33:45"}]},{"id":"58205","lat":40.9560180642126,"lon":14.167886852174941,"name":"FABOZZI PETROLI - F.D. CARBURANTI SRL -PARETE","brand":"Fabozzi Petroli","address":"VITTORIO EMANUELE 137 81030, PARETE, CE","prices":[{"type":"petrol","price":1.999,"self":true,"updatedAt":"23/06/2026 11:47:05"},{"type":"diesel","price":1.869,"self":true,"updatedAt":"23/06/2026 11:47:05"}]},{"id":"58878","lat":40.963488,"lon":14.1665045,"name":"GT-FUEL (PARETE)","brand":"GT-FUEL","address":"Via Guglielmo Marconi 134 81030, PARETE, CE","prices":[{"type":"petrol","price":1.779,"self":true,"updatedAt":"25/06/2026 16:51:32"},{"type":"diesel","price":1.869,"self":true,"updatedAt":"25/06/2026 16:51:32"}]},{"id":"27764","lat":40.965422278858526,"lon":14.169729504299198,"name":"PARETE - SALVO D'ACQUISTO","brand":"Api-Ip","address":"PARETE - VIA SALVO D'ACQUISTO 10 81030, PARETE, CE","prices":[{"type":"petrol","price":1.779,"self":true,"updatedAt":"25/06/2026 19:01:38"},{"type":"diesel","price":1.869,"self":true,"updatedAt":"25/06/2026 19:01:38"}]},{"id":"54041","lat":40.99819039550761,"lon":14.114070116434698,"name":"CTP","brand":"Pompe Bianche","address":"ACQUARO SNC 81036, SAN CIPRIANO D'AVERSA, CE","prices":[{"type":"petrol","price":1.799,"self":false,"updatedAt":"25/06/2026 15:00:59"},{"type":"diesel","price":1.869,"self":false,"updatedAt":"25/06/2026 15:00:59"}]},{"id":"55084","lat":40.991755976715176,"lon":14.113180138554364,"name":"GREEN GAS  STAZIONE DI SERVIZIO","brand":"Esso","address":"DON SALVATORE SNC 81036, SAN CIPRIANO D'AVERSA, CE","prices":[{"type":"petrol","price":1.789,"self":true,"updatedAt":"24/06/2026 12:14:23"},{"type":"diesel","price":1.859,"self":true,"updatedAt":"24/06/2026 12:14:23"},{"type":"lpg","price":0.699,"self":false,"updatedAt":"24/06/2026 12:14:23"}]},{"id":"62894","lat":40.98505350000001,"lon":14.166343,"name":"br carburanti srl","brand":"B+","address":"Via Roma 199  81030, SAN MARCELLINO, CE","prices":[{"type":"petrol","price":1.839,"self":true,"updatedAt":"22/06/2026 08:28:09"},{"type":"diesel","price":1.859,"self":true,"updatedAt":"22/06/2026 08:28:09"}]},{"id":"33820","lat":40.9865142083414,"lon":14.175720669905786,"name":"distributore carburanti","brand":"Pompe Bianche","address":"CORSO ITALIA 170 81030, SAN MARCELLINO, CE","prices":[{"type":"petrol","price":1.795,"self":true,"updatedAt":"24/06/2026 10:21:19"},{"type":"diesel","price":1.815,"self":true,"updatedAt":"24/06/2026 10:21:19"}]},{"id":"62320","lat":40.99279,"lon":14.17378,"name":"EASY SERVICE SRL SAN MARCELLINO","brand":"Energas","address":"CORSO EUROPA  52 81030, SAN MARCELLINO, CE","prices":[{"type":"petrol","price":1.799,"self":true,"updatedAt":"25/06/2026 00:54:56"},{"type":"diesel","price":1.819,"self":true,"updatedAt":"25/06/2026 00:54:56"}]},{"id":"36959","lat":40.9940502396935,"lon":14.169965386390686,"name":"GOLDFUEL SRL","brand":"Pompe Bianche","address":"corso Europa 122/124 81030, SAN MARCELLINO, CE","prices":[{"type":"petrol","price":1.799,"self":false,"updatedAt":"23/06/2026 05:46:37"},{"type":"diesel","price":1.819,"self":false,"updatedAt":"23/06/2026 05:46:37"},{"type":"methane","price":1.399,"self":false,"updatedAt":"23/06/2026 05:46:37"},{"type":"lpg","price":0.649,"self":false,"updatedAt":"23/06/2026 05:46:37"}]},{"id":"60302","lat":40.989691952930535,"lon":14.182729305465722,"name":"MECK OIL - SAN MARCELLINO","brand":"Pompe Bianche","address":"Viale Kennedy 46  81030, SAN MARCELLINO, CE","prices":[{"type":"petrol","price":1.999,"self":true,"updatedAt":"25/06/2026 13:13:32"},{"type":"diesel","price":1.814,"self":true,"updatedAt":"25/06/2026 13:13:32"}]},{"id":"43532","lat":40.99561714654178,"lon":14.16397034110446,"name":"pompa bianca","brand":"Pompe Bianche","address":"CORSO EUROPA 293 81030, SAN MARCELLINO, CE","prices":[{"type":"petrol","price":1.789,"self":true,"updatedAt":"25/06/2026 11:49:35"},{"type":"diesel","price":1.859,"self":true,"updatedAt":"25/06/2026 11:49:35"}]},{"id":"56302","lat":40.96656757037718,"lon":14.23732537020876,"name":"IP SANT'ARPINO","brand":"Api-Ip","address":"MARTIRI ATELLANI SNC 81030, SANT'ARPINO, CE","prices":[{"type":"petrol","price":1.799,"self":true,"updatedAt":"25/06/2026 23:36:58"},{"type":"diesel","price":1.899,"self":true,"updatedAt":"25/06/2026 23:36:58"},{"type":"lpg","price":0.699,"self":false,"updatedAt":"25/06/2026 23:36:58"}]},{"id":"61511","lat":40.986904517456026,"lon":14.207896187246424,"name":"107502 TEVEROLA","brand":"Esso","address":"SS 7 BIS KM 13+553 SNC 81030, TEVEROLA, CE","prices":[{"type":"petrol","price":1.939,"self":true,"updatedAt":"05/06/2026 16:55:45"},{"type":"diesel","price":1.929,"self":true,"updatedAt":"05/06/2026 16:55:45"}]},{"id":"59499","lat":40.99443124404142,"lon":14.21579897403717,"name":"AP VIA FRATTE","brand":"AP Stazioni di Servizio","address":"FRATTA SNC 81030, TEVEROLA, CE","prices":[{"type":"petrol","price":1.869,"self":true,"updatedAt":"23/06/2026 22:49:40"},{"type":"diesel","price":1.899,"self":true,"updatedAt":"23/06/2026 22:49:40"},{"type":"methane","price":1.599,"self":false,"updatedAt":"23/06/2026 22:49:40"},{"type":"lpg","price":0.769,"self":false,"updatedAt":"23/06/2026 22:49:40"}]},{"id":"32550","lat":40.99839380265989,"lon":14.206551387906075,"name":"Barbato Petroli","brand":"Api-Ip","address":"PROV.LE TEVEROLA-CASALUCE 15 81030, TEVEROLA, CE","prices":[{"type":"petrol","price":1.849,"self":false,"updatedAt":"24/06/2026 11:50:23"},{"type":"diesel","price":1.879,"self":false,"updatedAt":"24/06/2026 11:50:23"}]},{"id":"63234","lat":40.98709,"lon":14.20787,"name":"TOIL237 - TEVEROLA","brand":"Esso","address":"Via Appia Nord km 13+533 snc 00049, TEVEROLA, CE","prices":[{"type":"petrol","price":1.859,"self":true,"updatedAt":"25/06/2026 11:02:04"},{"type":"diesel","price":1.939,"self":true,"updatedAt":"25/06/2026 11:02:04"}]},{"id":"20837","lat":40.975990715326,"lon":14.167577736086741,"name":"Elvy Via 4 Novembre,74","brand":"Pompe Bianche","address":"Via 4 Novembre 74 81038, TRENTOLA-DUCENTA, CE","prices":[{"type":"petrol","price":1.899,"self":false,"updatedAt":"24/06/2026 11:43:12"},{"type":"diesel","price":1.969,"self":false,"updatedAt":"24/06/2026 11:43:12"}]},{"id":"20836","lat":40.97544350463189,"lon":14.152092221145722,"name":"Elvy Via Prov.le Trentola-Ischitella","brand":"Pompe Bianche","address":"Via Provinciale Trentola-Ischitella km 0,600 81038, TRENTOLA-DUCENTA, CE","prices":[{"type":"petrol","price":1.769,"self":true,"updatedAt":"24/06/2026 11:44:05"},{"type":"diesel","price":1.819,"self":true,"updatedAt":"24/06/2026 11:44:05"},{"type":"methane","price":1.399,"self":false,"updatedAt":"24/06/2026 11:44:05"}]},{"id":"62219","lat":40.96871896272021,"lon":14.173915396921556,"name":"SPAZIO CONAD","brand":"CONAD","address":"STRADA PROVINCIALE TRENTOLA PARETE SNC  81038, TRENTOLA-DUCENTA, CE","prices":[{"type":"petrol","price":1.749,"self":true,"updatedAt":"25/06/2026 22:00:52"},{"type":"diesel","price":1.829,"self":true,"updatedAt":"25/06/2026 22:00:51"}]},{"id":"53182","lat":40.99957418368949,"lon":14.151839688420296,"name":"Fontana Nicola","brand":"Pompe Bianche","address":"PROVINCIALE 127 81030, VILLA DI BRIANO, CE","prices":[{"type":"petrol","price":1.769,"self":true,"updatedAt":"25/06/2026 12:38:15"},{"type":"diesel","price":1.819,"self":true,"updatedAt":"25/06/2026 12:38:15"}]},{"id":"51368","lat":40.97656093996398,"lon":14.10618782043457,"name":"Elvy Via Provinciale nr 18","brand":"Pompe Bianche","address":"Via Provinciale nr 18  km 12+500 81039, VILLA LITERNO, CE","prices":[{"type":"petrol","price":1.769,"self":true,"updatedAt":"24/06/2026 11:44:59"},{"type":"diesel","price":1.829,"self":true,"updatedAt":"24/06/2026 11:44:59"},{"type":"methane","price":1.449,"self":false,"updatedAt":"24/06/2026 11:44:59"},{"type":"lpg","price":0.659,"self":false,"updatedAt":"24/06/2026 11:44:59"}]},{"id":"54416","lat":40.8016311,"lon":14.0605788,"name":"4629","brand":"Tamoil","address":"OLIMPICO 162 80070, BACOLI, NA","prices":[{"type":"petrol","price":1.889,"self":true,"updatedAt":"25/06/2026 00:48:18"},{"type":"diesel","price":1.899,"self":true,"updatedAt":"25/06/2026 00:48:18"}]},{"id":"43726","lat":40.819422384250174,"lon":14.062363507340251,"name":"8329","brand":"Tamoil","address":"VANVITELLI 82 80070, BACOLI, NA","prices":[{"type":"petrol","price":1.889,"self":true,"updatedAt":"26/06/2026 00:12:07"},{"type":"diesel","price":1.899,"self":true,"updatedAt":"26/06/2026 00:12:07"}]},{"id":"58266","lat":40.79832,"lon":14.0768,"name":"ESSO - BACOLI","brand":"Esso","address":"Via Risorgimento 194  80070, BACOLI, NA","prices":[{"type":"petrol","price":1.789,"self":true,"updatedAt":"23/06/2026 17:03:25"},{"type":"diesel","price":1.879,"self":true,"updatedAt":"23/06/2026 17:03:25"}]},{"id":"13753","lat":40.7929698718287,"lon":14.078717306256294,"name":"imp. ip","brand":"Api-Ip","address":"via miseno 125 80070, BACOLI, NA","prices":[{"type":"petrol","price":1.799,"self":true,"updatedAt":"23/06/2026 18:25:22"},{"type":"diesel","price":1.899,"self":true,"updatedAt":"23/06/2026 18:25:22"}]},{"id":"16174","lat":40.80711405269545,"lon":14.079571864211061,"name":"IP","brand":"Api-Ip","address":"VIA ROMA 13/15 80070, BACOLI, NA","prices":[{"type":"petrol","price":1.899,"self":true,"updatedAt":"25/06/2026 12:53:45"},{"type":"diesel","price":1.999,"self":true,"updatedAt":"25/06/2026 12:53:45"}]},{"id":"20009","lat":40.810472847444075,"lon":14.051220640540123,"name":"IP","brand":"Api-Ip","address":"GIULIO CESARE 272 80070, BACOLI, NA","prices":[{"type":"petrol","price":1.889,"self":true,"updatedAt":"23/06/2026 10:35:09"},{"type":"diesel","price":1.899,"self":true,"updatedAt":"23/06/2026 10:35:09"}]},{"id":"56832","lat":40.79462,"lon":14.06877,"name":"SIBILLA PETROLI (Piazzale A. Maiuri)","brand":"Pompe Bianche","address":"A. MAIURI SNC 80070, BACOLI, NA","prices":[{"type":"petrol","price":1.889,"self":true,"updatedAt":"25/06/2026 12:54:13"},{"type":"diesel","price":1.899,"self":true,"updatedAt":"25/06/2026 12:54:13"},{"type":"lpg","price":0.759,"self":false,"updatedAt":"25/06/2026 12:54:13"}]},{"id":"54210","lat":40.8232163,"lon":14.070086,"name":"SIBILLA PETROLI (Star Oil)","brand":"Pompe Bianche","address":"CUMA-FUSARO 72 80070, BACOLI, NA","prices":[{"type":"petrol","price":1.889,"self":true,"updatedAt":"25/06/2026 12:54:06"},{"type":"diesel","price":1.899,"self":true,"updatedAt":"25/06/2026 12:54:06"}]},{"id":"16166","lat":40.82925458535962,"lon":14.057409490737882,"name":"SIBILLA PETROLI (Via Cuma)","brand":"Energas","address":"VIA CUMA 174 80070, BACOLI, NA","prices":[{"type":"petrol","price":1.889,"self":true,"updatedAt":"25/06/2026 12:53:38"},{"type":"diesel","price":1.899,"self":true,"updatedAt":"25/06/2026 12:53:38"},{"type":"lpg","price":0.759,"self":false,"updatedAt":"25/06/2026 12:53:38"}]},{"id":"39216","lat":40.80611211624395,"lon":14.05560174101629,"name":"SIBILLA PETROLI (Via Mercato di Sabato)","brand":"Pompe Bianche","address":"VIA MERCATO DI SABATO 66 80070, BACOLI, NA","prices":[{"type":"petrol","price":1.889,"self":true,"updatedAt":"25/06/2026 12:54:00"},{"type":"diesel","price":1.899,"self":true,"updatedAt":"25/06/2026 12:54:00"},{"type":"methane","price":1.599,"self":false,"updatedAt":"25/06/2026 12:54:00"},{"type":"lpg","price":0.759,"self":false,"updatedAt":"25/06/2026 12:54:00"}]},{"id":"52892","lat":40.8485888,"lon":14.2475264,"name":"IP","brand":"Api-Ip","address":"MARRA 302 80041, BOSCOREALE, NA","prices":[{"type":"petrol","price":1.849,"self":true,"updatedAt":"25/06/2026 12:01:44"},{"type":"diesel","price":1.879,"self":true,"updatedAt":"25/06/2026 12:01:44"},{"type":"methane","price":1.29,"self":false,"updatedAt":"25/06/2026 12:01:44"}]},{"id":"52891","lat":40.8485888,"lon":14.2475264,"name":"IP","brand":"Api-Ip","address":"MARRA 165 80041, BOSCOREALE, NA","prices":[{"type":"petrol","price":1.799,"self":true,"updatedAt":"25/06/2026 12:00:07"},{"type":"diesel","price":1.829,"self":true,"updatedAt":"25/06/2026 12:00:08"},{"type":"lpg","price":0.679,"self":false,"updatedAt":"25/06/2026 12:00:07"}]},{"id":"17918","lat":40.90493987675014,"lon":14.195469841361046,"name":"di vincenzo gennaro","brand":"Agip Eni","address":"VIA PROV.LE MARANO-GIUGLIANO SNC 80012, CALVIZZANO, NA","prices":[{"type":"petrol","price":1.659,"self":true,"updatedAt":"25/06/2026 23:12:10"},{"type":"diesel","price":1.639,"self":true,"updatedAt":"25/06/2026 23:12:10"}]},{"id":"19843","lat":40.90776310564651,"lon":14.173637330532074,"name":"europetrolio srl","brand":"Pompe Bianche","address":"VIALE DELLA RESISTENZA 135 80012, CALVIZZANO, NA","prices":[{"type":"petrol","price":1.799,"self":true,"updatedAt":"24/06/2026 10:53:38"},{"type":"diesel","price":1.899,"self":true,"updatedAt":"24/06/2026 10:53:38"},{"type":"lpg","price":0.699,"self":false,"updatedAt":"24/06/2026 10:53:38"}]},{"id":"56751","lat":40.8896622,"lon":14.2337805,"name":"ELEFANTEOIL SAS","brand":"Energas","address":"PROV. CIMITILE/CICCIANO SNC 80030, CAMPOSANO, NA","prices":[{"type":"petrol","price":1.919,"self":true,"updatedAt":"26/06/2026 00:12:59"},{"type":"diesel","price":2.019,"self":true,"updatedAt":"26/06/2026 00:12:59"}]},{"id":"47114","lat":40.93330270923944,"lon":14.24665242433548,"name":"EcoFuel","brand":"Eco Fuel","address":"P.BORSELLINO (EX VIA NAPOLI) 39 80025, CASANDRINO, NA","prices":[{"type":"petrol","price":1.789,"self":true,"updatedAt":"25/06/2026 12:01:46"},{"type":"diesel","price":1.889,"self":true,"updatedAt":"25/06/2026 12:01:46"},{"type":"methane","price":1.595,"self":false,"updatedAt":"25/06/2026 12:01:46"}]},{"id":"13940","lat":40.922293519724015,"lon":14.248971864581108,"name":"ENI MANZONI SAS DI MANZONI SALVATORE","brand":"Agip Eni","address":"VIA PAOLO BORSELLINO 129 80025, CASANDRINO, NA","prices":[{"type":"petrol","price":1.86,"self":false,"updatedAt":"26/06/2026 06:14:20"},{"type":"diesel","price":1.953,"self":false,"updatedAt":"26/06/2026 06:10:07"},{"type":"methane","price":1.595,"self":false,"updatedAt":"25/06/2026 00:24:46"},{"type":"lpg","price":0.669,"self":false,"updatedAt":"25/06/2026 00:24:46"}]},{"id":"57813","lat":40.93062,"lon":14.24573,"name":"Sannino Petroli","brand":"Esso","address":"Via Alveo Fondina Snc 80025, CASANDRINO, NA","prices":[{"type":"petrol","price":1.799,"self":true,"updatedAt":"24/06/2026 10:08:11"},{"type":"diesel","price":1.899,"self":true,"updatedAt":"24/06/2026 10:08:11"}]},{"id":"59508","lat":40.843749,"lon":14.2333733,"name":"Q8","brand":"Q8","address":"EUROPA 154 80053, CASTELLAMMARE DI STABIA, NA","prices":[{"type":"petrol","price":1.849,"self":true,"updatedAt":"26/06/2026 00:09:43"},{"type":"diesel","price":1.999,"self":true,"updatedAt":"26/06/2026 00:09:43"}]},{"id":"53845","lat":40.8824279,"lon":14.2314534,"name":"Eni","brand":"Agip Eni","address":"D. RICCARDI 262 80040, CERCOLA, NA","prices":[{"type":"petrol","price":1.829,"self":true,"updatedAt":"25/06/2026 01:22:22"},{"type":"diesel","price":1.919,"self":true,"updatedAt":"25/06/2026 01:22:22"}]},{"id":"51373","lat":40.8948992764857,"lon":14.0779194454384,"name":"28041","brand":"Agip Eni","address":"7 quater Via Domitiana, Km. 48.235, giugliano in campania - 80014, GIUGLIANO IN CAMPANIA, NA","prices":[{"type":"petrol","price":1.789,"self":true,"updatedAt":"25/06/2026 00:10:50"},{"type":"diesel","price":1.844,"self":true,"updatedAt":"26/06/2026 06:08:40"}]},{"id":"34347","lat":40.92488397262313,"lon":14.164957702159882,"name":"4705","brand":"Tamoil","address":"CIRCUMVALLAZIONE ESTERNA SNC 80014, GIUGLIANO IN CAMPANIA, NA","prices":[{"type":"petrol","price":1.719,"self":true,"updatedAt":"25/06/2026 12:10:41"},{"type":"diesel","price":1.829,"self":true,"updatedAt":"25/06/2026 12:10:41"}]},{"id":"54270","lat":40.9431985,"lon":14.1806553,"name":"4707","brand":"Tamoil","address":"ARCO SANT'ANTONIO 103 80014, GIUGLIANO IN CAMPANIA, NA","prices":[{"type":"petrol","price":1.729,"self":true,"updatedAt":"25/06/2026 12:16:56"},{"type":"diesel","price":1.799,"self":true,"updatedAt":"25/06/2026 00:29:53"}]},{"id":"49304","lat":40.920564204868825,"lon":14.032168483517186,"name":"Aragri Gennaro &. sas","brand":"Agip Eni","address":"VIA VIA MADONNA DEL PANTANO LOC. LAGO PATRIA SNC 80014, GIUGLIANO IN CAMPANIA (NA) snc 80014, GIUGLIANO IN CAMPANIA, NA","prices":[{"type":"petrol","price":1.829,"self":true,"updatedAt":"25/06/2026 00:21:11"},{"type":"diesel","price":1.909,"self":true,"updatedAt":"25/06/2026 00:21:11"}]},{"id":"61798","lat":40.927232,"lon":14.204928,"name":"B FUEL","brand":"B+","address":"DELLA RESISTENZA 58 80014, GIUGLIANO IN CAMPANIA, NA","prices":[{"type":"petrol","price":1.785,"self":true,"updatedAt":"18/06/2026 08:29:37"},{"type":"diesel","price":1.869,"self":true,"updatedAt":"18/06/2026 08:29:37"}]},{"id":"13558","lat":40.93626311965497,"lon":14.213653206825256,"name":"BO.GA PETROLI","brand":"Energas","address":"S.S. 162 KM14+000 SNC 80014, GIUGLIANO IN CAMPANIA, NA","prices":[{"type":"petrol","price":1.789,"self":true,"updatedAt":"25/06/2026 01:16:09"},{"type":"diesel","price":1.889,"self":true,"updatedAt":"25/06/2026 01:16:09"},{"type":"lpg","price":0.699,"self":false,"updatedAt":"25/06/2026 00:28:54"}]},{"id":"21003","lat":40.9233822397991,"lon":14.034701585769653,"name":"CIFAGAS SRL","brand":"Pompe Bianche","address":"VIA LAGO PATRIA SNC 80014, GIUGLIANO IN CAMPANIA, NA","prices":[{"type":"petrol","price":1.745,"self":false,"updatedAt":"24/06/2026 06:56:44"},{"type":"diesel","price":1.845,"self":false,"updatedAt":"24/06/2026 06:56:44"},{"type":"lpg","price":0.679,"self":false,"updatedAt":"24/06/2026 06:56:44"}]},{"id":"16205","lat":40.94902051546801,"lon":14.213679617435446,"name":"CL GAS - GIUGLIANO","brand":"Pompe Bianche","address":"VIA OASI SACRO CUORE SNC 80014, GIUGLIANO IN CAMPANIA, NA","prices":[{"type":"petrol","price":1.759,"self":true,"updatedAt":"24/06/2026 00:35:04"},{"type":"diesel","price":1.839,"self":true,"updatedAt":"24/06/2026 00:35:04"},{"type":"lpg","price":0.699,"self":false,"updatedAt":"24/06/2026 00:35:04"}]},{"id":"22265","lat":40.94266533861124,"lon":14.216533899307251,"name":"CONAD SUPERMERCATO","brand":"CONAD","address":"VIA APPIA KM 18,700 SNC 80014, GIUGLIANO IN CAMPANIA, NA","prices":[{"type":"petrol","price":1.749,"self":true,"updatedAt":"25/06/2026 13:19:34"},{"type":"diesel","price":1.829,"self":true,"updatedAt":"25/06/2026 13:19:34"}]},{"id":"59283","lat":40.9406665,"lon":14.2080497,"name":"ELY GAS SRL","brand":"Pompe Bianche","address":"Via Oasi Sacro Cuore 148 80014, GIUGLIANO IN CAMPANIA, NA","prices":[{"type":"petrol","price":1.749,"self":true,"updatedAt":"24/06/2026 07:59:40"},{"type":"diesel","price":1.829,"self":true,"updatedAt":"24/06/2026 07:59:40"}]},{"id":"43061","lat":40.928960145580895,"lon":14.193129341104509,"name":"ENCAR SRL","brand":"Q8","address":"CORSO CAMPANO 399 80014, GIUGLIANO IN CAMPANIA, NA","prices":[{"type":"petrol","price":1.89,"self":true,"updatedAt":"20/06/2026 12:15:41"},{"type":"diesel","price":1.99,"self":true,"updatedAt":"20/06/2026 12:15:41"}]},{"id":"35766","lat":40.93894261107274,"lon":14.20791988769679,"name":"EnerGas","brand":"Energas","address":"via oasi del sacro cuore  119 80014, GIUGLIANO IN CAMPANIA, NA","prices":[{"type":"petrol","price":1.779,"self":true,"updatedAt":"23/06/2026 15:28:45"},{"type":"diesel","price":1.869,"self":true,"updatedAt":"23/06/2026 15:28:45"}]},{"id":"47224","lat":40.91119646600258,"lon":14.06501242991867,"name":"ENI","brand":"Agip Eni","address":"Strada Statale, Km. KM 46+150 SNC, lago patria - 80014, GIUGLIANO IN CAMPANIA, NA","prices":[{"type":"petrol","price":1.829,"self":true,"updatedAt":"25/06/2026 23:15:53"},{"type":"diesel","price":1.919,"self":true,"updatedAt":"25/06/2026 23:15:53"}]},{"id":"13437","lat":40.947283654622,"lon":14.215379369641823,"name":"ESSO \"on the run cafè\"","brand":"Esso","address":"SS. 7 BIS KM 18+178 18+178 80014, GIUGLIANO IN CAMPANIA, NA","prices":[{"type":"petrol","price":1.819,"self":true,"updatedAt":"26/06/2026 07:12:47"},{"type":"diesel","price":1.919,"self":true,"updatedAt":"26/06/2026 07:12:47"}]},{"id":"28093","lat":40.92866975273618,"lon":14.185766530024694,"name":"FLLI CIPOLLETTA SNC","brand":"Pompe Bianche","address":"CORSO CAMPANO 503/A 80014, GIUGLIANO IN CAMPANIA, NA","prices":[{"type":"petrol","price":1.849,"self":true,"updatedAt":"22/06/2026 07:45:05"},{"type":"diesel","price":1.949,"self":true,"updatedAt":"22/06/2026 07:45:05"}]},{"id":"14089","lat":40.924897943349364,"lon":14.166213877523774,"name":"GIUGLIANO","brand":"Api-Ip","address":"Via San Francesco a Patria  80014, GIUGLIANO IN CAMPANIA, NA","prices":[{"type":"petrol","price":1.719,"self":true,"updatedAt":"25/06/2026 19:08:28"},{"type":"diesel","price":1.829,"self":true,"updatedAt":"25/06/2026 19:08:28"}]},{"id":"50272","lat":40.93190105842697,"lon":14.146812117421613,"name":"Giugliano in Campania","brand":"Auchan","address":"VIA SAN FRANCESCO A PATRIA SNC 80014, GIUGLIANO IN CAMPANIA, NA","prices":[{"type":"petrol","price":1.714,"self":true,"updatedAt":"25/06/2026 15:31:46"},{"type":"diesel","price":1.824,"self":true,"updatedAt":"25/06/2026 15:31:46"},{"type":"lpg","price":0.749,"self":true,"updatedAt":"25/06/2026 20:16:59"}]},{"id":"6707","lat":40.92884016928077,"lon":14.187136023502376,"name":"GIUGLIANO IN CAMPANIA CORSO CAMPANO 494/B IMP.Q8","brand":"Q8","address":"CORSO CAMPANO, IMP.Q8 494/B 80014, GIUGLIANO IN CAMPANIA, NA","prices":[{"type":"petrol","price":1.709,"self":true,"updatedAt":"26/06/2026 01:41:52"},{"type":"diesel","price":1.829,"self":true,"updatedAt":"26/06/2026 01:41:52"}]},{"id":"23405","lat":40.94093834152493,"lon":14.17430381349186,"name":"GIUGLIANO IN CAMPANIA LOC.CASACELLE PROL.V.PIGNA","brand":"Q8","address":"LOC.CASACELLE PROL.V.PIGNA, GIUGLIANO IN CAMPANIA, NA","prices":[{"type":"petrol","price":1.789,"self":true,"updatedAt":"20/06/2026 08:16:23"},{"type":"diesel","price":1.889,"self":true,"updatedAt":"20/06/2026 08:16:23"}]},{"id":"11731","lat":40.93092634331942,"lon":14.124973177909851,"name":"GIUGLIANO IN CAMPANIA-VIA S.F.SCO A PATRIA 175-LOC.CAPECE","brand":"Q8","address":"VIA S.F.SCO A PATRIA - LOC.CAPECE 175 80014, GIUGLIANO IN CAMPANIA, NA","prices":[{"type":"petrol","price":1.729,"self":true,"updatedAt":"25/06/2026 17:37:03"},{"type":"diesel","price":1.829,"self":true,"updatedAt":"25/06/2026 17:37:03"}]},{"id":"11742","lat":40.92822026492085,"lon":14.153700000000072,"name":"GIUGLIANO IN CAMPANIA-VIA SAN FRANCESCO A PATRIA","brand":"Q8","address":"VIA SAN FRANCESCO A PATRIA S/N 80014, GIUGLIANO IN CAMPANIA, NA","prices":[{"type":"petrol","price":1.709,"self":true,"updatedAt":"26/06/2026 01:41:53"},{"type":"diesel","price":1.829,"self":true,"updatedAt":"26/06/2026 01:41:53"}]},{"id":"39954","lat":40.92473034706414,"lon":14.166707843542099,"name":"GR PETROLI","brand":"Pompe Bianche","address":"via San Francesco SNC 80014, GIUGLIANO IN CAMPANIA, NA","prices":[{"type":"lpg","price":0.759,"self":false,"updatedAt":"23/06/2026 20:42:01"}]},{"id":"60632","lat":40.864426,"lon":14.0890431,"name":"IP 44748","brand":"Api-Ip","address":"SS7qtr  80014, GIUGLIANO IN CAMPANIA, NA","prices":[{"type":"petrol","price":1.809,"self":true,"updatedAt":"23/06/2026 10:40:24"},{"type":"diesel","price":1.919,"self":true,"updatedAt":"23/06/2026 10:40:24"},{"type":"lpg","price":0.699,"self":false,"updatedAt":"23/06/2026 10:40:24"}]},{"id":"57086","lat":40.92746146930177,"lon":14.182226916081628,"name":"italmare corso campano Giugliano","brand":"Pompe Bianche","address":"Corso Campano 538 80014, GIUGLIANO IN CAMPANIA, NA","prices":[{"type":"petrol","price":1.768,"self":true,"updatedAt":"23/06/2026 15:51:08"},{"type":"diesel","price":1.848,"self":true,"updatedAt":"23/06/2026 15:51:08"}]},{"id":"30488","lat":40.95882003032136,"lon":14.120874108220661,"name":"ITALMARE GIUGLIANO","brand":"Pompe Bianche","address":"Strada Provinciale Santa Maria a Cubito Giugliano  80014, GIUGLIANO IN CAMPANIA, NA","prices":[{"type":"petrol","price":1.768,"self":true,"updatedAt":"23/06/2026 15:50:31"},{"type":"diesel","price":1.858,"self":true,"updatedAt":"23/06/2026 15:50:31"},{"type":"methane","price":1.399,"self":false,"updatedAt":"23/06/2026 15:50:31"}]},{"id":"54785","lat":40.922228798150734,"lon":14.033550808410649,"name":"ITALMARE LAGO PATRIA","brand":"Pompe Bianche","address":"LAGO PATRIA SNC 80014, GIUGLIANO IN CAMPANIA, NA","prices":[{"type":"petrol","price":1.768,"self":true,"updatedAt":"23/06/2026 15:50:51"},{"type":"diesel","price":1.858,"self":true,"updatedAt":"23/06/2026 15:50:51"}]},{"id":"40865","lat":40.934467639525714,"lon":14.183118268847466,"name":"MIGLIACCIO CARBURANTI - P.V. CASACELLE","brand":"Pompe Bianche","address":"VIA CASACELLE SNC 80014, GIUGLIANO IN CAMPANIA, NA","prices":[{"type":"petrol","price":1.789,"self":true,"updatedAt":"23/06/2026 16:05:27"},{"type":"diesel","price":1.889,"self":true,"updatedAt":"23/06/2026 16:05:27"}]},{"id":"27849","lat":40.88979755329167,"lon":14.083643853664398,"name":"MIGLIACCIO CARBURANTI - P.V. GIUGLIANO(NA)","brand":"Pompe Bianche","address":"VIA S. NULLO 103 80014, GIUGLIANO IN CAMPANIA, NA","prices":[{"type":"petrol","price":1.789,"self":true,"updatedAt":"23/06/2026 16:05:58"},{"type":"diesel","price":1.889,"self":true,"updatedAt":"23/06/2026 16:05:58"},{"type":"lpg","price":0.669,"self":false,"updatedAt":"23/06/2026 16:05:58"}]},{"id":"35262","lat":40.939411626861,"lon":14.177835658192635,"name":"MIGLIACCIO CARBURANTI P.V. GIUGLIANO CENTRO","brand":"Pompe Bianche","address":"VIA ARCO S.ANTONIO SNC 80014, GIUGLIANO IN CAMPANIA, NA","prices":[{"type":"petrol","price":1.789,"self":true,"updatedAt":"23/06/2026 16:05:35"},{"type":"diesel","price":1.889,"self":true,"updatedAt":"23/06/2026 16:05:35"},{"type":"methane","price":1.595,"self":false,"updatedAt":"23/06/2026 16:05:36"},{"type":"lpg","price":0.698,"self":false,"updatedAt":"23/06/2026 16:05:36"}]},{"id":"60413","lat":40.92131823978054,"lon":14.055731890737926,"name":"Oscar Gas fuel","brand":"Pompe Bianche","address":"MADONNA DEL PANTANO 59 80014, GIUGLIANO IN CAMPANIA, NA","prices":[{"type":"petrol","price":1.745,"self":true,"updatedAt":"24/06/2026 10:58:44"},{"type":"diesel","price":1.845,"self":true,"updatedAt":"24/06/2026 10:58:44"},{"type":"lpg","price":0.665,"self":false,"updatedAt":"24/06/2026 10:58:44"}]},{"id":"50261","lat":40.93326097817131,"lon":14.22273993492126,"name":"Pit Stop","brand":"Pit stop","address":"Via Appia Km 19,800 SNC 80014, GIUGLIANO IN CAMPANIA, NA","prices":[{"type":"petrol","price":1.799,"self":true,"updatedAt":"23/06/2026 10:08:25"},{"type":"diesel","price":1.899,"self":true,"updatedAt":"23/06/2026 10:08:25"},{"type":"methane","price":1.499,"self":false,"updatedAt":"23/06/2026 10:08:25"},{"type":"lpg","price":0.699,"self":false,"updatedAt":"23/06/2026 10:08:25"}]},{"id":"57760","lat":40.9206422,"lon":14.0321399,"name":"PV 54622 GIUGLIANO IN CAMPANIA","brand":"Agip Eni","address":"LAGO PATRIA LOC. LITERNUM 138/A 80014, GIUGLIANO IN CAMPANIA, NA","prices":[{"type":"petrol","price":1.789,"self":true,"updatedAt":"25/06/2026 23:17:20"},{"type":"diesel","price":1.844,"self":true,"updatedAt":"26/06/2026 06:10:30"}]},{"id":"58777","lat":40.886761865504766,"lon":14.080300131877145,"name":"Q8 P.V.7040","brand":"Q8","address":"Via S. Nullo 141/G 80014, GIUGLIANO IN CAMPANIA, NA","prices":[{"type":"petrol","price":1.849,"self":true,"updatedAt":"23/06/2026 16:05:19"},{"type":"diesel","price":1.949,"self":true,"updatedAt":"23/06/2026 16:05:19"},{"type":"methane","price":1.595,"self":false,"updatedAt":"23/06/2026 16:05:19"}]},{"id":"19979","lat":40.974703474731335,"lon":14.136224538087845,"name":"RUFINO CARBURANTI","brand":"Pompe Bianche","address":"VIA PROVINCIALE TRENTOLA-ISCHITELLA  80014, GIUGLIANO IN CAMPANIA, NA","prices":[{"type":"petrol","price":1.769,"self":true,"updatedAt":"25/06/2026 17:00:58"},{"type":"diesel","price":1.819,"self":true,"updatedAt":"25/06/2026 17:00:58"},{"type":"lpg","price":0.669,"self":false,"updatedAt":"25/06/2026 17:00:58"}]},{"id":"57115","lat":40.8772425,"lon":14.138446,"name":"Salatiello Giuseppe","brand":"Esso","address":"LAGO PATRIA 267/B 80014, GIUGLIANO IN CAMPANIA, NA","prices":[{"type":"petrol","price":1.799,"self":true,"updatedAt":"24/06/2026 11:49:53"},{"type":"diesel","price":1.879,"self":true,"updatedAt":"24/06/2026 11:49:53"}]},{"id":"43316","lat":40.90360424522112,"lon":14.054792480985611,"name":"SCIKAN","brand":"Pompe Bianche","address":"VIA RIPUARIA 281 80014, GIUGLIANO IN CAMPANIA, NA","prices":[{"type":"petrol","price":1.745,"self":true,"updatedAt":"23/06/2026 15:38:28"},{"type":"diesel","price":1.845,"self":true,"updatedAt":"23/06/2026 15:38:28"},{"type":"lpg","price":0.665,"self":false,"updatedAt":"23/06/2026 15:38:28"}]},{"id":"22028","lat":40.94049945703004,"lon":14.168736934661865,"name":"tamoil","brand":"Tamoil","address":"Statale 162 dir del Centro Direzionale, Km. 12+512, dir. napoli - 80014, GIUGLIANO IN CAMPANIA, NA","prices":[{"type":"petrol","price":1.779,"self":true,"updatedAt":"24/06/2026 09:23:26"},{"type":"diesel","price":1.879,"self":true,"updatedAt":"24/06/2026 09:23:26"}]},{"id":"50852","lat":40.9048549,"lon":14.0600802,"name":"TNA PETROLI","brand":"Pompe Bianche","address":"Via Ripuaria 306, GIUGLIANO IN CAMPANIA, NA","prices":[{"type":"petrol","price":1.799,"self":true,"updatedAt":"25/06/2026 11:12:18"},{"type":"diesel","price":1.889,"self":true,"updatedAt":"25/06/2026 11:12:18"}]},{"id":"57156","lat":40.90387430503267,"lon":14.039804180256672,"name":"VARCATURO","brand":"Pompe Bianche","address":"Via Domitiana Km 44+700, GIUGLIANO IN CAMPANIA, NA","prices":[{"type":"petrol","price":1.799,"self":false,"updatedAt":"25/06/2026 15:26:12"},{"type":"diesel","price":1.879,"self":false,"updatedAt":"25/06/2026 15:26:12"},{"type":"lpg","price":0.719,"self":false,"updatedAt":"25/06/2026 15:26:12"}]},{"id":"53687","lat":40.8365207,"lon":14.2400383,"name":"easy gragnano","brand":"Energas","address":"piazza g. amendola snc snc 80054, GRAGNANO, NA","prices":[{"type":"petrol","price":1.849,"self":true,"updatedAt":"25/06/2026 00:43:42"},{"type":"diesel","price":1.879,"self":true,"updatedAt":"25/06/2026 00:43:42"}]},{"id":"44302","lat":40.888977000123,"lon":14.179254000123,"name":"ALS (Marano)","brand":"ALS","address":"via del mare  100 80016, MARANO DI NAPOLI, NA","prices":[{"type":"petrol","price":1.789,"self":true,"updatedAt":"25/06/2026 12:27:00"},{"type":"diesel","price":1.889,"self":true,"updatedAt":"25/06/2026 12:26:59"},{"type":"lpg","price":0.669,"self":false,"updatedAt":"25/06/2026 12:27:00"}]},{"id":"58052","lat":40.89691,"lon":14.16742,"name":"EASY SERVICE S.R.L.","brand":"Energas","address":"Via S. Rocco SNC 80016, MARANO DI NAPOLI, NA","prices":[{"type":"petrol","price":1.799,"self":true,"updatedAt":"25/06/2026 00:44:04"},{"type":"diesel","price":1.899,"self":true,"updatedAt":"25/06/2026 00:44:04"},{"type":"lpg","price":0.669,"self":false,"updatedAt":"25/06/2026 11:52:03"}]},{"id":"57975","lat":40.90111,"lon":14.18535,"name":"eni live station 08003","brand":"Agip Eni","address":"MEDITERRANEO SNC 80016, MARANO DI NAPOLI, NA","prices":[{"type":"petrol","price":1.824,"self":true,"updatedAt":"25/06/2026 01:21:16"},{"type":"diesel","price":1.919,"self":true,"updatedAt":"25/06/2026 01:21:16"}]},{"id":"53898","lat":40.902086,"lon":14.136798,"name":"EUROENERGIA SNC MARANO","brand":"Q8","address":"Via Castel Belvedere SNC 80016, MARANO DI NAPOLI, NA","prices":[{"type":"petrol","price":1.759,"self":true,"updatedAt":"24/06/2026 14:06:23"},{"type":"diesel","price":1.859,"self":true,"updatedAt":"24/06/2026 14:06:22"},{"type":"methane","price":1.595,"self":false,"updatedAt":"24/06/2026 14:06:22"},{"type":"lpg","price":0.714,"self":false,"updatedAt":"24/06/2026 14:06:22"}]},{"id":"26667","lat":40.896534413214546,"lon":14.160646006475872,"name":"flli del prete petroli s.a.s eni","brand":"Agip Eni","address":"VIA SAN ROCCO 335 80016, MARANO DI NAPOLI, NA","prices":[{"type":"petrol","price":1.819,"self":true,"updatedAt":"25/06/2026 23:22:17"},{"type":"diesel","price":1.914,"self":true,"updatedAt":"25/06/2026 23:22:17"}]},{"id":"62945","lat":40.898261489900456,"lon":14.19524608763162,"name":"MARANO","brand":"Api-Ip","address":"Corso Europa 1  80016, MARANO DI NAPOLI, NA","prices":[{"type":"petrol","price":1.819,"self":true,"updatedAt":"19/06/2026 15:53:17"},{"type":"diesel","price":1.889,"self":true,"updatedAt":"19/06/2026 15:53:18"}]},{"id":"31857","lat":40.89801275007502,"lon":14.197599313491764,"name":"MARANO DI NAPOLI - CORSO EUROPA 68","brand":"Q8","address":"CORSO EUROPA 68 80016, MARANO DI NAPOLI, NA","prices":[{"type":"petrol","price":1.789,"self":true,"updatedAt":"26/06/2026 07:45:32"},{"type":"diesel","price":1.889,"self":true,"updatedAt":"26/06/2026 07:45:32"}]},{"id":"62448","lat":40.9014083,"lon":14.145927,"name":"MARANO DI NAPOLI VIA CASTELBELVEDERE","brand":"Q8","address":"Via Castel Belvedere, MARANO DI NAPOLI, NA","prices":[{"type":"petrol","price":1.789,"self":true,"updatedAt":"22/06/2026 17:34:51"},{"type":"diesel","price":1.889,"self":true,"updatedAt":"22/06/2026 17:34:51"}]},{"id":"48434","lat":40.90146660242059,"lon":14.191342387731568,"name":"MERLINO CARBURANTI 1","brand":"Pompe Bianche","address":"VIA LAZIO SNC 80016, MARANO DI NAPOLI, NA","prices":[{"type":"petrol","price":1.799,"self":false,"updatedAt":"24/06/2026 16:11:07"},{"type":"diesel","price":1.899,"self":false,"updatedAt":"24/06/2026 16:11:07"},{"type":"lpg","price":0.699,"self":false,"updatedAt":"24/06/2026 16:11:07"}]},{"id":"27850","lat":40.90186838628478,"lon":14.12692666053772,"name":"MIGLIACCIO CARBURANTI - P.V.MARANO(NA)","brand":"Pompe Bianche","address":"VIA CASTEL BELVEDERE 251/A 80016, MARANO DI NAPOLI, NA","prices":[{"type":"petrol","price":1.789,"self":true,"updatedAt":"23/06/2026 16:05:45"},{"type":"diesel","price":1.889,"self":true,"updatedAt":"23/06/2026 16:05:45"},{"type":"lpg","price":0.669,"self":false,"updatedAt":"23/06/2026 16:05:45"}]},{"id":"31920","lat":40.90983519430475,"lon":14.229415208101273,"name":"ESSO","brand":"Esso","address":"VIA CIRCUMVALLAZIONE ESTERNA 60 80017, MELITO DI NAPOLI, NA","prices":[{"type":"petrol","price":1.869,"self":true,"updatedAt":"23/06/2026 06:55:54"},{"type":"diesel","price":1.929,"self":true,"updatedAt":"23/06/2026 06:55:54"}]},{"id":"53772","lat":40.91217355682492,"lon":14.240155609391836,"name":"Italiana Petroli S.P.A","brand":"Api-Ip","address":"S.S. 7 BIS KM 22600 SNC 80017, MELITO DI NAPOLI, NA","prices":[{"type":"petrol","price":1.836,"self":true,"updatedAt":"25/06/2026 15:42:03"},{"type":"diesel","price":1.916,"self":true,"updatedAt":"25/06/2026 15:42:03"}]},{"id":"45655","lat":40.90966889745,"lon":14.23086918106037,"name":"TAMOIL","brand":"Tamoil","address":"PROV.CIRCUMVALLAZIONE EST. 6 80017, MELITO DI NAPOLI, NA","prices":[{"type":"petrol","price":1.869,"self":true,"updatedAt":"24/06/2026 20:34:38"},{"type":"diesel","price":1.929,"self":true,"updatedAt":"24/06/2026 20:34:38"}]},{"id":"20367","lat":40.91518496486265,"lon":14.230032744817436,"name":"your fuel","brand":"Pompe Bianche","address":"corso europa snc, MELITO DI NAPOLI, NA","prices":[{"type":"petrol","price":1.849,"self":true,"updatedAt":"24/06/2026 00:37:18"},{"type":"diesel","price":1.898,"self":true,"updatedAt":"24/06/2026 00:37:18"},{"type":"lpg","price":0.699,"self":false,"updatedAt":"24/06/2026 00:37:18"}]},{"id":"36210","lat":40.80072237973615,"lon":14.052169471979141,"name":"BAIANO CARBURANTI","brand":"Pompe Bianche","address":"Strada Provinciale Torregaveta snc 80070, MONTE DI PROCIDA, NA","prices":[{"type":"petrol","price":1.799,"self":true,"updatedAt":"25/06/2026 11:13:12"},{"type":"diesel","price":1.879,"self":true,"updatedAt":"25/06/2026 11:13:12"}]},{"id":"27244","lat":40.79392202928247,"lon":14.055369347333908,"name":"ESSO","brand":"Esso","address":"VIA PANORAMICA 45 80070, MONTE DI PROCIDA, NA","prices":[{"type":"petrol","price":1.789,"self":true,"updatedAt":"23/06/2026 08:47:39"},{"type":"diesel","price":1.879,"self":true,"updatedAt":"23/06/2026 08:47:39"}]},{"id":"57272","lat":40.913124312262845,"lon":14.221298027710597,"name":"Easy Mugnano","brand":"Energas","address":"Via Pietro Nenni 42 80018, MUGNANO DI NAPOLI, NA","prices":[{"type":"petrol","price":1.839,"self":true,"updatedAt":"25/06/2026 15:16:12"},{"type":"diesel","price":1.889,"self":true,"updatedAt":"25/06/2026 15:16:12"},{"type":"lpg","price":0.759,"self":false,"updatedAt":"25/06/2026 00:41:31"}]},{"id":"62511","lat":40.9045602,"lon":14.2138814,"name":"GEST-ITA","brand":"Pompe Bianche","address":"Via Papa Snc 80018, MUGNANO DI NAPOLI, NA","prices":[{"type":"petrol","price":1.799,"self":true,"updatedAt":"25/06/2026 23:17:28"},{"type":"diesel","price":1.879,"self":true,"updatedAt":"25/06/2026 22:02:11"},{"type":"methane","price":1.489,"self":false,"updatedAt":"26/06/2026 00:19:15"},{"type":"lpg","price":0.699,"self":false,"updatedAt":"26/06/2026 00:19:15"}]},{"id":"48596","lat":40.912993297611834,"lon":14.221275689190875,"name":"GR PETROLI","brand":"Pompe Bianche","address":"VIA PIETRO NENNI 11 80018, MUGNANO DI NAPOLI, NA","prices":[{"type":"petrol","price":1.849,"self":false,"updatedAt":"23/06/2026 20:43:51"},{"type":"diesel","price":1.899,"self":false,"updatedAt":"23/06/2026 20:43:51"},{"type":"methane","price":1.499,"self":false,"updatedAt":"23/06/2026 20:43:51"},{"type":"lpg","price":0.759,"self":false,"updatedAt":"23/06/2026 20:43:51"}]},{"id":"31878","lat":40.91692099516414,"lon":14.222807586193085,"name":"MUGNANO - S.P. MELITO-MUGNANO SNC","brand":"Q8","address":"S.P. MELITO-MUGNANO SNC 80018, MUGNANO DI NAPOLI, NA","prices":[{"type":"petrol","price":1.839,"self":true,"updatedAt":"24/06/2026 16:37:27"},{"type":"diesel","price":1.889,"self":true,"updatedAt":"24/06/2026 16:37:27"}]},{"id":"5955","lat":40.91201991863902,"lon":14.222520589828491,"name":"Mugnano di Napoli","brand":"Api-Ip","address":"Via P.Nenni  54 80018, MUGNANO DI NAPOLI, NA","prices":[{"type":"petrol","price":1.839,"self":true,"updatedAt":"25/06/2026 09:14:46"},{"type":"diesel","price":1.889,"self":true,"updatedAt":"25/06/2026 09:14:46"}]},{"id":"44129","lat":40.91316758167302,"lon":14.19595163128281,"name":"MUGNANO DI NAPOLI CORSO ITALIA 63/B","brand":"Q8","address":"CORSO ITALIA 63/B 80018, MUGNANO DI NAPOLI, NA","prices":[{"type":"petrol","price":1.789,"self":true,"updatedAt":"25/06/2026 17:37:02"},{"type":"diesel","price":1.889,"self":true,"updatedAt":"25/06/2026 17:37:02"}]},{"id":"58984","lat":40.86301379275876,"lon":14.219788491080465,"name":"107352 NAPOLI V SEMMOLA","brand":"Esso","address":"MARIANO SEMMOLA 26 80127, NAPOLI, NA","prices":[{"type":"petrol","price":1.899,"self":true,"updatedAt":"27/05/2026 07:10:45"},{"type":"diesel","price":2.069,"self":true,"updatedAt":"27/05/2026 07:10:45"}]},{"id":"60590","lat":40.86291,"lon":14.2205,"name":"55456 NAPOLI","brand":"Agip Eni","address":"Via Mariano Semmola 25  80131, NAPOLI, NA","prices":[{"type":"petrol","price":1.804,"self":true,"updatedAt":"26/06/2026 00:13:22"},{"type":"diesel","price":1.889,"self":true,"updatedAt":"26/06/2026 07:46:15"}]},{"id":"53725","lat":40.82129949476691,"lon":14.189086854457855,"name":"56140 ENI","brand":"Agip Eni","address":"Via Diocleziano 31 80124, NAPOLI, NA","prices":[{"type":"petrol","price":1.699,"self":true,"updatedAt":"25/06/2026 23:18:50"},{"type":"diesel","price":1.719,"self":true,"updatedAt":"25/06/2026 23:18:50"}]},{"id":"58378","lat":40.898,"lon":14.207117,"name":"59352  NAPOLI","brand":"Agip Eni","address":"Via Santa Maria a Cubito 850  80145, NAPOLI, NA","prices":[{"type":"petrol","price":1.814,"self":true,"updatedAt":"26/06/2026 00:21:57"},{"type":"diesel","price":1.899,"self":true,"updatedAt":"26/06/2026 00:21:57"}]},{"id":"12556","lat":40.834552377910796,"lon":14.2023531123142,"name":"acanfora stefania","brand":"Pompe Bianche","address":"VIA CONSALVO  80125, NAPOLI, NA","prices":[{"type":"petrol","price":1.769,"self":true,"updatedAt":"24/06/2026 19:48:17"},{"type":"diesel","price":1.849,"self":true,"updatedAt":"24/06/2026 19:48:17"}]},{"id":"62774","lat":40.839378540468516,"lon":14.17056168220904,"name":"AGNANO EST","brand":"Agip Eni","address":"TANG.LE DI NAPOLI, Km. 7+820, NORD -, NAPOLI, NA","prices":[{"type":"petrol","price":1.858,"self":true,"updatedAt":"24/06/2026 15:04:44"},{"type":"diesel","price":1.889,"self":true,"updatedAt":"24/06/2026 15:04:44"}]},{"id":"42903","lat":40.839378540468516,"lon":14.17056168220904,"name":"AGNANO EST","brand":"Agip Eni","address":"TANG.LE DI NAPOLI, Km. 7+820, NORD -, NAPOLI, NA","prices":[{"type":"petrol","price":1.868,"self":true,"updatedAt":"24/06/2026 14:11:25"},{"type":"diesel","price":1.899,"self":true,"updatedAt":"24/06/2026 14:11:25"}]},{"id":"22226","lat":40.840037239525664,"lon":14.170432090759277,"name":"AGNANO OVEST","brand":"Agip Eni","address":"Autostrada TANG.LE DI NAPOLI, Km. 8,2, dir. Pozzuoli - 80125, NAPOLI, NA","prices":[{"type":"petrol","price":1.825,"self":true,"updatedAt":"25/06/2026 00:08:37"},{"type":"diesel","price":1.914,"self":true,"updatedAt":"25/06/2026 00:08:37"}]},{"id":"37852","lat":40.82092427430563,"lon":14.172061420963473,"name":"API-IP","brand":"Api-Ip","address":"Via DELLA LIBERAZIONE SNC 80125, NAPOLI, NA","prices":[{"type":"petrol","price":1.829,"self":true,"updatedAt":"23/06/2026 21:17:59"},{"type":"diesel","price":1.929,"self":true,"updatedAt":"23/06/2026 21:17:59"}]},{"id":"55414","lat":40.83204511085274,"lon":14.191690298339852,"name":"AZZURRO PETROLI","brand":"Pompe Bianche","address":"CINTHIA SNC 80126, NAPOLI, NA","prices":[{"type":"petrol","price":1.999,"self":true,"updatedAt":"02/06/2026 21:35:43"},{"type":"diesel","price":1.979,"self":true,"updatedAt":"02/06/2026 21:35:43"}]},{"id":"48065","lat":40.86291695643666,"lon":14.148920774459839,"name":"B.CARBURANTI PISANI","brand":"Pompe Bianche","address":"CONTRADA PISANI 20 80126, NAPOLI, NA","prices":[{"type":"petrol","price":1.784,"self":true,"updatedAt":"19/06/2026 17:10:32"},{"type":"diesel","price":1.889,"self":true,"updatedAt":"19/06/2026 17:10:32"},{"type":"lpg","price":0.699,"self":false,"updatedAt":"19/06/2026 17:10:32"}]},{"id":"13184","lat":40.83837656970375,"lon":14.200654551386833,"name":"BOIANO","brand":"Energas","address":"VIA CASSIODORO 20 80126, NAPOLI, NA","prices":[{"type":"petrol","price":1.989,"self":true,"updatedAt":"26/06/2026 00:12:25"},{"type":"diesel","price":1.999,"self":true,"updatedAt":"26/06/2026 00:12:25"}]},{"id":"62948","lat":40.858697809122724,"lon":14.22701207962342,"name":"C.R. PETROLI SRL","brand":"Pompe Bianche","address":"Via Domenico Fontana 117/119 80128, NAPOLI, NA","prices":[{"type":"petrol","price":1.819,"self":true,"updatedAt":"25/06/2026 10:58:30"},{"type":"diesel","price":1.879,"self":true,"updatedAt":"25/06/2026 10:58:30"}]},{"id":"44415","lat":40.9055444592129,"lon":14.247570636460864,"name":"cancello francesco","brand":"Agip Eni","address":"7 Via Appia, Km. 23+579, napoli  80144, NAPOLI, NA","prices":[{"type":"petrol","price":1.789,"self":true,"updatedAt":"25/06/2026 23:19:41"},{"type":"diesel","price":1.839,"self":true,"updatedAt":"26/06/2026 06:44:06"}]},{"id":"60754","lat":40.8483883,"lon":14.1808307,"name":"Carburanti F&C","brand":"Pompe Bianche","address":"MONTAGNA SPACCATA 209 80126, NAPOLI, NA","prices":[{"type":"petrol","price":1.989,"self":false,"updatedAt":"20/06/2026 08:59:34"},{"type":"diesel","price":1.999,"self":false,"updatedAt":"20/06/2026 08:59:34"}]},{"id":"54537","lat":40.853610152874055,"lon":14.219330822089997,"name":"Carburanti H24","brand":"Pompe Bianche","address":"IANNELLI FRONTE CIVICO 136 80131, NAPOLI, NA","prices":[{"type":"petrol","price":1.898,"self":true,"updatedAt":"20/06/2026 19:26:01"},{"type":"diesel","price":1.997,"self":true,"updatedAt":"20/06/2026 19:26:01"}]},{"id":"53195","lat":40.903324,"lon":14.249064,"name":"ci.ma. s.a.s.","brand":"Esso","address":"ROMA VERSO SCAMPIA 97 80144, NAPOLI, NA","prices":[{"type":"petrol","price":1.879,"self":true,"updatedAt":"23/06/2026 13:13:08"},{"type":"diesel","price":1.959,"self":true,"updatedAt":"23/06/2026 13:13:08"},{"type":"lpg","price":0.719,"self":false,"updatedAt":"23/06/2026 13:13:08"}]},{"id":"48717","lat":40.869954915167455,"lon":14.237648224536912,"name":"colli aminei","brand":"Esso","address":"VIALE COLLI AMINEI 295 80131, NAPOLI, NA","prices":[{"type":"petrol","price":1.919,"self":true,"updatedAt":"09/06/2026 15:35:09"},{"type":"diesel","price":1.999,"self":true,"updatedAt":"09/06/2026 15:35:09"}]},{"id":"50579","lat":40.798028580346376,"lon":14.170602005849755,"name":"coppola","brand":"Pompe Bianche","address":"Porto turistico di Nisida - Molo Cappellini  snc 80124, NAPOLI, NA","prices":[{"type":"petrol","price":2.195,"self":false,"updatedAt":"19/06/2026 08:53:42"},{"type":"diesel","price":2.295,"self":false,"updatedAt":"19/06/2026 08:53:42"}]},{"id":"15921","lat":40.83123454285524,"lon":14.18988693491815,"name":"DACARSAS","brand":"Esso","address":"VIA TERRACINA 479 80125, NAPOLI, NA","prices":[{"type":"petrol","price":1.799,"self":true,"updatedAt":"24/06/2026 09:07:06"},{"type":"diesel","price":1.899,"self":true,"updatedAt":"24/06/2026 09:07:06"}]},{"id":"18814","lat":40.834037090990876,"lon":14.189459681510925,"name":"DE LUCA ALFONSO IMPIANTO ENI","brand":"Agip Eni","address":"VIA CINTIA  80126, NAPOLI, NA","prices":[{"type":"petrol","price":1.814,"self":true,"updatedAt":"26/06/2026 00:20:17"},{"type":"diesel","price":1.909,"self":true,"updatedAt":"26/06/2026 00:20:17"}]},{"id":"60648","lat":40.85144280526388,"lon":14.224998950958252,"name":"De.Ma Petroli sas","brand":"Api-Ip","address":"Via Saverio Altamura 15 80128, NAPOLI, NA","prices":[{"type":"petrol","price":1.999,"self":false,"updatedAt":"26/06/2026 03:16:24"},{"type":"diesel","price":2.099,"self":false,"updatedAt":"26/06/2026 03:16:24"}]},{"id":"51570","lat":40.82812542020669,"lon":14.208547928493948,"name":"Distributore Eni di Antonio De Marino","brand":"Agip Eni","address":"VIA CAIO DUILIO SNC 80125, NAPOLI, NA","prices":[{"type":"petrol","price":1.859,"self":true,"updatedAt":"25/06/2026 00:57:49"},{"type":"diesel","price":1.964,"self":true,"updatedAt":"25/06/2026 00:57:49"}]},{"id":"45725","lat":40.851004573387726,"lon":14.172706604003906,"name":"Easy Service Montagna Spaccata","brand":"Energas","address":"via montagna spaccata  292/297 80100, NAPOLI, NA","prices":[{"type":"petrol","price":1.799,"self":true,"updatedAt":"25/06/2026 01:17:13"},{"type":"diesel","price":1.899,"self":true,"updatedAt":"25/06/2026 01:17:13"},{"type":"methane","price":1.329,"self":false,"updatedAt":"26/06/2026 00:01:45"},{"type":"lpg","price":0.699,"self":false,"updatedAt":"26/06/2026 00:01:45"}]},{"id":"57569","lat":40.8706253397036,"lon":14.238599495492558,"name":"EASY SERVICE S.R.L.","brand":"Energas","address":"Viale Colli Aminei 22/24 80100, NAPOLI, NA","prices":[{"type":"petrol","price":1.839,"self":true,"updatedAt":"25/06/2026 23:25:24"},{"type":"diesel","price":1.899,"self":true,"updatedAt":"25/06/2026 23:25:24"}]},{"id":"45532","lat":40.828125729046896,"lon":14.18516910548783,"name":"EASY SERVICE S.R.L. / VIA TERRACINA 180","brand":"Pompe Bianche","address":"Via Terracina 180 80125, NAPOLI, NA","prices":[{"type":"lpg","price":0.699,"self":false,"updatedAt":"25/06/2026 12:32:18"}]},{"id":"38609","lat":40.82094360369794,"lon":14.172964709561484,"name":"Easy Service Via della Liberazione","brand":"Energas","address":"Via della liberazione SNC 80100, NAPOLI, NA","prices":[{"type":"petrol","price":1.829,"self":true,"updatedAt":"25/06/2026 01:15:58"},{"type":"diesel","price":1.929,"self":true,"updatedAt":"25/06/2026 01:15:58"}]},{"id":"38607","lat":40.88518282183775,"lon":14.238584339618683,"name":"Easy Service Via Janfolla","brand":"Energas","address":"Via Janfolla 316 80100, NAPOLI, NA","prices":[{"type":"petrol","price":1.839,"self":true,"updatedAt":"25/06/2026 15:32:05"},{"type":"diesel","price":1.899,"self":true,"updatedAt":"25/06/2026 15:32:05"},{"type":"lpg","price":0.699,"self":false,"updatedAt":"25/06/2026 12:26:04"}]},{"id":"45398","lat":40.877072297303805,"lon":14.22056794166565,"name":"Easy Service, Toscanella Bis","brand":"Q8","address":"Via Toscanella SNC 80100, NAPOLI, NA","prices":[{"type":"petrol","price":1.829,"self":false,"updatedAt":"25/06/2026 15:14:14"},{"type":"diesel","price":1.889,"self":false,"updatedAt":"25/06/2026 15:14:14"},{"type":"methane","price":1.769,"self":false,"updatedAt":"25/06/2026 00:42:41"},{"type":"lpg","price":0.699,"self":false,"updatedAt":"25/06/2026 12:26:06"}]},{"id":"49345","lat":40.84637932608051,"lon":14.195420693060601,"name":"Easy Via Epomeo","brand":"Energas","address":"Via Epomeo  405 80100, NAPOLI, NA","prices":[{"type":"petrol","price":1.789,"self":true,"updatedAt":"25/06/2026 15:16:15"},{"type":"diesel","price":1.889,"self":true,"updatedAt":"25/06/2026 15:16:15"}]},{"id":"41285","lat":40.84466794403828,"lon":14.205436930060387,"name":"ENERGAS","brand":"Energas","address":"VIA DELL EPOMEO 66 80126, NAPOLI, NA","prices":[{"type":"petrol","price":1.829,"self":true,"updatedAt":"26/06/2026 00:11:31"},{"type":"diesel","price":1.939,"self":true,"updatedAt":"26/06/2026 00:11:31"}]},{"id":"19156","lat":40.83496289703459,"lon":14.21907067977952,"name":"ENERGAS","brand":"Energas","address":"Corso vittorio emanuele 66 80122, NAPOLI, NA","prices":[{"type":"petrol","price":1.91,"self":true,"updatedAt":"25/06/2026 01:08:21"},{"type":"diesel","price":2.038,"self":true,"updatedAt":"25/06/2026 01:08:21"}]},{"id":"49677","lat":40.831824829712204,"lon":14.212370440363884,"name":"EnerGas","brand":"Energas","address":"ALESSANDRO MANZONI 61 80123, NAPOLI, NA","prices":[{"type":"petrol","price":1.859,"self":true,"updatedAt":"26/06/2026 00:12:48"},{"type":"diesel","price":1.949,"self":true,"updatedAt":"26/06/2026 00:12:48"}]},{"id":"49215","lat":40.82974252540774,"lon":14.196160220884101,"name":"EnerGas","brand":"Energas","address":"Via Giambattista Marino 2 80100, NAPOLI, NA","prices":[{"type":"petrol","price":1.899,"self":true,"updatedAt":"26/06/2026 00:12:36"},{"type":"diesel","price":1.999,"self":true,"updatedAt":"26/06/2026 00:12:36"}]},{"id":"30427","lat":40.88424858334243,"lon":14.217003466131587,"name":"ENERGAS TOSCANELLA","brand":"Energas","address":"VIA NUOVA TOSCANELLA  183 80145, NAPOLI, NA","prices":[{"type":"petrol","price":1.829,"self":true,"updatedAt":"25/06/2026 15:26:04"},{"type":"diesel","price":1.889,"self":true,"updatedAt":"25/06/2026 15:26:04"},{"type":"methane","price":1.769,"self":false,"updatedAt":"25/06/2026 01:16:07"},{"type":"lpg","price":0.699,"self":false,"updatedAt":"25/06/2026 12:26:05"}]},{"id":"37585","lat":40.82583363694413,"lon":14.194533750414848,"name":"ENI","brand":"Agip Eni","address":"PIAZZALE TECCHIO SNC 80125, NAPOLI, NA","prices":[{"type":"petrol","price":1.814,"self":true,"updatedAt":"25/06/2026 01:22:43"},{"type":"diesel","price":1.909,"self":true,"updatedAt":"25/06/2026 01:22:43"}]},{"id":"33957","lat":40.83213228994187,"lon":14.163332283496857,"name":"ENI","brand":"Agip Eni","address":"VIA AGNANO ASTRONI SNC 80125, NAPOLI, NA","prices":[{"type":"petrol","price":1.814,"self":true,"updatedAt":"26/06/2026 00:11:07"},{"type":"diesel","price":1.909,"self":true,"updatedAt":"26/06/2026 00:11:07"}]},{"id":"36198","lat":40.836921585333165,"lon":14.19002965092659,"name":"ENI","brand":"Agip Eni","address":"VIA CINTHIA SNC 80126, NAPOLI, NA","prices":[{"type":"petrol","price":1.814,"self":true,"updatedAt":"26/06/2026 00:20:42"},{"type":"diesel","price":1.909,"self":true,"updatedAt":"26/06/2026 00:20:42"}]},{"id":"48081","lat":40.82191127529231,"lon":14.187592267990107,"name":"ENI","brand":"Agip Eni","address":"VIALE J.F. KENNEDY 53 80124, NAPOLI, NA","prices":[{"type":"petrol","price":1.679,"self":true,"updatedAt":"25/06/2026 00:00:07"},{"type":"diesel","price":1.729,"self":true,"updatedAt":"25/06/2026 00:00:07"}]},{"id":"57094","lat":40.8649728,"lon":14.2278656,"name":"ENI","brand":"Agip Eni","address":"VIA C.COLOMBO IMPIANTO ENI 15 80133, NAPOLI, NA","prices":[{"type":"petrol","price":1.859,"self":true,"updatedAt":"26/06/2026 00:18:52"},{"type":"diesel","price":1.964,"self":true,"updatedAt":"26/06/2026 00:18:52"}]},{"id":"44098","lat":40.8383355,"lon":14.2155098,"name":"ENI DI ANTONIO CAPOCCIA","brand":"Agip Eni","address":"Corso Europa 12 80127, NAPOLI, NA","prices":[{"type":"petrol","price":1.859,"self":true,"updatedAt":"26/06/2026 00:08:40"},{"type":"diesel","price":1.964,"self":true,"updatedAt":"26/06/2026 00:08:40"}]},{"id":"34520","lat":40.895842977081635,"lon":14.214620143175125,"name":"Eni station di Giovanni Varriale","brand":"Agip Eni","address":"Via Santa Maria a cubito 728 80145, NAPOLI, NA","prices":[{"type":"petrol","price":1.814,"self":true,"updatedAt":"26/06/2026 00:21:00"},{"type":"diesel","price":1.899,"self":true,"updatedAt":"26/06/2026 00:21:00"},{"type":"methane","price":1.428,"self":false,"updatedAt":"25/06/2026 23:17:29"},{"type":"lpg","price":0.747,"self":false,"updatedAt":"25/06/2026 23:17:29"}]},{"id":"62522","lat":40.8248089,"lon":14.1691681,"name":"EOIL 2B","brand":"Pompe Bianche","address":"Via Antonio Beccadelli 102  80125, NAPOLI, NA","prices":[{"type":"petrol","price":1.799,"self":true,"updatedAt":"23/06/2026 10:10:57"},{"type":"diesel","price":1.899,"self":true,"updatedAt":"23/06/2026 10:10:57"}]},{"id":"13961","lat":40.84574930094774,"lon":14.198435181614741,"name":"Epomeo s.a.s.","brand":"Esso","address":"EPOMEO 267 80100, NAPOLI, NA","prices":[{"type":"petrol","price":1.919,"self":true,"updatedAt":"24/06/2026 10:19:30"},{"type":"diesel","price":2.009,"self":true,"updatedAt":"24/06/2026 10:19:30"}]},{"id":"55227","lat":40.84364265613833,"lon":14.184645116329193,"name":"Esso","brand":"Esso","address":"VIA CINTHIA 78 80125, NAPOLI (NA) 78 80126, NAPOLI, NA","prices":[{"type":"petrol","price":1.799,"self":true,"updatedAt":"24/06/2026 12:49:20"},{"type":"diesel","price":1.899,"self":true,"updatedAt":"24/06/2026 12:49:20"},{"type":"lpg","price":0.799,"self":false,"updatedAt":"24/06/2026 12:49:20"}]},{"id":"33709","lat":40.84365499492473,"lon":14.207467470327174,"name":"Esso","brand":"Esso","address":"Via giustiniano 305 80126, NAPOLI, NA","prices":[{"type":"petrol","price":1.879,"self":true,"updatedAt":"25/06/2026 20:15:33"},{"type":"diesel","price":1.969,"self":true,"updatedAt":"25/06/2026 20:15:34"}]},{"id":"16240","lat":40.85517942579594,"lon":14.151977151632309,"name":"ESSO","brand":"Esso","address":"MONTAGNA SPACCATA 491 80126, NAPOLI, NA","prices":[{"type":"petrol","price":1.809,"self":true,"updatedAt":"24/06/2026 12:48:39"},{"type":"diesel","price":1.899,"self":true,"updatedAt":"24/06/2026 12:48:39"}]},{"id":"57257","lat":40.83178,"lon":14.22373,"name":"ESSO - TORRETTA","brand":"Esso","address":"Piazza Torretta  80122, NAPOLI, NA","prices":[{"type":"petrol","price":1.919,"self":true,"updatedAt":"19/06/2026 18:16:58"},{"type":"diesel","price":1.979,"self":true,"updatedAt":"19/06/2026 18:16:58"}]},{"id":"61505","lat":40.8532,"lon":14.2237,"name":"F.FUEL","brand":"Pompe Bianche","address":"Via Antonio Cardarelli 12 80131, NAPOLI, NA","prices":[{"type":"petrol","price":1.829,"self":false,"updatedAt":"22/06/2026 17:36:11"},{"type":"diesel","price":1.889,"self":false,"updatedAt":"22/06/2026 17:36:11"}]},{"id":"46414","lat":40.82759147307753,"lon":14.18367405778099,"name":"FRAMAR PETROLI SRL","brand":"Agip Eni","address":"VIA TERRACINA 221 80125, NAPOLI, NA","prices":[{"type":"petrol","price":1.809,"self":true,"updatedAt":"25/06/2026 00:55:27"},{"type":"diesel","price":1.894,"self":true,"updatedAt":"25/06/2026 07:26:11"}]},{"id":"24473","lat":40.83986338055077,"lon":14.227227866649628,"name":"GI.MAX.FUEL s.a.s.","brand":"Agip Eni","address":"ANIELLO FALCONE 224 80127, NAPOLI, NA","prices":[{"type":"petrol","price":1.859,"self":true,"updatedAt":"26/06/2026 00:20:30"},{"type":"diesel","price":1.964,"self":true,"updatedAt":"26/06/2026 00:20:30"}]},{"id":"46599","lat":40.84622606094517,"lon":14.197354856883294,"name":"Gi.Sa. s.n.c.","brand":"Agip Eni","address":"DELL EPOMEO 320 80126, NAPOLI, NA","prices":[{"type":"petrol","price":1.814,"self":true,"updatedAt":"25/06/2026 23:13:01"},{"type":"diesel","price":1.909,"self":true,"updatedAt":"25/06/2026 23:13:01"}]},{"id":"59046","lat":40.86904660923952,"lon":14.24955812275656,"name":"GT-FUEL (CAPODIMONTE)","brand":"GT-FUEL","address":"MIANO A CAPODIMONTE 7 80145, NAPOLI, NA","prices":[{"type":"petrol","price":1.809,"self":true,"updatedAt":"25/06/2026 16:51:41"},{"type":"diesel","price":1.879,"self":true,"updatedAt":"25/06/2026 16:51:41"}]},{"id":"35435","lat":40.882235354381535,"lon":14.217247368717153,"name":"GT-FUEL (TOSCANELLA)","brand":"GT-FUEL","address":"VIA TOSCANELLA 87 80145, NAPOLI, NA","prices":[{"type":"petrol","price":1.809,"self":true,"updatedAt":"25/06/2026 16:49:42"},{"type":"diesel","price":1.879,"self":true,"updatedAt":"25/06/2026 16:49:42"}]},{"id":"36531","lat":40.8627875,"lon":14.2203298,"name":"IP","brand":"Api-Ip","address":"Via Mariano Semmola 88 80131, NAPOLI, NA","prices":[{"type":"petrol","price":1.859,"self":false,"updatedAt":"26/06/2026 03:16:43"},{"type":"diesel","price":1.929,"self":false,"updatedAt":"26/06/2026 03:16:43"}]},{"id":"60642","lat":40.8524988,"lon":14.1679717,"name":"ip","brand":"Api-Ip","address":"Via Provinciale Montagna Spaccata 327  80126, NAPOLI, NA","prices":[{"type":"petrol","price":1.946,"self":true,"updatedAt":"05/05/2026 06:56:32"},{"type":"diesel","price":2.136,"self":true,"updatedAt":"05/05/2026 06:56:32"}]},{"id":"60641","lat":40.8524988,"lon":14.1679717,"name":"ip","brand":"Api-Ip","address":"Via Provinciale Montagna Spaccata 327  80126, NAPOLI, NA","prices":[{"type":"petrol","price":1.829,"self":true,"updatedAt":"24/06/2026 13:02:39"},{"type":"diesel","price":1.899,"self":true,"updatedAt":"24/06/2026 13:02:39"}]},{"id":"12728","lat":40.81862765756062,"lon":14.21028879633833,"name":"IP 45371 - Napoli","brand":"Api-Ip","address":"VIA PETRARCA 133 80122, NAPOLI, NA","prices":[{"type":"petrol","price":1.876,"self":true,"updatedAt":"25/06/2026 11:44:05"},{"type":"diesel","price":1.986,"self":true,"updatedAt":"25/06/2026 11:44:05"}]},{"id":"56127","lat":40.873515270444834,"lon":14.187343165176571,"name":"IP 46990 - Via Camillo Guerra","brand":"Api-Ip","address":"Via Camillo Guerra  80131, NAPOLI, NA","prices":[{"type":"petrol","price":1.796,"self":true,"updatedAt":"25/06/2026 12:24:24"},{"type":"diesel","price":1.886,"self":true,"updatedAt":"25/06/2026 12:24:24"}]},{"id":"50003","lat":40.83808565155206,"lon":14.232359388212501,"name":"IP ANTONIO GUARINO","brand":"Api-Ip","address":"CORSO VITT.EMANUELE ANG.P.GRIF SNC 80122, NAPOLI, NA","prices":[{"type":"petrol","price":2.299,"self":true,"updatedAt":"24/06/2026 09:42:19"},{"type":"diesel","price":2.299,"self":true,"updatedAt":"24/06/2026 09:42:20"}]},{"id":"57175","lat":40.8166764,"lon":14.1876884,"name":"Ip cavalleggeri","brand":"Api-Ip","address":"CAVALLEGGERI D'AOSTA 74 80124, NAPOLI, NA","prices":[{"type":"petrol","price":1.969,"self":true,"updatedAt":"27/05/2026 17:51:13"},{"type":"diesel","price":2.019,"self":true,"updatedAt":"27/05/2026 17:51:13"}]},{"id":"14339","lat":40.86206726698645,"lon":14.225704050385456,"name":"IP CLAMAR SRL","brand":"Api-Ip","address":"VIA CARDARELLI 1 80131, NAPOLI, NA","prices":[{"type":"petrol","price":1.874,"self":true,"updatedAt":"25/06/2026 18:14:34"},{"type":"diesel","price":1.924,"self":true,"updatedAt":"25/06/2026 18:14:34"}]},{"id":"57173","lat":40.8270733,"lon":14.2021958,"name":"Ip Doria","brand":"Api-Ip","address":"A.DORIA 22 80125, NAPOLI, NA","prices":[{"type":"petrol","price":1.949,"self":true,"updatedAt":"27/05/2026 17:49:48"},{"type":"diesel","price":1.999,"self":true,"updatedAt":"27/05/2026 17:49:48"}]},{"id":"57174","lat":40.8396584,"lon":14.2017145,"name":"Ip traiano","brand":"Api-Ip","address":"TRAIANO 24 80126, NAPOLI, NA","prices":[{"type":"petrol","price":1.969,"self":true,"updatedAt":"27/05/2026 17:50:42"},{"type":"diesel","price":2.019,"self":true,"updatedAt":"27/05/2026 17:50:42"}]},{"id":"60800","lat":40.8470808536187,"lon":14.193319759759525,"name":"IP VIA EPOMEO","brand":"Api-Ip","address":"Via dell'Epomeo 446  80126, NAPOLI, NA","prices":[{"type":"petrol","price":1.819,"self":true,"updatedAt":"24/06/2026 12:37:03"},{"type":"diesel","price":1.919,"self":true,"updatedAt":"24/06/2026 12:37:03"}]},{"id":"49095","lat":40.87976462583335,"lon":14.248791111663536,"name":"ITALIANA PETROLI IP","brand":"Api-Ip","address":"VIA MIANO SNC 80145, NAPOLI, NA","prices":[{"type":"petrol","price":1.844,"self":true,"updatedAt":"19/06/2026 17:59:15"},{"type":"diesel","price":1.894,"self":true,"updatedAt":"19/06/2026 17:59:15"}]},{"id":"35769","lat":40.9050762,"lon":14.2419208,"name":"Italiana Petroli S.P.A","brand":"Api-Ip","address":"Via Bakù S.N.C. 80144, NAPOLI, NA","prices":[{"type":"petrol","price":1.796,"self":true,"updatedAt":"25/06/2026 15:40:23"},{"type":"diesel","price":1.876,"self":true,"updatedAt":"25/06/2026 15:40:23"}]},{"id":"35626","lat":40.88236816022563,"lon":14.231468439102173,"name":"Italiana petroli s.p.a","brand":"Api-Ip","address":"via e. scaglione 115 80145, NAPOLI, NA","prices":[{"type":"petrol","price":1.816,"self":true,"updatedAt":"25/06/2026 17:07:15"},{"type":"diesel","price":1.896,"self":true,"updatedAt":"25/06/2026 17:07:15"}]},{"id":"62828","lat":40.82830240811599,"lon":14.22195717403563,"name":"LA DARSENA","brand":"Q8","address":"V. Francesco Caracciolo 10  80122, NAPOLI, NA","prices":[{"type":"diesel","price":2.05,"self":false,"updatedAt":"24/06/2026 06:51:15"}]},{"id":"54447","lat":40.82777561295493,"lon":14.195306831629932,"name":"MANGINI CARBURANTI S.A.S.","brand":"Tamoil","address":"G.B. MARINO SNC 80125, NAPOLI, NA","prices":[{"type":"petrol","price":1.819,"self":true,"updatedAt":"26/06/2026 00:23:57"},{"type":"diesel","price":1.919,"self":true,"updatedAt":"26/06/2026 00:23:57"}]},{"id":"59056","lat":40.845312,"lon":14.2278656,"name":"MANZONI","brand":"Esso","address":"Via Alessandro Manzoni 46  80123, NAPOLI, NA","prices":[{"type":"petrol","price":1.859,"self":true,"updatedAt":"26/06/2026 06:53:51"},{"type":"diesel","price":1.969,"self":true,"updatedAt":"26/06/2026 06:53:51"}]},{"id":"16633","lat":40.83709888570083,"lon":14.231776269597958,"name":"Mario Travaglione","brand":"Api-Ip","address":"CORSO VITTORIO EMANUELE 638 80121, NAPOLI, NA","prices":[{"type":"petrol","price":1.73,"self":true,"updatedAt":"24/06/2026 19:32:40"},{"type":"diesel","price":1.82,"self":true,"updatedAt":"24/06/2026 19:32:40"}]},{"id":"15864","lat":40.85751364160764,"lon":14.17040728032589,"name":"Muscatello Amedeo","brand":"Api-Ip","address":"PROVINCIALE 67 80126, NAPOLI, NA","prices":[{"type":"petrol","price":1.829,"self":true,"updatedAt":"24/06/2026 12:36:31"},{"type":"diesel","price":1.929,"self":true,"updatedAt":"24/06/2026 12:36:31"}]},{"id":"23675","lat":40.83683348332396,"lon":14.189681224536912,"name":"NAPOLI - CINTHIA","brand":"Api-Ip","address":"VIA CINTHIA  80126, NAPOLI, NA","prices":[{"type":"petrol","price":1.799,"self":true,"updatedAt":"25/06/2026 17:01:48"},{"type":"diesel","price":1.899,"self":true,"updatedAt":"25/06/2026 17:01:48"}]},{"id":"29745","lat":40.88566755526838,"lon":14.217489271163913,"name":"NAPOLI - NUOVA TOSCANELLA","brand":"Api-Ip","address":"VIA NUOVA TOSCANELLA snc 80145, NAPOLI, NA","prices":[{"type":"petrol","price":1.849,"self":true,"updatedAt":"25/06/2026 09:08:55"},{"type":"diesel","price":1.899,"self":true,"updatedAt":"25/06/2026 09:08:55"}]},{"id":"25973","lat":40.82364017775593,"lon":14.191709793254063,"name":"NAPOLI V.LE KENNEDY,2","brand":"Q8","address":"V.LE KENNEDY 2 80124, NAPOLI, NA","prices":[{"type":"petrol","price":1.819,"self":true,"updatedAt":"24/06/2026 16:37:07"},{"type":"diesel","price":1.899,"self":true,"updatedAt":"24/06/2026 16:37:07"}]},{"id":"29727","lat":40.835269474580514,"lon":14.207448468717189,"name":"NAPOLI VIA CARAVAGGIO 170","brand":"Q8","address":"VIA CARAVAGGIO 170 80125, NAPOLI, NA","prices":[{"type":"petrol","price":1.799,"self":true,"updatedAt":"26/06/2026 01:41:50"},{"type":"diesel","price":1.969,"self":true,"updatedAt":"26/06/2026 01:41:50"}]},{"id":"42394","lat":40.86842037340507,"lon":14.232789066864825,"name":"NAPOLI VIALE COLLI AMINEI","brand":"Q8","address":"VIALE COLLI AMINEI  80131, NAPOLI, NA","prices":[{"type":"petrol","price":1.829,"self":true,"updatedAt":"23/06/2026 18:36:01"},{"type":"diesel","price":1.889,"self":true,"updatedAt":"23/06/2026 18:36:01"}]},{"id":"11737","lat":40.845136225628046,"lon":14.202953644180297,"name":"NAPOLI-VIA DELL'EPOMEO 116/B","brand":"Q8","address":"VIA DELL'EPOMEO 116/B 80126, NAPOLI, NA","prices":[{"type":"petrol","price":1.814,"self":true,"updatedAt":"23/06/2026 18:36:05"},{"type":"diesel","price":1.909,"self":true,"updatedAt":"23/06/2026 18:36:05"}]},{"id":"11741","lat":40.821951286081514,"lon":14.180176267528509,"name":"NAPOLI-VIA LABRIOLA ANG.VIA G.MEDITERRANEO","brand":"Q8","address":"VIA LABRIOLA ANG.VIA G.MEDITERRANEO S/N 80125, NAPOLI, NA","prices":[{"type":"petrol","price":1.849,"self":true,"updatedAt":"24/06/2026 17:39:27"},{"type":"diesel","price":1.929,"self":true,"updatedAt":"24/06/2026 17:39:27"}]},{"id":"11736","lat":40.86742717615403,"lon":14.214509619712771,"name":"NAPOLI-VIA LEONARDO BIANCHI 46","brand":"Q8","address":"VIA LEONARDO BIANCHI 46 80131, NAPOLI, NA","prices":[{"type":"petrol","price":1.839,"self":true,"updatedAt":"23/06/2026 18:36:05"},{"type":"diesel","price":1.899,"self":true,"updatedAt":"23/06/2026 18:36:05"}]},{"id":"11732","lat":40.85046203667078,"lon":14.175481982803376,"name":"NAPOLI-VIA MONTAGNA SPACCATA 250","brand":"Q8","address":"VIA MONTAGNA SPACCATA 250 80126, NAPOLI, NA","prices":[{"type":"petrol","price":1.799,"self":true,"updatedAt":"23/06/2026 18:36:04"},{"type":"diesel","price":1.899,"self":true,"updatedAt":"23/06/2026 18:36:04"}]},{"id":"48398","lat":40.842006660060946,"lon":14.186377236613875,"name":"Natale Carburanti Via Cinthia","brand":"Pompe Bianche","address":"CINTIA ANG.LO V.LE TRAIANO SNC 80126, NAPOLI, NA","prices":[{"type":"petrol","price":1.799,"self":true,"updatedAt":"23/06/2026 14:29:00"},{"type":"diesel","price":1.899,"self":true,"updatedAt":"23/06/2026 14:29:00"}]},{"id":"16578","lat":40.802208613586636,"lon":14.193719699978828,"name":"NERI GENNARO","brand":"Esso","address":"VIA SANTO STRATO A POSILLIPO  80123, NAPOLI, NA","prices":[{"type":"petrol","price":1.948,"self":false,"updatedAt":"26/06/2026 07:46:24"},{"type":"diesel","price":2.038,"self":false,"updatedAt":"26/06/2026 07:46:24"}]},{"id":"13268","lat":40.85366690087562,"lon":14.235529660204861,"name":"onotri Gennaro","brand":"Agip Eni","address":"piazza CANNETO  80136, NAPOLI, NA","prices":[{"type":"petrol","price":1.859,"self":true,"updatedAt":"25/06/2026 01:23:23"},{"type":"diesel","price":1.964,"self":true,"updatedAt":"25/06/2026 01:23:23"}]},{"id":"10778","lat":40.812302794400054,"lon":14.202854365543999,"name":"Panniello Carlo","brand":"Agip Eni","address":"PETRARCA 77 80122, NAPOLI, NA","prices":[{"type":"petrol","price":1.859,"self":true,"updatedAt":"26/06/2026 00:19:14"},{"type":"diesel","price":1.964,"self":true,"updatedAt":"26/06/2026 00:19:14"}]},{"id":"57065","lat":40.87047689159751,"lon":14.222141953372942,"name":"PET - AMICIS","brand":"Esso","address":"TOMMASO DE AMICIS SNC 80145, NAPOLI, NA","prices":[{"type":"petrol","price":1.829,"self":true,"updatedAt":"23/06/2026 17:06:37"},{"type":"diesel","price":1.889,"self":true,"updatedAt":"23/06/2026 17:06:37"}]},{"id":"17589","lat":40.8593902436466,"lon":14.218086898326874,"name":"Pianese Gennaro","brand":"Pompe Bianche","address":"VIA ONOFRIO FRAGNITO 12/14 80131, NAPOLI, NA","prices":[{"type":"petrol","price":1.999,"self":false,"updatedAt":"23/06/2026 19:16:50"},{"type":"diesel","price":1.999,"self":false,"updatedAt":"23/06/2026 19:16:50"}]},{"id":"56425","lat":40.8519615,"lon":14.2251637,"name":"Q8","brand":"Q8","address":"Via Saverio Altamura 24 80128, NAPOLI, NA","prices":[{"type":"petrol","price":1.979,"self":false,"updatedAt":"20/06/2026 08:21:21"},{"type":"diesel","price":2.079,"self":false,"updatedAt":"20/06/2026 08:21:21"}]},{"id":"55367","lat":40.8071,"lon":14.1944,"name":"R1","brand":"Pompe Bianche","address":"VILLE ROMANE SNC 80147, NAPOLI, NA","prices":[{"type":"petrol","price":1.798,"self":true,"updatedAt":"25/06/2026 16:52:31"},{"type":"diesel","price":1.888,"self":true,"updatedAt":"25/06/2026 16:52:31"},{"type":"lpg","price":0.705,"self":false,"updatedAt":"25/06/2026 16:52:31"}]},{"id":"16152","lat":40.83368369246697,"lon":14.232150601709918,"name":"RIVIERA PETROLI","brand":"Api-Ip","address":"VIA RIVIERA DI CHIAIA 185 80121, NAPOLI, NA","prices":[{"type":"petrol","price":1.899,"self":true,"updatedAt":"26/06/2026 06:24:07"},{"type":"diesel","price":1.999,"self":true,"updatedAt":"26/06/2026 06:24:07"}]},{"id":"35333","lat":40.86577798287299,"lon":14.243335537612438,"name":"SCUDILLO EST","brand":"Api-Ip","address":"Autostrada TANG.LE DI NAPOLI, Km. 16+200, dir. Sud - 80136, NAPOLI, NA","prices":[{"type":"petrol","price":1.849,"self":true,"updatedAt":"24/06/2026 09:31:26"},{"type":"diesel","price":1.929,"self":true,"updatedAt":"24/06/2026 09:31:26"}]},{"id":"4023","lat":40.865729742550826,"lon":14.242064580321312,"name":"SCUDILLO OVEST","brand":"Esso","address":"Autostrada TANG.LE DI NAPOLI, Km. 14, dir. ovest - 80136, NAPOLI, NA","prices":[{"type":"petrol","price":1.919,"self":true,"updatedAt":"23/06/2026 12:36:26"},{"type":"diesel","price":2.029,"self":true,"updatedAt":"23/06/2026 12:36:26"}]},{"id":"15856","lat":40.84128142959939,"lon":14.22858926140293,"name":"Tamoil","brand":"Tamoil","address":"VIA LUCA GIORDANO 16 80127, NAPOLI, NA","prices":[{"type":"petrol","price":1.869,"self":true,"updatedAt":"26/06/2026 00:17:55"},{"type":"diesel","price":1.939,"self":true,"updatedAt":"26/06/2026 00:17:55"}]},{"id":"62666","lat":40.8956152,"lon":14.2146116,"name":"TAMOIL NAPOLI 6145","brand":"Tamoil","address":"Via Santa Maria a Cubito 539 80145, NAPOLI, NA","prices":[{"type":"petrol","price":1.829,"self":true,"updatedAt":"26/06/2026 00:17:34"},{"type":"diesel","price":1.899,"self":true,"updatedAt":"26/06/2026 00:17:34"}]},{"id":"57460","lat":40.82546231211656,"lon":14.222445332987252,"name":"te.oc.sas","brand":"Pompe Bianche","address":"DI SOPRAFLUTTO SANNAZZARO SNC 80122, NAPOLI, NA","prices":[{"type":"petrol","price":2.17,"self":false,"updatedAt":"23/06/2026 08:46:27"},{"type":"diesel","price":2.11,"self":false,"updatedAt":"23/06/2026 08:46:27"}]},{"id":"46564","lat":40.862140038990844,"lon":14.17448490858078,"name":"Tiber","brand":"Pompe Bianche","address":"corso duca d'aosta 25 80126, NAPOLI, NA","prices":[{"type":"petrol","price":1.979,"self":true,"updatedAt":"21/06/2026 11:51:48"},{"type":"diesel","price":1.999,"self":true,"updatedAt":"21/06/2026 11:51:48"}]},{"id":"32502","lat":40.84983407603444,"lon":14.236084117879955,"name":"TIBER","brand":"Pompe Bianche","address":"LEONARDO 12 80129, NAPOLI, NA","prices":[{"type":"petrol","price":1.959,"self":true,"updatedAt":"23/06/2026 21:41:48"},{"type":"diesel","price":1.999,"self":true,"updatedAt":"23/06/2026 21:41:48"}]},{"id":"41995","lat":40.814653478473446,"lon":14.205696007237634,"name":"Tiber","brand":"Pompe Bianche","address":"Via Francesco Petrarca 95 80125, NAPOLI, NA","prices":[{"type":"petrol","price":1.929,"self":true,"updatedAt":"20/06/2026 06:14:37"},{"type":"diesel","price":1.999,"self":true,"updatedAt":"20/06/2026 06:14:37"}]},{"id":"54783","lat":40.843870674084584,"lon":14.23179165987396,"name":"TIBER - SCARLATTI","brand":"Pompe Bianche","address":"Via Alessandro Scarlatti 57, NAPOLI, NA","prices":[{"type":"petrol","price":1.899,"self":false,"updatedAt":"23/06/2026 08:32:26"},{"type":"diesel","price":1.979,"self":false,"updatedAt":"23/06/2026 08:32:26"}]},{"id":"52799","lat":40.88750989692649,"lon":14.24913078546524,"name":"TIBER MIANO","brand":"Pompe Bianche","address":"Via Miano 123 80145, NAPOLI, NA","prices":[{"type":"petrol","price":1.899,"self":false,"updatedAt":"23/06/2026 08:33:20"},{"type":"diesel","price":1.979,"self":false,"updatedAt":"23/06/2026 08:33:20"}]},{"id":"62649","lat":40.8628253,"lon":14.2196493,"name":"TOIL252 -Via mariano semmola (NA)","brand":"Esso","address":"Via Mariano Semmola 26  80131, NAPOLI, NA","prices":[{"type":"petrol","price":1.799,"self":true,"updatedAt":"25/06/2026 00:50:14"},{"type":"diesel","price":1.899,"self":true,"updatedAt":"25/06/2026 00:50:14"}]},{"id":"63232","lat":40.8705228,"lon":14.2384547,"name":"TOIL286 - COLLI AMINEI","brand":"Esso","address":"Viale Colli Aminei 295 80131, NAPOLI, NA","prices":[{"type":"petrol","price":1.839,"self":true,"updatedAt":"25/06/2026 12:49:50"},{"type":"diesel","price":1.899,"self":true,"updatedAt":"25/06/2026 12:49:50"}]},{"id":"16241","lat":40.80376384453925,"lon":14.198785051703453,"name":"totalerg","brand":"Pompe Bianche","address":"VIA POSILLIPO-FRONTE STRADA 60 80123, NAPOLI, NA","prices":[{"type":"petrol","price":1.929,"self":true,"updatedAt":"20/06/2026 06:13:54"},{"type":"diesel","price":1.999,"self":true,"updatedAt":"20/06/2026 06:13:54"}]},{"id":"53078","lat":40.85189055798149,"lon":14.225102323046258,"name":"totalerg","brand":"FUELPP","address":"VIA VIA SAVERIO ALTAMURA 15 80127, NAPOLI (NA) 15 80128, NAPOLI, NA","prices":[{"type":"petrol","price":1.999,"self":true,"updatedAt":"22/06/2026 08:05:04"},{"type":"diesel","price":2.099,"self":true,"updatedAt":"22/06/2026 08:05:04"}]},{"id":"55228","lat":40.82089,"lon":14.18413,"name":"Unoil","brand":"357","address":"CINTIA SNC 80126, NAPOLI, NA","prices":[{"type":"petrol","price":1.789,"self":true,"updatedAt":"25/06/2026 13:41:47"},{"type":"diesel","price":1.869,"self":true,"updatedAt":"25/06/2026 13:41:47"}]},{"id":"53274","lat":40.849396566032766,"lon":14.237078553817355,"name":"VD Leonardo","brand":"Pompe Bianche","address":"LEONARDO 29 80129, NAPOLI, NA","prices":[{"type":"petrol","price":1.899,"self":true,"updatedAt":"23/06/2026 10:40:58"},{"type":"diesel","price":1.919,"self":true,"updatedAt":"23/06/2026 10:40:58"}]},{"id":"54626","lat":40.840878,"lon":14.088661,"name":"28066 Pozzuoli","brand":"Agip Eni","address":"Via Domiziana Km. 55,055 80078, POZZUOLI, NA","prices":[{"type":"petrol","price":1.814,"self":true,"updatedAt":"26/06/2026 00:22:54"},{"type":"diesel","price":1.909,"self":true,"updatedAt":"26/06/2026 00:22:54"}]},{"id":"51320","lat":40.82763612554705,"lon":14.07924234867096,"name":"55608","brand":"Agip Eni","address":"Via Miliscola 508 80078, POZZUOLI, NA","prices":[{"type":"petrol","price":1.789,"self":true,"updatedAt":"25/06/2026 23:18:40"},{"type":"diesel","price":1.854,"self":true,"updatedAt":"25/06/2026 23:18:40"}]},{"id":"33883","lat":40.87535962202268,"lon":14.07992497086525,"name":"7633","brand":"Tamoil","address":"PARINI SNC 80078, POZZUOLI, NA","prices":[{"type":"petrol","price":1.779,"self":true,"updatedAt":"25/06/2026 00:45:42"},{"type":"diesel","price":1.849,"self":true,"updatedAt":"25/06/2026 00:45:42"}]},{"id":"47644","lat":40.84714467843893,"lon":14.07038045277861,"name":"8163","brand":"Tamoil","address":"DOMITIANA SNC 80078, POZZUOLI, NA","prices":[{"type":"petrol","price":1.789,"self":true,"updatedAt":"25/06/2026 00:39:48"},{"type":"diesel","price":1.849,"self":true,"updatedAt":"25/06/2026 00:39:48"}]},{"id":"32152","lat":40.83758637713867,"lon":14.120105803012848,"name":"ANTICA CAMPANA EST","brand":"Esso","address":"Autostrada TANG.LE DI NAPOLI, Km. 2,5, dir. NAPOLI - 80078, POZZUOLI, NA","prices":[{"type":"petrol","price":1.969,"self":true,"updatedAt":"25/06/2026 16:11:45"},{"type":"diesel","price":2.069,"self":true,"updatedAt":"25/06/2026 16:11:45"}]},{"id":"59629","lat":40.85856589999999,"lon":14.2251338,"name":"ANTICA CAMPANA OVEST","brand":"Sarni Oil","address":"TANG.LE DI NAPOLI, km 3.4, Ovest   80078, POZZUOLI, NA","prices":[{"type":"petrol","price":1.869,"self":true,"updatedAt":"24/06/2026 14:15:24"},{"type":"diesel","price":1.979,"self":true,"updatedAt":"24/06/2026 14:15:24"},{"type":"lpg","price":0.749,"self":false,"updatedAt":"24/06/2026 14:15:24"}]},{"id":"41437","lat":40.85345315685109,"lon":14.114012494683266,"name":"B. CARBURANTI MONTE CORVARA","brand":"Pompe Bianche","address":"S P PENETRAZIONE B   80078, POZZUOLI, NA","prices":[{"type":"petrol","price":1.849,"self":true,"updatedAt":"22/06/2026 11:26:18"},{"type":"diesel","price":1.869,"self":true,"updatedAt":"22/06/2026 11:26:18"},{"type":"lpg","price":0.699,"self":false,"updatedAt":"22/06/2026 11:26:18"}]},{"id":"60010","lat":40.8341787,"lon":14.1187195,"name":"B.CARBURANTI","brand":"Pompe Bianche","address":"VARIANTE SOLFATARA SNC 80078, POZZUOLI, NA","prices":[{"type":"petrol","price":1.799,"self":true,"updatedAt":"23/06/2026 11:16:12"},{"type":"diesel","price":1.889,"self":true,"updatedAt":"23/06/2026 11:16:11"}]},{"id":"41522","lat":40.86432349867698,"lon":14.130531549453735,"name":"B.CARBURANTI Via Prov.le Pianura","brand":"Pompe Bianche","address":"Via Provinciale Pianura 15 80078, POZZUOLI, NA","prices":[{"type":"petrol","price":1.849,"self":true,"updatedAt":"22/06/2026 11:25:38"},{"type":"diesel","price":1.869,"self":true,"updatedAt":"22/06/2026 11:25:38"},{"type":"methane","price":1.299,"self":true,"updatedAt":"22/06/2026 11:25:38"},{"type":"lpg","price":0.699,"self":false,"updatedAt":"22/06/2026 11:25:38"}]},{"id":"59313","lat":40.8577097,"lon":14.1204667,"name":"BCARBURANTI","brand":"Pompe Bianche","address":"Via Campana 224/226 80078, POZZUOLI, NA","prices":[{"type":"petrol","price":1.849,"self":true,"updatedAt":"25/06/2026 11:12:45"},{"type":"diesel","price":1.869,"self":true,"updatedAt":"25/06/2026 11:12:45"}]},{"id":"49344","lat":40.84513600736065,"lon":14.07009946266808,"name":"Easy Pozzuoli","brand":"Energas","address":"Via Arco Felice Vecchio snc snc 80078, POZZUOLI, NA","prices":[{"type":"petrol","price":1.799,"self":true,"updatedAt":"25/06/2026 00:43:54"},{"type":"diesel","price":1.879,"self":true,"updatedAt":"25/06/2026 00:43:54"},{"type":"lpg","price":0.669,"self":false,"updatedAt":"25/06/2026 13:38:15"}]},{"id":"48197","lat":40.8280458817572,"lon":14.133556341104487,"name":"ENI POZZUOLI 01878","brand":"Agip Eni","address":"VIA SOLAFATARA 74 80078, POZZUOLI, NA","prices":[{"type":"petrol","price":1.814,"self":true,"updatedAt":"26/06/2026 00:20:03"},{"type":"diesel","price":1.919,"self":true,"updatedAt":"26/06/2026 00:20:03"}]},{"id":"52653","lat":40.869755465252254,"lon":14.059473127126694,"name":"ESSO LICOLA","brand":"Esso","address":"MONTENUOVO LICOLA PATRIA 148 80078, POZZUOLI, NA","prices":[{"type":"petrol","price":1.799,"self":true,"updatedAt":"25/06/2026 12:42:53"},{"type":"diesel","price":1.879,"self":true,"updatedAt":"25/06/2026 12:42:53"}]},{"id":"57552","lat":40.83364464979921,"lon":14.110315986551996,"name":"IP 46053","brand":"Api-Ip","address":"Via Campi Flegrei 7 80078, POZZUOLI, NA","prices":[{"type":"petrol","price":1.799,"self":true,"updatedAt":"24/06/2026 16:29:58"},{"type":"diesel","price":1.889,"self":true,"updatedAt":"24/06/2026 16:29:58"}]},{"id":"33641","lat":40.8307508,"lon":14.0874002,"name":"ITALIMPIANTI POZZUOLI","brand":"Pompe Bianche","address":"Via Miliscola 165/B 80078, POZZUOLI, NA","prices":[{"type":"petrol","price":1.79,"self":true,"updatedAt":"23/06/2026 08:14:20"},{"type":"diesel","price":1.85,"self":true,"updatedAt":"23/06/2026 08:14:21"}]},{"id":"30049","lat":40.836756198076344,"lon":14.095617905259132,"name":"Leonardo Testa","brand":"Esso","address":"PROV. MONTENUOVO LICOLA SNC 80078, POZZUOLI, NA","prices":[{"type":"petrol","price":1.779,"self":true,"updatedAt":"23/06/2026 19:35:32"},{"type":"diesel","price":1.849,"self":true,"updatedAt":"23/06/2026 19:35:32"}]},{"id":"42568","lat":40.830958195758306,"lon":14.115748297553182,"name":"POZZUOLI - VIA CAMPI FLEGREI","brand":"Q8","address":"VIA CAMPI FLEGREI  80078, POZZUOLI, NA","prices":[{"type":"petrol","price":1.779,"self":true,"updatedAt":"24/06/2026 17:39:23"},{"type":"diesel","price":1.849,"self":true,"updatedAt":"24/06/2026 17:39:23"}]},{"id":"59114","lat":40.8522571,"lon":14.0853449,"name":"POZZUOLI S.S.7 DOMITIANA /IV KM 53+390","brand":"Q8","address":"S.S.7 DOMITIANA /IV KM 53+390, POZZUOLI, NA","prices":[{"type":"petrol","price":1.809,"self":true,"updatedAt":"24/06/2026 17:39:21"},{"type":"diesel","price":1.909,"self":true,"updatedAt":"24/06/2026 17:39:21"},{"type":"lpg","price":0.669,"self":false,"updatedAt":"24/06/2026 17:39:21"}]},{"id":"52774","lat":40.85126,"lon":14.11889,"name":"UNIT SRL","brand":"Esso","address":"CAMPANA 201 80078, POZZUOLI, NA","prices":[{"type":"petrol","price":1.869,"self":true,"updatedAt":"24/06/2026 17:38:04"},{"type":"diesel","price":1.899,"self":true,"updatedAt":"24/06/2026 17:38:04"}]},{"id":"21194","lat":40.76573159200168,"lon":14.03025510726934,"name":"esso","brand":"Esso","address":"piazza sancio cattolico snc 80079, PROCIDA, NA","prices":[{"type":"petrol","price":2,"self":true,"updatedAt":"25/06/2026 19:49:21"},{"type":"diesel","price":2.09,"self":true,"updatedAt":"25/06/2026 19:49:21"}]},{"id":"42413","lat":40.91997600296579,"lon":14.11744425644872,"name":"AGNESE DI COSTANZO","brand":"Pompe Bianche","address":"VIA RIPUARIA 57 80019, QUALIANO, NA","prices":[{"type":"petrol","price":1.899,"self":false,"updatedAt":"20/06/2026 11:43:21"},{"type":"diesel","price":1.949,"self":false,"updatedAt":"20/06/2026 11:43:21"}]},{"id":"38376","lat":40.92544694855764,"lon":14.147963225841522,"name":"eni cafe","brand":"Agip Eni","address":"via santa maria a cubito  301 80019, QUALIANO, NA","prices":[{"type":"petrol","price":1.824,"self":true,"updatedAt":"26/06/2026 00:20:57"},{"type":"diesel","price":1.919,"self":true,"updatedAt":"26/06/2026 00:20:57"}]},{"id":"4532","lat":40.930204369003896,"lon":14.127286076545715,"name":"Euroenergia snc QUALIANO","brand":"Q8","address":"CIRCUMVALLAZIONE ESTERNA 207 80019, QUALIANO, NA","prices":[{"type":"petrol","price":1.759,"self":true,"updatedAt":"24/06/2026 14:05:20"},{"type":"diesel","price":1.859,"self":true,"updatedAt":"24/06/2026 14:05:20"},{"type":"methane","price":1.595,"self":false,"updatedAt":"24/06/2026 12:20:20"},{"type":"lpg","price":0.755,"self":false,"updatedAt":"24/06/2026 12:20:20"}]},{"id":"61635","lat":40.930915286976386,"lon":14.125283176755893,"name":"GT-FUEL","brand":"GT-FUEL","address":"SAN FRANCESCO A PATRIA 110 80019, QUALIANO, NA","prices":[{"type":"petrol","price":1.729,"self":true,"updatedAt":"25/06/2026 16:00:50"},{"type":"diesel","price":1.829,"self":true,"updatedAt":"25/06/2026 16:00:50"}]},{"id":"4548","lat":40.92218326860464,"lon":14.150978028774261,"name":"Q8 Granata","brand":"Q8","address":"via Santa Maria a Cubito 302 80019, QUALIANO, NA","prices":[{"type":"petrol","price":1.799,"self":false,"updatedAt":"24/06/2026 13:56:27"},{"type":"diesel","price":1.899,"self":false,"updatedAt":"24/06/2026 13:56:27"}]},{"id":"11738","lat":40.92824457859661,"lon":14.153687730431557,"name":"QUALIANO-TRAVERSA CIRCONVALLAZIONE ESTERNA","brand":"Q8","address":"TRAVERSA CIRCONVALLAZIONE ESTERNA S/N 80019, QUALIANO, NA","prices":[{"type":"petrol","price":1.749,"self":true,"updatedAt":"26/06/2026 07:45:35"},{"type":"diesel","price":1.869,"self":true,"updatedAt":"26/06/2026 07:45:35"}]},{"id":"44133","lat":40.914307132916456,"lon":14.146699905395508,"name":"Stazione di servizio ESSO di Bellotti Anna & C. s.a.s.","brand":"Esso","address":"VIA CAMPANA 331 80019, QUALIANO, NA","prices":[{"type":"petrol","price":1.829,"self":true,"updatedAt":"24/06/2026 14:08:10"},{"type":"diesel","price":1.909,"self":true,"updatedAt":"24/06/2026 14:08:10"}]},{"id":"27578","lat":40.88122934413095,"lon":14.144689589738846,"name":"ALS (Quarto)","brand":"ALS","address":"Via Kennedy  17 80010, QUARTO, NA","prices":[{"type":"petrol","price":1.789,"self":true,"updatedAt":"25/06/2026 12:26:46"},{"type":"diesel","price":1.889,"self":true,"updatedAt":"25/06/2026 12:26:46"}]},{"id":"27716","lat":40.883745652963526,"lon":14.119799763229366,"name":"eddie gas service di Silvestri","brand":"Pompe Bianche","address":"VIA CAMPANA 137/B 80010, QUARTO, NA","prices":[{"type":"petrol","price":1.829,"self":false,"updatedAt":"25/06/2026 11:14:16"},{"type":"diesel","price":1.919,"self":false,"updatedAt":"25/06/2026 11:14:16"},{"type":"lpg","price":0.689,"self":false,"updatedAt":"25/06/2026 11:14:16"}]},{"id":"57027","lat":40.87928,"lon":14.121106,"name":"ENERGAS","brand":"Energas","address":"CAMPANA 155/C 80010, QUARTO, NA","prices":[{"type":"petrol","price":1.875,"self":true,"updatedAt":"24/06/2026 08:58:00"},{"type":"diesel","price":1.945,"self":true,"updatedAt":"24/06/2026 08:58:00"},{"type":"lpg","price":0.688,"self":false,"updatedAt":"24/06/2026 08:58:00"}]},{"id":"27267","lat":40.875482001196346,"lon":14.122066220237684,"name":"eni","brand":"Agip Eni","address":"VIA CAMPANA 348 80010, QUARTO, NA","prices":[{"type":"petrol","price":1.829,"self":true,"updatedAt":"25/06/2026 23:14:10"},{"type":"diesel","price":1.919,"self":true,"updatedAt":"25/06/2026 23:14:10"}]},{"id":"36748","lat":40.87779022650022,"lon":14.127496629953384,"name":"ESSO","brand":"Esso","address":"Corso Italia  358 80010, QUARTO, NA","prices":[{"type":"petrol","price":1.849,"self":true,"updatedAt":"25/06/2026 15:55:43"},{"type":"diesel","price":1.939,"self":true,"updatedAt":"25/06/2026 15:55:43"}]},{"id":"53878","lat":40.877516,"lon":14.127151,"name":"GAFFOIL QUARTO","brand":"Gaffoil","address":"ITALIA SNC 80010, QUARTO, NA","prices":[{"type":"petrol","price":1.849,"self":true,"updatedAt":"25/06/2026 17:51:47"},{"type":"diesel","price":1.917,"self":true,"updatedAt":"25/06/2026 17:51:47"},{"type":"methane","price":1.59,"self":false,"updatedAt":"25/06/2026 17:51:47"},{"type":"lpg","price":0.687,"self":false,"updatedAt":"25/06/2026 17:51:47"}]},{"id":"31770","lat":40.882320665711205,"lon":14.120328169476124,"name":"Monteleone","brand":"Pompe Bianche","address":"VIA CAMPANA LOC. MONTELEONE S.N.C. 80010, QUARTO, NA","prices":[{"type":"petrol","price":1.789,"self":true,"updatedAt":"19/06/2026 07:25:21"},{"type":"diesel","price":1.889,"self":true,"updatedAt":"19/06/2026 07:25:21"},{"type":"lpg","price":0.669,"self":false,"updatedAt":"19/06/2026 07:25:21"}]},{"id":"39280","lat":40.87643948009235,"lon":14.12205046015356,"name":"OMNIGAS FUEL & OILS","brand":"Pompe Bianche","address":"VIA CAMPANA  245 80010, QUARTO, NA","prices":[{"type":"petrol","price":1.799,"self":true,"updatedAt":"25/06/2026 10:57:26"},{"type":"diesel","price":1.899,"self":true,"updatedAt":"25/06/2026 10:57:26"}]},{"id":"42480","lat":40.875615985947924,"lon":14.12224202331356,"name":"Roil Petroli","brand":"Pompe Bianche","address":"Via Campana  291 80010, QUARTO, NA","prices":[{"type":"petrol","price":1.799,"self":true,"updatedAt":"24/06/2026 07:12:51"},{"type":"diesel","price":1.899,"self":true,"updatedAt":"24/06/2026 07:12:51"}]},{"id":"13677","lat":40.878595352523185,"lon":14.142251461744308,"name":"Stazione di servizio F.lli Liccardi","brand":"Api-Ip","address":"corso italia 132 80010, QUARTO, NA","prices":[{"type":"petrol","price":1.849,"self":true,"updatedAt":"25/06/2026 17:19:25"},{"type":"diesel","price":1.939,"self":true,"updatedAt":"25/06/2026 17:19:25"}]},{"id":"28270","lat":40.876546989316196,"lon":14.113586081020344,"name":"STAZIONE Q8","brand":"Q8","address":"VIA MASULLO 62 80010, QUARTO, NA","prices":[{"type":"petrol","price":1.839,"self":true,"updatedAt":"22/06/2026 18:36:48"},{"type":"diesel","price":1.919,"self":true,"updatedAt":"22/06/2026 18:36:48"}]},{"id":"27700","lat":40.8863700945885,"lon":14.118564203381538,"name":"TAMOIL","brand":"Tamoil","address":"VIA CAMPANA 126 80010, QUARTO, NA","prices":[{"type":"petrol","price":1.869,"self":true,"updatedAt":"25/06/2026 23:49:15"},{"type":"diesel","price":1.969,"self":true,"updatedAt":"25/06/2026 00:32:26"}]},{"id":"49765","lat":40.93317344216066,"lon":14.234772805910149,"name":"C.R. PETROLI","brand":"Pompe Bianche","address":"Via Roma  169 80029, SANT'ANTIMO, NA","prices":[{"type":"petrol","price":1.745,"self":true,"updatedAt":"25/06/2026 10:57:18"},{"type":"diesel","price":1.819,"self":true,"updatedAt":"25/06/2026 10:57:18"}]},{"id":"47663","lat":40.935021157700255,"lon":14.225222635581956,"name":"GT PETROLI","brand":"Pompe Bianche","address":"VIA DANTE ALIGHIERI SNC 80029, SANT'ANTIMO, NA","prices":[{"type":"petrol","price":1.799,"self":true,"updatedAt":"24/06/2026 10:01:30"},{"type":"diesel","price":1.899,"self":true,"updatedAt":"24/06/2026 10:01:30"},{"type":"methane","price":1.399,"self":false,"updatedAt":"24/06/2026 10:01:30"},{"type":"lpg","price":0.699,"self":false,"updatedAt":"24/06/2026 10:01:30"}]},{"id":"44166","lat":40.94092305220446,"lon":14.236236705522515,"name":"IP","brand":"Api-Ip","address":"via martiri di via fani 7 80029, SANT'ANTIMO, NA","prices":[{"type":"petrol","price":1.799,"self":false,"updatedAt":"25/06/2026 11:07:34"},{"type":"diesel","price":1.899,"self":false,"updatedAt":"25/06/2026 11:07:34"}]},