[{"id":"58438","lat":40.763981,"lon":17.325931,"name":"Autotrasporti Convertini & Figli s.n.c. Stazione Eni","brand":"Agip Eni","address":"MADONNA DI LOURDES SNC 70010, LOCOROTONDO, BA","prices":[{"type":"petrol","price":1.825,"self":true,"updatedAt":"23/06/2026 23:21:55"},{"type":"diesel","price":1.914,"self":true,"updatedAt":"23/06/2026 23:21:55"},{"type":"lpg","price":0.742,"self":false,"updatedAt":"23/06/2026 23:21:55"}]},{"id":"22942","lat":40.759853551665515,"lon":17.31154292821884,"name":"Cardone Giuseppe Eni","brand":"Agip Eni","address":"Strada Statale 172  KM 41+761 70010, LOCOROTONDO, BA","prices":[{"type":"petrol","price":1.824,"self":true,"updatedAt":"24/06/2026 01:11:58"},{"type":"diesel","price":1.914,"self":true,"updatedAt":"24/06/2026 01:11:58"},{"type":"methane","price":1.493,"self":false,"updatedAt":"24/06/2026 01:11:58"},{"type":"lpg","price":0.742,"self":false,"updatedAt":"24/06/2026 01:11:58"}]},{"id":"26545","lat":40.752165356829934,"lon":17.332741767168045,"name":"CONVERTINI CARBURANTI S.R.L.","brand":"Pompe Bianche","address":"VIA LUIGI EINAUDI 7 70010, LOCOROTONDO, BA","prices":[{"type":"petrol","price":1.777,"self":true,"updatedAt":"24/06/2026 00:58:16"},{"type":"diesel","price":1.867,"self":true,"updatedAt":"24/06/2026 00:58:16"}]},{"id":"20670","lat":40.76193839462927,"lon":17.303323298692703,"name":"TAMOIL 4592","brand":"Tamoil","address":"172 dei Trulli, Km. 41 + 049, Alberobello - 70010, LOCOROTONDO, BA","prices":[{"type":"petrol","price":1.799,"self":true,"updatedAt":"24/06/2026 01:06:05"},{"type":"diesel","price":1.899,"self":true,"updatedAt":"24/06/2026 01:06:05"}]},{"id":"8131","lat":40.76035246448325,"lon":17.329419124196875,"name":"__Eni Capitaneo s.n.c.","brand":"Agip Eni","address":"Statale 172 dei Trulli, Km. 0+510, dir. Fasano, LOCOROTONDO, BA","prices":[{"type":"petrol","price":1.824,"self":true,"updatedAt":"23/06/2026 23:39:43"},{"type":"diesel","price":1.914,"self":true,"updatedAt":"23/06/2026 23:39:43"}]},{"id":"26076","lat":40.94755806499309,"lon":17.29135662317276,"name":"9016 monopoli","brand":"Agip Eni","address":"via aldo moro  69 70043, MONOPOLI, BA","prices":[{"type":"petrol","price":1.829,"self":true,"updatedAt":"24/06/2026 00:20:11"},{"type":"diesel","price":1.909,"self":true,"updatedAt":"24/06/2026 07:54:32"}]},{"id":"14746","lat":40.87096735368476,"lon":17.27861277759075,"name":"CORBASCIO PAOLO P.V. ENI","brand":"Agip Eni","address":"IMPALATA  70043, MONOPOLI, BA","prices":[{"type":"petrol","price":1.839,"self":true,"updatedAt":"22/06/2026 14:18:37"},{"type":"diesel","price":1.929,"self":true,"updatedAt":"22/06/2026 14:18:37"}]},{"id":"45683","lat":40.96557249990508,"lon":17.260893727832695,"name":"D&F CAFFE' S.R.L.","brand":"Pompe Bianche","address":"STRADA COMUNALE S. ANTONIO SN 70043, MONOPOLI, BA","prices":[{"type":"petrol","price":1.859,"self":true,"updatedAt":"23/06/2026 09:22:06"},{"type":"diesel","price":1.939,"self":true,"updatedAt":"23/06/2026 09:22:06"},{"type":"methane","price":1.679,"self":false,"updatedAt":"23/06/2026 09:22:06"}]},{"id":"4256","lat":40.910627768225716,"lon":17.322014272212982,"name":"ENI 09154 Dinielli Francesca s.r.l.","brand":"Agip Eni","address":"Statale 16 Adriatica, Km. 849+304, dir. sud - -, MONOPOLI, BA","prices":[{"type":"petrol","price":1.889,"self":true,"updatedAt":"24/06/2026 00:48:22"},{"type":"diesel","price":2.039,"self":true,"updatedAt":"24/06/2026 00:48:22"},{"type":"lpg","price":0.769,"self":false,"updatedAt":"23/06/2026 23:38:11"}]},{"id":"22502","lat":40.935038975376905,"lon":17.27475261694417,"name":"ENI 09173 - Petrol and Car Shop","brand":"Agip Eni","address":"S.P. 237 KM.1+994 S.N. 70043, MONOPOLI, BA","prices":[{"type":"petrol","price":1.839,"self":true,"updatedAt":"23/06/2026 09:00:01"},{"type":"diesel","price":1.929,"self":true,"updatedAt":"23/06/2026 09:00:01"},{"type":"lpg","price":0.742,"self":false,"updatedAt":"23/06/2026 09:00:01"}]},{"id":"18925","lat":40.96732547849731,"lon":17.271504876104927,"name":"Eni Cafè di Angiulli Paolo","brand":"Agip Eni","address":"VIALE ALDO MORO 44/B 70043, MONOPOLI, BA","prices":[{"type":"petrol","price":1.824,"self":true,"updatedAt":"23/06/2026 23:55:55"},{"type":"diesel","price":1.914,"self":true,"updatedAt":"23/06/2026 23:55:55"},{"type":"lpg","price":0.742,"self":false,"updatedAt":"23/06/2026 23:55:55"}]},{"id":"36438","lat":40.974526585020804,"lon":17.258427143096924,"name":"Monopoli","brand":"Api-Ip","address":"SS. 16 KM 839+950  70043, MONOPOLI, BA","prices":[{"type":"petrol","price":1.829,"self":true,"updatedAt":"23/06/2026 09:11:37"},{"type":"diesel","price":1.899,"self":true,"updatedAt":"23/06/2026 09:11:37"}]},{"id":"24512","lat":40.95083646437446,"lon":17.284330262565618,"name":"MONOPOLI - BAIONE","brand":"Api-Ip","address":"VIA BAIONE  70043, MONOPOLI, BA","prices":[{"type":"petrol","price":1.829,"self":true,"updatedAt":"23/06/2026 09:07:18"},{"type":"diesel","price":1.899,"self":true,"updatedAt":"23/06/2026 09:07:18"}]},{"id":"11396","lat":40.960081995255265,"lon":17.289878726005554,"name":"notarangelo adriano & c. s.a.s","brand":"Agip Eni","address":"via marina del mondo 30 70043, MONOPOLI, BA","prices":[{"type":"petrol","price":1.829,"self":true,"updatedAt":"23/06/2026 20:50:02"},{"type":"diesel","price":1.919,"self":true,"updatedAt":"23/06/2026 20:50:02"}]},{"id":"10599","lat":40.955329359898,"lon":17.290849685668945,"name":"RETITALIA - 48929","brand":"Retitalia","address":"RIMEMBRANZA 72 70043, MONOPOLI, BA","prices":[{"type":"petrol","price":1.999,"self":true,"updatedAt":"22/06/2026 11:25:07"},{"type":"diesel","price":2.099,"self":true,"updatedAt":"22/06/2026 11:25:07"}]},{"id":"13859","lat":40.960016368555486,"lon":17.28152833878994,"name":"SOGEDI SRL PUNTO VENDITA ENI 9151","brand":"Agip Eni","address":"VIALE ALDO MORO 59 70043, MONOPOLI, BA","prices":[{"type":"petrol","price":1.859,"self":true,"updatedAt":"24/06/2026 00:48:10"},{"type":"diesel","price":1.949,"self":true,"updatedAt":"24/06/2026 00:48:10"},{"type":"methane","price":1.699,"self":false,"updatedAt":"24/06/2026 00:48:10"},{"type":"lpg","price":0.742,"self":false,"updatedAt":"24/06/2026 00:48:10"}]},{"id":"33653","lat":40.94463503381663,"lon":17.30521023273468,"name":"UVA MASSIMO - ENI 09084","brand":"Agip Eni","address":"VIA LEPANTO 122 70043, MONOPOLI, BA","prices":[{"type":"petrol","price":1.849,"self":true,"updatedAt":"23/06/2026 23:36:42"},{"type":"diesel","price":1.949,"self":true,"updatedAt":"23/06/2026 23:36:42"}]},{"id":"33770","lat":40.76188882401902,"lon":17.422865331172943,"name":"CISTERNINO - GRAVINA DI CASTRO","brand":"Api-Ip","address":"SP GRAVINA DI CASTRO 18 72014, CISTERNINO, BR","prices":[{"type":"petrol","price":1.829,"self":true,"updatedAt":"23/06/2026 09:07:48"},{"type":"diesel","price":1.919,"self":true,"updatedAt":"23/06/2026 09:07:48"},{"type":"lpg","price":0.767,"self":false,"updatedAt":"23/06/2026 09:07:48"}]},{"id":"34348","lat":40.83905926495007,"lon":17.359470650553703,"name":"1090","brand":"Tamoil","address":"ROMA ANG. VIA MIGNOZZI 200 72015, FASANO, BR","prices":[{"type":"petrol","price":1.829,"self":true,"updatedAt":"24/06/2026 00:30:09"},{"type":"diesel","price":1.939,"self":true,"updatedAt":"24/06/2026 00:30:09"}]},{"id":"50438","lat":40.80611766986011,"lon":17.427308262565614,"name":"4590","brand":"Tamoil","address":"NAZ.EX S.S. 16 KM 864+720 SNC 72015, FASANO, BR","prices":[{"type":"petrol","price":1.829,"self":true,"updatedAt":"23/06/2026 13:36:09"},{"type":"diesel","price":1.939,"self":true,"updatedAt":"23/06/2026 13:36:09"}]},{"id":"61572","lat":40.83543223487252,"lon":17.362376678127283,"name":"AREA DI SERVIZIO TOIL","brand":"Toil","address":"Via Roma 84 72015, FASANO, BR","prices":[{"type":"petrol","price":1.829,"self":true,"updatedAt":"23/06/2026 12:28:07"},{"type":"diesel","price":1.919,"self":true,"updatedAt":"23/06/2026 12:28:07"}]},{"id":"53186","lat":40.81823,"lon":17.40119,"name":"CACUCCI MICHELE","brand":"Agip Eni","address":"S.S.16 KM. 862+141 -PEZZE DI GRECO-  NC 72015, FASANO, BR","prices":[{"type":"petrol","price":1.789,"self":true,"updatedAt":"23/06/2026 23:52:55"},{"type":"diesel","price":1.864,"self":true,"updatedAt":"23/06/2026 23:52:55"}]},{"id":"20138","lat":40.83078351323959,"lon":17.352734953165054,"name":"CACUCCI SAS DI CACUCCI NICOLA","brand":"Q8","address":"VIA NAZIONALE DEI TRULLI 155 72015, FASANO, BR","prices":[{"type":"petrol","price":1.839,"self":true,"updatedAt":"22/06/2026 11:08:27"},{"type":"diesel","price":1.949,"self":true,"updatedAt":"22/06/2026 11:08:27"}]},{"id":"40987","lat":40.84602587004726,"lon":17.38090976973649,"name":"CONVERTINI FRANCESCO PAOLO SRL","brand":"Pompe Bianche","address":"VIALE STAZIONE 76 72015, FASANO, BR","prices":[{"type":"petrol","price":1.849,"self":true,"updatedAt":"20/06/2026 11:46:09"},{"type":"diesel","price":1.949,"self":true,"updatedAt":"20/06/2026 11:46:09"}]},{"id":"40918","lat":40.814571489874666,"lon":17.41848260164261,"name":"CONVERTINI FRANCESCO PAOLO SRL PEZZE","brand":"Pompe Bianche","address":"S.P. PER TORRE CANNE/PEZZE DI GRECO  72015, FASANO, BR","prices":[{"type":"petrol","price":1.839,"self":true,"updatedAt":"20/06/2026 12:07:51"},{"type":"diesel","price":1.899,"self":true,"updatedAt":"20/06/2026 12:07:51"}]},{"id":"4958","lat":40.82501224121072,"lon":17.348731756210327,"name":"ENI FASANO","brand":"Agip Eni","address":"Statale 172 dei Trulli, Km. 8,800, dir. TARANTO - 72015, FASANO, BR","prices":[{"type":"petrol","price":1.859,"self":true,"updatedAt":"22/06/2026 10:11:50"},{"type":"diesel","price":1.969,"self":true,"updatedAt":"22/06/2026 10:11:50"},{"type":"methane","price":1.699,"self":false,"updatedAt":"22/06/2026 10:11:50"},{"type":"lpg","price":0.749,"self":false,"updatedAt":"22/06/2026 10:11:50"}]},{"id":"4957","lat":40.820790021218926,"lon":17.491596937179565,"name":"ENI TORRE CANNE","brand":"Agip Eni","address":"Statale 379 Egnazia e delle Terme di Torre Canne, Km. 9,250, dir. BRINDISI - 72015, FASANO, BR","prices":[{"type":"petrol","price":1.879,"self":true,"updatedAt":"22/06/2026 10:26:38"},{"type":"diesel","price":1.989,"self":true,"updatedAt":"22/06/2026 10:26:38"},{"type":"lpg","price":0.759,"self":false,"updatedAt":"22/06/2026 10:26:38"}]},{"id":"37073","lat":40.833368999564506,"lon":17.358868601188647,"name":"enistation 19209 belfiore","brand":"Agip Eni","address":"VIA NAZIONALE DEI TRULLI 91/A 72015, FASANO, BR","prices":[{"type":"petrol","price":1.829,"self":true,"updatedAt":"24/06/2026 01:09:43"},{"type":"diesel","price":1.919,"self":true,"updatedAt":"24/06/2026 01:09:43"}]},{"id":"34566","lat":40.7844324106033,"lon":17.47600689080741,"name":"FASANO LOC.MONTALBANO S.S. 16 KM 869+482","brand":"Q8","address":"S.S. 16 KM 869+482  72016, FASANO, BR","prices":[{"type":"petrol","price":1.769,"self":true,"updatedAt":"19/06/2026 12:38:13"},{"type":"diesel","price":1.649,"self":true,"updatedAt":"19/06/2026 12:38:13"}]},{"id":"23698","lat":40.84322405858498,"lon":17.357414817790982,"name":"FASANO S.S.16 KM 857+380","brand":"Q8","address":"S.S.16 KM 857+380  72015, FASANO, BR","prices":[{"type":"petrol","price":1.829,"self":true,"updatedAt":"20/06/2026 01:41:29"},{"type":"diesel","price":1.919,"self":true,"updatedAt":"20/06/2026 01:41:29"}]},{"id":"12192","lat":40.82152845986678,"lon":17.412798315309487,"name":"GRIFOGAS","brand":"Pompe Bianche","address":"s.p.92 KM 1+300  72010, FASANO, BR","prices":[{"type":"petrol","price":1.859,"self":true,"updatedAt":"22/06/2026 12:10:21"},{"type":"diesel","price":1.929,"self":true,"updatedAt":"22/06/2026 12:10:21"},{"type":"lpg","price":0.719,"self":false,"updatedAt":"22/06/2026 12:10:21"}]},{"id":"53176","lat":40.8281,"lon":17.37776,"name":"PIEMME PETROLI S.A.S. di CACUCCI MICHELE & C.","brand":"Q8","address":"VIA ROMA EX S.S.16 KM 859+880  72015, FASANO, BR","prices":[{"type":"petrol","price":1.829,"self":true,"updatedAt":"23/06/2026 21:31:26"},{"type":"diesel","price":1.949,"self":true,"updatedAt":"23/06/2026 21:31:26"}]},{"id":"49506","lat":40.86337824565686,"lon":17.347459793090817,"name":"Q8","brand":"Q8","address":"16 bis Adriatica, Km. 854,962, nord - 72015, FASANO, BR","prices":[{"type":"petrol","price":1.839,"self":true,"updatedAt":"21/06/2026 18:48:33"},{"type":"diesel","price":1.949,"self":true,"updatedAt":"21/06/2026 18:48:33"}]},{"id":"38356","lat":40.8360723223827,"lon":17.36340880393982,"name":"Q8 ANGELINI VITO","brand":"Q8","address":"corso garibaldi 91 72015, FASANO, BR","prices":[{"type":"petrol","price":1.849,"self":true,"updatedAt":"23/06/2026 10:55:26"},{"type":"diesel","price":1.939,"self":true,"updatedAt":"23/06/2026 10:55:26"}]},{"id":"41557","lat":40.8440875,"lon":17.3571374,"name":"Stazione di servizio","brand":"Pompe Bianche","address":"Via Roma 239 72015, FASANO, BR","prices":[{"type":"petrol","price":1.829,"self":true,"updatedAt":"23/06/2026 19:52:39"},{"type":"diesel","price":1.939,"self":true,"updatedAt":"23/06/2026 19:52:39"}]},{"id":"49819","lat":40.81428407233775,"lon":17.40963803865766,"name":"STAZIONE DI SERVIZIO POTENZA COSIMO","brand":"Pompe Bianche","address":"CORSO NAZIONALE 18 72015, FASANO, BR","prices":[{"type":"petrol","price":1.799,"self":true,"updatedAt":"23/06/2026 06:50:10"},{"type":"diesel","price":1.863,"self":true,"updatedAt":"23/06/2026 06:50:10"}]},{"id":"61554","lat":40.9050891,"lon":17.2666396,"name":"REAL CARBURANTI","brand":"Pompe Bianche","address":"STRADA PROVINCIALE PER TORRE SAN GIOVANNI  SNC 73059, UGENTO, LE","prices":[{"type":"petrol","price":1.859,"self":true,"updatedAt":"23/06/2026 19:13:33"},{"type":"diesel","price":1.889,"self":true,"updatedAt":"23/06/2026 19:13:33"}]}]