[{"id":"56236","lat":41.0517504,"lon":15.794176,"name":"STAROIL VALLATA","brand":"Pompe Bianche","address":"VIA STRADA COMUNALE AREA P.I.P.  SNC 83059, VALLATA, AV","prices":[{"type":"petrol","price":1.799,"self":true,"updatedAt":"28/06/2026 00:48:01"},{"type":"diesel","price":1.879,"self":true,"updatedAt":"28/06/2026 00:48:01"}]},{"id":"62750","lat":41.19245,"lon":15.81177,"name":"OFANTO NORD","brand":"Sarni Oil","address":"Autostrada A16 NAPOLI-CANOSA, dir. NAPOLI, CERIGNOLA, FG","prices":[{"type":"diesel","price":1.899,"self":true,"updatedAt":"27/06/2026 11:05:59"}]},{"id":"62263","lat":41.19245,"lon":15.81177,"name":"OFANTO NORD","brand":"Sarni Oil","address":"Autostrada A16 NAPOLI-CANOSA, dir. NAPOLI, CERIGNOLA, FG","prices":[{"type":"petrol","price":1.899,"self":true,"updatedAt":"24/06/2026 14:15:46"},{"type":"diesel","price":1.999,"self":true,"updatedAt":"24/06/2026 14:15:46"}]},{"id":"62747","lat":41.191764714707496,"lon":15.81333875656128,"name":"OFANTO SUD","brand":"Sarni Oil","address":"A16 NAPOLI-CANOSA, Km. 153+100, EST - 71042, CERIGNOLA, FG","prices":[{"type":"diesel","price":1.889,"self":true,"updatedAt":"27/06/2026 11:04:43"}]},{"id":"35463","lat":41.191764714707496,"lon":15.81333875656128,"name":"OFANTO SUD","brand":"Sarni Oil","address":"A16 NAPOLI-CANOSA, Km. 153+100, EST - 71042, CERIGNOLA, FG","prices":[{"type":"petrol","price":1.799,"self":true,"updatedAt":"27/06/2026 10:30:18"},{"type":"diesel","price":1.899,"self":true,"updatedAt":"27/06/2026 10:30:19"},{"type":"lpg","price":0.869,"self":false,"updatedAt":"27/06/2026 10:30:22"}]},{"id":"34979","lat":41.04378892265961,"lon":15.785973519086838,"name":"ESSO LAVELLO","brand":"Esso","address":"VIA ROMA  135 85024, LAVELLO, PZ","prices":[{"type":"petrol","price":1.859,"self":true,"updatedAt":"27/06/2026 08:08:15"},{"type":"diesel","price":1.899,"self":true,"updatedAt":"27/06/2026 08:08:15"}]},{"id":"40543","lat":41.04759113718853,"lon":15.790844410657883,"name":"ITALIANA PETROLI LAVELLO","brand":"Api-Ip","address":"via Verdi s.n. 85024, LAVELLO, PZ","prices":[{"type":"petrol","price":1.889,"self":true,"updatedAt":"25/06/2026 15:39:41"},{"type":"diesel","price":1.989,"self":true,"updatedAt":"25/06/2026 15:39:41"}]},{"id":"60189","lat":41.04769,"lon":15.78915,"name":"LAVELLO","brand":"Pompe Bianche","address":"S.S. Bradanica -  SNC 85024, LAVELLO, PZ","prices":[{"type":"petrol","price":1.598,"self":true,"updatedAt":"27/06/2026 23:18:54"},{"type":"diesel","price":1.594,"self":true,"updatedAt":"27/06/2026 23:18:54"},{"type":"lpg","price":0.554,"self":false,"updatedAt":"27/06/2026 23:18:54"}]},{"id":"4830","lat":41.037481487525305,"lon":15.773084163665771,"name":"Metanauto Lavello snc","brand":"Edison metano","address":"Statale 93 Appulo-Lucana, Km. 56+100, dir. Potenza- Bari - 85024, LAVELLO, PZ","prices":[{"type":"methane","price":1.499,"self":false,"updatedAt":"27/06/2026 04:05:36"},{"type":"lpg","price":0.759,"self":false,"updatedAt":"27/06/2026 04:05:36"}]},{"id":"53462","lat":41.12081024856664,"lon":15.878334045410156,"name":"STAZIONE DI SERVIZIO 4STREET","brand":"Pompe Bianche","address":"S.S. 529 KM. 16+533 SN 85024, LAVELLO, PZ","prices":[{"type":"petrol","price":1.899,"self":true,"updatedAt":"28/06/2026 00:03:35"},{"type":"diesel","price":1.999,"self":true,"updatedAt":"28/06/2026 00:03:35"}]},{"id":"41532","lat":41.040204525253685,"lon":15.775958054978219,"name":"TOIL","brand":"Pompe Bianche","address":"93 Appulo-Lucana, Km. 55+700, potenza - 85024, LAVELLO, PZ","prices":[{"type":"petrol","price":1.859,"self":true,"updatedAt":"24/06/2026 07:12:32"},{"type":"diesel","price":1.899,"self":true,"updatedAt":"24/06/2026 07:12:32"}]},{"id":"32553","lat":41.08623608276228,"lon":15.879489102644811,"name":"Di Noia Petroli","brand":"Pompe Bianche","address":"CONTRADA CORREGIA snc 85029, VENOSA, PZ","prices":[{"type":"petrol","price":2,"self":false,"updatedAt":"29/05/2026 18:15:05"},{"type":"diesel","price":2.08,"self":false,"updatedAt":"29/05/2026 18:15:05"}]},{"id":"60244","lat":41.0092867,"lon":15.8396589,"name":"VENOSA","brand":"Pompe Bianche","address":"SS655 snc 85029, VENOSA, PZ","prices":[{"type":"petrol","price":1.625,"self":true,"updatedAt":"27/06/2026 23:24:52"},{"type":"diesel","price":1.615,"self":true,"updatedAt":"27/06/2026 23:24:52"},{"type":"lpg","price":0.554,"self":false,"updatedAt":"27/06/2026 23:24:52"}]}]