[{"id":"28159","lat":41.18035619575715,"lon":13.962968587875366,"name":"Area 51","brand":"Pompe Bianche","address":"SP CASANOVA FALCIANO SNC 81030, CARINOLA, CE","prices":[{"type":"petrol","price":1.939,"self":true,"updatedAt":"19/06/2026 20:12:46"},{"type":"diesel","price":1.899,"self":true,"updatedAt":"19/06/2026 20:12:46"}]},{"id":"54011","lat":41.2109251,"lon":13.9956383,"name":"SHELL","brand":"Shell","address":"S.S. APPIA KM 178+920 SNC 81030, CARINOLA, CE","prices":[{"type":"petrol","price":1.799,"self":true,"updatedAt":"25/06/2026 12:16:45"},{"type":"diesel","price":1.879,"self":true,"updatedAt":"25/06/2026 12:16:45"},{"type":"lpg","price":0.779,"self":false,"updatedAt":"25/06/2026 12:16:45"}]},{"id":"32490","lat":41.02177874120934,"lon":13.96840978902435,"name":"CASTEL VOLTURNO SS 7/IV DOMITIANA KM 30+800","brand":"Q8","address":"SS 7/IV DOMITIANA KM 30+800  81030, CASTEL VOLTURNO, CE","prices":[{"type":"petrol","price":1.819,"self":true,"updatedAt":"24/06/2026 17:39:34"},{"type":"diesel","price":1.869,"self":true,"updatedAt":"24/06/2026 17:39:34"},{"type":"lpg","price":0.549,"self":false,"updatedAt":"11/07/2020 06:36:01"}]},{"id":"40798","lat":41.03612678086194,"lon":13.949664831161499,"name":"CIFAGAS SRL","brand":"Pompe Bianche","address":"VIA NUOVA 147 81030, CASTEL VOLTURNO, CE","prices":[{"type":"petrol","price":1.839,"self":false,"updatedAt":"25/06/2026 11:00:45"},{"type":"diesel","price":1.869,"self":false,"updatedAt":"25/06/2026 11:00:45"},{"type":"lpg","price":0.699,"self":false,"updatedAt":"25/06/2026 11:00:45"}]},{"id":"50094","lat":41.0136250394291,"lon":13.958294776562793,"name":"COPPOLA PETROLI SRL","brand":"Pompe Bianche","address":"via domitiana km 3.800  81030, CASTEL VOLTURNO, CE","prices":[{"type":"petrol","price":1.859,"self":true,"updatedAt":"21/06/2026 19:43:45"},{"type":"diesel","price":1.899,"self":true,"updatedAt":"21/06/2026 19:43:46"},{"type":"lpg","price":0.799,"self":true,"updatedAt":"21/06/2026 19:43:45"}]},{"id":"28754","lat":41.0143791486545,"lon":13.957344837820166,"name":"COPPOLA PETROLI SRL","brand":"Pompe Bianche","address":"7 quater Via Domitiana, Km. 30+968, dir.ROMA - 81030, CASTEL VOLTURNO, CE","prices":[{"type":"petrol","price":1.799,"self":true,"updatedAt":"21/06/2026 19:42:57"},{"type":"diesel","price":1.859,"self":true,"updatedAt":"21/06/2026 19:42:57"}]},{"id":"60184","lat":41.023493,"lon":13.949496,"name":"distributore Ip","brand":"Api-Ip","address":"Via Domiziana km 29700  81030, CASTEL VOLTURNO, CE","prices":[{"type":"petrol","price":1.839,"self":true,"updatedAt":"23/06/2026 19:03:09"},{"type":"diesel","price":1.879,"self":true,"updatedAt":"23/06/2026 19:03:09"}]},{"id":"51508","lat":41.025920266111505,"lon":13.947529792785645,"name":"ENILIVE S.p.A. 18412","brand":"Agip Eni","address":"VIA DOMITIANA  16 81030, CASTEL VOLTURNO, CE","prices":[{"type":"petrol","price":1.789,"self":true,"updatedAt":"25/06/2026 00:59:43"},{"type":"diesel","price":1.854,"self":true,"updatedAt":"25/06/2026 00:59:43"}]},{"id":"60361","lat":41.019827000123,"lon":13.974495000123,"name":"IP FICO S.A.S DI FICO PASQUALE & C.","brand":"Itala Petroli","address":"7 quater Via Domitiana, Km. 31+400 SNC 81037, CASTEL VOLTURNO, CE","prices":[{"type":"petrol","price":1.859,"self":true,"updatedAt":"19/06/2026 15:48:41"},{"type":"diesel","price":1.899,"self":true,"updatedAt":"19/06/2026 15:48:41"}]},{"id":"52865","lat":41.20288723785618,"lon":13.853216567982827,"name":"CV Carburanti","brand":"Pompe Bianche","address":"Piazza Aldo Moro 2 81030, CELLOLE, CE","prices":[{"type":"petrol","price":1.959,"self":true,"updatedAt":"12/06/2026 21:09:08"},{"type":"diesel","price":1.999,"self":true,"updatedAt":"12/06/2026 21:09:08"}]},{"id":"55498","lat":41.22694988507817,"lon":13.798270225524902,"name":"Gas Auto","brand":"GasAuto","address":"S.S. 7/IV - KM 2+650, CELLOLE, CE","prices":[{"type":"petrol","price":1.899,"self":true,"updatedAt":"22/06/2026 16:07:19"},{"type":"diesel","price":1.999,"self":true,"updatedAt":"22/06/2026 16:07:19"},{"type":"lpg","price":0.709,"self":false,"updatedAt":"22/06/2026 16:07:19"}]},{"id":"62482","lat":41.2208432,"lon":13.8775727,"name":"SA.PA","brand":"Pompe Bianche","address":"SS7 166  81030, CELLOLE, CE","prices":[{"type":"petrol","price":1.799,"self":true,"updatedAt":"22/06/2026 14:48:46"},{"type":"diesel","price":1.879,"self":true,"updatedAt":"22/06/2026 14:48:46"}]},{"id":"52953","lat":41.20220500305626,"lon":13.852500468492508,"name":"StarOil","brand":"Bianco Carburanti","address":"ALDO MORO 5 81030, CELLOLE, CE","prices":[{"type":"petrol","price":1.959,"self":true,"updatedAt":"20/06/2026 07:20:09"},{"type":"diesel","price":1.999,"self":true,"updatedAt":"20/06/2026 07:20:09"}]},{"id":"56888","lat":41.159793,"lon":13.945191,"name":"STAZIONE DI SERVIZIO ESSO FALCIANO DEL MASSICO","brand":"Esso","address":"ORAZIO 22 81030, FALCIANO DEL MASSICO, CE","prices":[{"type":"petrol","price":1.979,"self":false,"updatedAt":"25/06/2026 14:28:11"},{"type":"diesel","price":1.999,"self":false,"updatedAt":"25/06/2026 14:28:11"}]},{"id":"46062","lat":41.1205739,"lon":13.8726985,"name":"BAIA POWER","brand":"Pompe Bianche","address":"Viale Europa 8  81034, MONDRAGONE, CE","prices":[{"type":"petrol","price":1.799,"self":true,"updatedAt":"23/06/2026 19:49:44"},{"type":"diesel","price":1.899,"self":true,"updatedAt":"23/06/2026 19:49:44"},{"type":"lpg","price":0.699,"self":true,"updatedAt":"23/06/2026 19:49:44"}]},{"id":"5320","lat":41.11792238031171,"lon":13.87674629688263,"name":"DOMITIA SERVICE S.A.S.","brand":"Api-Ip","address":"VIA DOMITIANA 18 81034, MONDRAGONE, CE","prices":[{"type":"petrol","price":1.856,"self":true,"updatedAt":"25/06/2026 20:05:46"},{"type":"diesel","price":1.966,"self":true,"updatedAt":"25/06/2026 20:05:46"}]},{"id":"49380","lat":41.11572628754877,"lon":13.87941375374794,"name":"ENILIVE S.p.A. 08422","brand":"Agip Eni","address":"via Domiziana 233 81034, MONDRAGONE, CE","prices":[{"type":"petrol","price":1.829,"self":true,"updatedAt":"25/06/2026 00:58:50"},{"type":"diesel","price":1.909,"self":true,"updatedAt":"25/06/2026 00:58:50"}]},{"id":"55496","lat":41.0814255346692,"lon":13.914758563041687,"name":"Gas Auto","brand":"GasAuto","address":"strada comunale di bonifica  Mondragone -Castel Volturno snc 81034, MONDRAGONE, CE","prices":[{"type":"petrol","price":1.899,"self":true,"updatedAt":"22/06/2026 16:07:04"},{"type":"diesel","price":1.999,"self":true,"updatedAt":"22/06/2026 16:07:04"},{"type":"lpg","price":0.709,"self":false,"updatedAt":"22/06/2026 16:07:04"}]},{"id":"57178","lat":41.10776769826644,"lon":13.907610706599032,"name":"IP Mondragone","brand":"Api-Ip","address":"Via Castelvolturno snc 81034, MONDRAGONE, CE","prices":[{"type":"petrol","price":1.847,"self":true,"updatedAt":"25/06/2026 19:30:23"},{"type":"diesel","price":1.937,"self":true,"updatedAt":"25/06/2026 19:30:23"},{"type":"lpg","price":0.847,"self":false,"updatedAt":"23/06/2026 12:32:23"}]},{"id":"24124","lat":41.114609331259395,"lon":13.908452938622986,"name":"MONDRAGONE VIA CROCELLE","brand":"Q8","address":"VIA CROCELLE  81034, MONDRAGONE, CE","prices":[{"type":"petrol","price":1.829,"self":true,"updatedAt":"24/06/2026 16:37:20"},{"type":"diesel","price":1.919,"self":true,"updatedAt":"24/06/2026 16:37:20"}]},{"id":"28080","lat":41.11278021261192,"lon":13.88354608465579,"name":"SS.DOMIZIANA - MONDRAGONE","brand":"Q8","address":"SS.DOMIZIANA  81034, MONDRAGONE, CE","prices":[{"type":"petrol","price":1.829,"self":true,"updatedAt":"24/06/2026 16:37:19"},{"type":"diesel","price":1.919,"self":true,"updatedAt":"24/06/2026 16:37:19"}]},{"id":"60882","lat":41.107347,"lon":13.8917716,"name":"T.M.T S.A.S DI BARLETTA MICHELE","brand":"Q8","address":"VENEZIA 221/227 81034, MONDRAGONE, CE","prices":[{"type":"petrol","price":1.859,"self":true,"updatedAt":"19/06/2026 10:26:01"},{"type":"diesel","price":1.969,"self":true,"updatedAt":"19/06/2026 10:26:01"}]},{"id":"6021","lat":41.2277261385692,"lon":13.95338773727417,"name":"ALCAR SERVICE SRL","brand":"Agip Eni","address":"Statale 7 Via Appia, Km. 172+978, dir. SESSA AURUNCA - 81037, SESSA AURUNCA, CE","prices":[{"type":"petrol","price":1.829,"self":true,"updatedAt":"25/06/2026 00:26:42"},{"type":"diesel","price":1.919,"self":true,"updatedAt":"25/06/2026 00:26:42"},{"type":"lpg","price":0.772,"self":false,"updatedAt":"25/06/2026 00:26:42"}]},{"id":"14262","lat":41.24788008533364,"lon":13.850954174995422,"name":"CASALE PAOLO","brand":"Q8","address":"Via Arianuova San Castrese  81037, SESSA AURUNCA, CE","prices":[{"type":"petrol","price":1.899,"self":false,"updatedAt":"25/06/2026 11:58:15"},{"type":"diesel","price":1.959,"self":false,"updatedAt":"25/06/2026 11:58:15"}]},{"id":"61955","lat":41.2280221,"lon":13.9021055,"name":"CV CARBURANTI SESSA","brand":"Pompe Bianche","address":"Via Travata Snc 81037, SESSA AURUNCA, CE","prices":[{"type":"petrol","price":1.939,"self":false,"updatedAt":"12/06/2026 21:10:59"},{"type":"diesel","price":2.029,"self":false,"updatedAt":"12/06/2026 21:10:59"}]},{"id":"48546","lat":41.205920531415195,"lon":13.910317399388331,"name":"Distributore IP Pruto","brand":"Api-Ip","address":"Via Santuario (frazione Carano) 71 81037, SESSA AURUNCA, CE","prices":[{"type":"petrol","price":1.859,"self":true,"updatedAt":"25/06/2026 20:06:50"},{"type":"diesel","price":1.969,"self":true,"updatedAt":"25/06/2026 20:06:50"}]},{"id":"51371","lat":41.227083833850976,"lon":13.934688717126846,"name":"ESSO - SESSA AURUNCA","brand":"Esso","address":"VIA SESSA-MIGNANO RIONE S.AGATA  81037, SESSA AURUNCA, CE","prices":[{"type":"petrol","price":1.859,"self":true,"updatedAt":"23/06/2026 07:47:10"},{"type":"diesel","price":1.959,"self":true,"updatedAt":"23/06/2026 07:47:10"}]},{"id":"33728","lat":41.23914233496497,"lon":13.8294368237257,"name":"fulgorgas SESSA AURUNCA","brand":"FulgorOil","address":"S.S.APPIA KM. 161,350 SC 81037, SESSA AURUNCA, CE","prices":[{"type":"petrol","price":1.837,"self":true,"updatedAt":"25/06/2026 16:51:50"},{"type":"diesel","price":1.927,"self":true,"updatedAt":"25/06/2026 16:51:50"},{"type":"lpg","price":0.769,"self":false,"updatedAt":"25/06/2026 16:51:50"}]},{"id":"53056","lat":41.19251736725792,"lon":13.810735791921616,"name":"Ghepardoil","brand":"357","address":"VIA VIALE DEGLI OLEANDRI FRAZ. BAIA DOMIZIA SNC 81037, SESSA AURUNCA (CE)  81037, SESSA AURUNCA, CE","prices":[{"type":"petrol","price":1.894,"self":true,"updatedAt":"24/06/2026 09:51:21"},{"type":"diesel","price":1.991,"self":true,"updatedAt":"24/06/2026 09:51:21"}]},{"id":"59620","lat":41.22773,"lon":13.9335,"name":"SESSA MIGNANO TIBER","brand":"Q8","address":"PROV.14 SESSA MIGNANO SNC 81037, SESSA AURUNCA, CE","prices":[{"type":"petrol","price":1.859,"self":true,"updatedAt":"25/06/2026 00:47:08"},{"type":"diesel","price":1.959,"self":true,"updatedAt":"25/06/2026 00:47:08"}]},{"id":"59454","lat":41.16224703859561,"lon":13.854188093254152,"name":"STAR OIL","brand":"Pompe Bianche","address":"S.S. DOMITIANA KM 11+700 S.N.C 81037, SESSA AURUNCA, CE","prices":[{"type":"petrol","price":1.949,"self":true,"updatedAt":"22/06/2026 16:34:10"},{"type":"diesel","price":1.969,"self":true,"updatedAt":"22/06/2026 16:34:10"},{"type":"lpg","price":0.699,"self":false,"updatedAt":"22/06/2026 16:34:10"}]}]