[{"id":"25149","lat":41.02792099968763,"lon":14.618394296958968,"name":"ALL RENT CERVINARA","brand":"Pompe Bianche","address":"VIA VIA LAGNO SNC 83012, CERVINARA (AV) SNC 83012, CERVINARA, AV","prices":[{"type":"petrol","price":1.859,"self":false,"updatedAt":"17/06/2026 17:09:43"},{"type":"diesel","price":1.959,"self":false,"updatedAt":"17/06/2026 17:09:43"}]},{"id":"29362","lat":41.03976678365542,"lon":14.61267739534378,"name":"ALL RENT CERVINARA PIANO D'ARDINE","brand":"Pompe Bianche","address":"A SCORRIMENTO VELOCE SNC 83012, CERVINARA, AV","prices":[{"type":"petrol","price":1.859,"self":true,"updatedAt":"17/06/2026 17:10:05"},{"type":"diesel","price":1.959,"self":true,"updatedAt":"17/06/2026 17:10:05"}]},{"id":"52509","lat":41.02447357634383,"lon":14.6261748687172,"name":"Q8 CLEMENTE ESPOSITO","brand":"Q8","address":"VIA VARIANTE 67 83012, CERVINARA, AV","prices":[{"type":"petrol","price":1.839,"self":true,"updatedAt":"20/06/2026 19:19:55"},{"type":"diesel","price":1.939,"self":true,"updatedAt":"20/06/2026 19:19:55"}]},{"id":"58868","lat":41.0184780649995,"lon":14.618681914062499,"name":"SIRICO CARBURANTI DI SIRICO LUIGI","brand":"BIANCOPETROLI","address":"Via var SNC 83012, CERVINARA, AV","prices":[{"type":"petrol","price":1.812,"self":true,"updatedAt":"20/06/2026 09:17:39"},{"type":"diesel","price":1.899,"self":true,"updatedAt":"20/06/2026 09:17:39"}]},{"id":"10586","lat":41.04656953713232,"lon":14.701576766759898,"name":"All Rent Roccabascerana","brand":"Pompe Bianche","address":"VIA VIA PIANO CARACCIOLO SNC 83016, ROCCABASCERANA (AV) SNC 83016, ROCCABASCERANA, AV","prices":[{"type":"petrol","price":1.859,"self":true,"updatedAt":"17/06/2026 17:08:55"},{"type":"diesel","price":1.959,"self":true,"updatedAt":"17/06/2026 17:08:55"}]},{"id":"41679","lat":41.04859242869073,"lon":14.595430791378021,"name":"8316","brand":"Tamoil","address":"NAZIONALE S.S. 7 APPIA SNC 83017, ROTONDI, AV","prices":[{"type":"petrol","price":1.799,"self":true,"updatedAt":"20/06/2026 23:41:48"},{"type":"diesel","price":1.899,"self":true,"updatedAt":"20/06/2026 23:41:48"}]},{"id":"48039","lat":41.03187416316868,"lon":14.598253964452738,"name":"GOIL ROTONDI","brand":"Pompe Bianche","address":"G. MATTEOTTI 38 83017, ROTONDI, AV","prices":[{"type":"petrol","price":1.859,"self":true,"updatedAt":"17/06/2026 17:10:26"},{"type":"diesel","price":1.959,"self":true,"updatedAt":"17/06/2026 17:10:26"}]},{"id":"44089","lat":41.04468522916147,"lon":14.598029915344227,"name":"USAGAS","brand":"Pompe Bianche","address":"Contrada Limata Passaturo  83017, ROTONDI, AV","prices":[{"type":"petrol","price":1.899,"self":false,"updatedAt":"19/06/2026 07:09:53"},{"type":"diesel","price":1.949,"self":false,"updatedAt":"19/06/2026 07:09:53"},{"type":"lpg","price":0.659,"self":false,"updatedAt":"19/06/2026 07:09:53"}]},{"id":"58869","lat":41.025730682553686,"lon":14.663657194824218,"name":"C.P.","brand":"Bianco Carburanti","address":"VIA CESINOLA SNC 83018, SAN MARTINO VALLE CAUDINA, AV","prices":[{"type":"petrol","price":1.799,"self":true,"updatedAt":"20/06/2026 09:18:00"},{"type":"diesel","price":1.899,"self":true,"updatedAt":"20/06/2026 09:18:00"}]},{"id":"13143","lat":41.03900893843578,"lon":14.654232859611511,"name":"DISTRIBUTORI ECOS SRL SAN MARTINO V.C.","brand":"Pompe Bianche","address":"PROVINCIALE IRPINIA SNC 83018, SAN MARTINO VALLE CAUDINA, AV","prices":[{"type":"petrol","price":1.899,"self":true,"updatedAt":"19/06/2026 17:08:44"},{"type":"diesel","price":1.949,"self":true,"updatedAt":"19/06/2026 17:08:44"},{"type":"lpg","price":0.759,"self":false,"updatedAt":"19/06/2026 17:08:44"}]},{"id":"20536","lat":41.02801756804166,"lon":14.660952131213435,"name":"TAMOIL","brand":"Tamoil","address":"STARZE  83018, SAN MARTINO VALLE CAUDINA, AV","prices":[{"type":"petrol","price":1.899,"self":true,"updatedAt":"20/06/2026 20:29:31"},{"type":"diesel","price":1.948,"self":true,"updatedAt":"20/06/2026 20:29:31"}]},{"id":"11511","lat":41.04227687365986,"lon":14.568367813491818,"name":"AIROLA-S.S. 7 APPIA KM 236","brand":"Q8","address":"S.S. 7 APPIA KM 236 S/N 82011, AIROLA, BN","prices":[{"type":"petrol","price":1.839,"self":true,"updatedAt":"20/06/2026 08:16:49"},{"type":"diesel","price":1.909,"self":true,"updatedAt":"20/06/2026 08:16:49"}]},{"id":"8254","lat":41.06161593266424,"lon":14.572344422340393,"name":"Eco Fuel","brand":"Eco Fuel","address":"Via Lavatoio snc 82011, AIROLA, BN","prices":[{"type":"petrol","price":1.809,"self":true,"updatedAt":"17/06/2026 18:49:28"},{"type":"diesel","price":1.884,"self":true,"updatedAt":"17/06/2026 18:49:28"},{"type":"lpg","price":0.759,"self":false,"updatedAt":"17/06/2026 18:49:28"}]},{"id":"47206","lat":41.05311236281287,"lon":14.582591814919276,"name":"Oroil","brand":"Oroil","address":"SP84 221, AIROLA, BN","prices":[{"type":"petrol","price":1.799,"self":true,"updatedAt":"18/06/2026 12:35:36"},{"type":"diesel","price":1.899,"self":true,"updatedAt":"18/06/2026 12:35:36"},{"type":"lpg","price":0.759,"self":false,"updatedAt":"18/06/2026 12:35:37"}]},{"id":"25126","lat":41.049153145239416,"lon":14.55876499414444,"name":"PV 8329","brand":"Agip Eni","address":"VIA PROVINCIALE CAUDINA SNC, 82011, AIROLA, BN","prices":[{"type":"petrol","price":1.789,"self":true,"updatedAt":"21/06/2026 00:24:18"},{"type":"diesel","price":1.854,"self":true,"updatedAt":"21/06/2026 00:24:18"}]},{"id":"60683","lat":41.0912741,"lon":14.7202423,"name":"GOIL APOLLOSA","brand":"Pompe Bianche","address":"Via Cancellonica SNC 82030, APOLLOSA, BN","prices":[{"type":"petrol","price":1.959,"self":true,"updatedAt":"17/06/2026 17:08:35"},{"type":"diesel","price":1.999,"self":true,"updatedAt":"17/06/2026 17:08:35"}]},{"id":"42039","lat":41.03914812690844,"lon":14.555164128541946,"name":"IP","brand":"Api-Ip","address":"via Appia km 235,590  82011, ARPAIA, BN","prices":[{"type":"petrol","price":1.819,"self":true,"updatedAt":"19/06/2026 17:46:33"},{"type":"diesel","price":1.899,"self":true,"updatedAt":"19/06/2026 17:46:33"}]},{"id":"22986","lat":41.03283837055486,"lon":14.744761753303465,"name":"VIA PROVINCIALE ARPAISE","brand":"Giap","address":"VIA PROVINCIALE  82010, ARPAISE, BN","prices":[{"type":"petrol","price":1.919,"self":true,"updatedAt":"20/06/2026 05:57:47"},{"type":"diesel","price":2.099,"self":true,"updatedAt":"20/06/2026 05:57:47"}]},{"id":"59602","lat":41.1871,"lon":14.746892,"name":"8379 Benevento","brand":"Agip Eni","address":"C/DA OLIVOLA S.S. 88 KM 74+173 DX   SNC, BENEVENTO, BN","prices":[{"type":"petrol","price":1.824,"self":true,"updatedAt":"21/06/2026 00:50:31"},{"type":"diesel","price":1.919,"self":true,"updatedAt":"21/06/2026 00:50:31"}]},{"id":"60201","lat":41.0620224,"lon":14.6358764,"name":"BENEVENTO - VIA NAPOLI","brand":"Pompe Bianche","address":"Via Napoli SNC 82100, BENEVENTO, BN","prices":[{"type":"petrol","price":1.758,"self":true,"updatedAt":"20/06/2026 11:46:11"},{"type":"diesel","price":1.858,"self":true,"updatedAt":"20/06/2026 11:46:11"}]},{"id":"25276","lat":41.10606189301063,"lon":14.74581066322935,"name":"BENEVENTO CONTRADA EPITAFFIO 72 IMP.Q8","brand":"Q8","address":"CONTRADA EPITAFFIO 72 82100, BENEVENTO, BN","prices":[{"type":"petrol","price":1.809,"self":true,"updatedAt":"17/06/2026 01:40:00"},{"type":"diesel","price":1.899,"self":true,"updatedAt":"17/06/2026 18:04:31"}]},{"id":"42865","lat":41.167564595877145,"lon":14.739884820770612,"name":"MARE ANGELO","brand":"Pompe Bianche","address":"MASSERIA NUOVA  ZONA IND. 1 82100, BENEVENTO, BN","prices":[{"type":"petrol","price":1.81,"self":true,"updatedAt":"19/06/2026 10:37:42"},{"type":"diesel","price":1.86,"self":true,"updatedAt":"19/06/2026 10:37:42"}]},{"id":"57208","lat":41.06812526390653,"lon":14.601532006067636,"name":"Goil Bonea","brand":"Pompe Bianche","address":"FIZZO 52 82013, BONEA, BN","prices":[{"type":"petrol","price":1.899,"self":true,"updatedAt":"17/06/2026 17:10:49"},{"type":"diesel","price":1.999,"self":true,"updatedAt":"17/06/2026 17:10:49"}]},{"id":"23544","lat":41.07716239930835,"lon":14.560584412164323,"name":"Oroil","brand":"Oroil","address":"SS 265var/c, BUCCIANO, BN","prices":[{"type":"petrol","price":1.799,"self":true,"updatedAt":"18/06/2026 13:26:58"},{"type":"diesel","price":1.899,"self":true,"updatedAt":"18/06/2026 13:26:58"},{"type":"methane","price":1.699,"self":false,"updatedAt":"18/06/2026 13:26:58"},{"type":"lpg","price":0.759,"self":false,"updatedAt":"18/06/2026 13:26:58"}]},{"id":"23543","lat":41.07781353380056,"lon":14.566075977523813,"name":"OROIL","brand":"Oroil","address":"SP19 64 82010, BUCCIANO, BN","prices":[{"type":"petrol","price":1.799,"self":true,"updatedAt":"18/06/2026 13:28:59"},{"type":"diesel","price":1.899,"self":true,"updatedAt":"18/06/2026 14:11:35"}]},{"id":"43369","lat":41.12785524428932,"lon":14.64588714847946,"name":"CARBURANTI FRANCESCA","brand":"Pompe Bianche","address":"VIA PRVINCIALE VITULANESE SNC 82030, CAMPOLI DEL MONTE TABURNO, BN","prices":[{"type":"petrol","price":1.906,"self":true,"updatedAt":"15/06/2026 06:22:20"},{"type":"diesel","price":1.969,"self":true,"updatedAt":"15/06/2026 06:22:20"}]},{"id":"10663","lat":41.13400590760819,"lon":14.645217973051103,"name":"Fuel Campoli","brand":"Pompe Bianche","address":"VIA VIA NINO BIXIO 54 82030, CAMPOLI DEL MONTE TABURNO (BN) 54 82030, CAMPOLI DEL MONTE TABURNO, BN","prices":[{"type":"petrol","price":1.859,"self":false,"updatedAt":"17/06/2026 17:08:12"},{"type":"diesel","price":1.959,"self":false,"updatedAt":"17/06/2026 17:08:12"}]},{"id":"56385","lat":41.23640228273422,"lon":14.533613920211792,"name":"Rainbow_Castelvenere","brand":"357","address":"Via S. Tommaso  82037, CASTELVENERE, BN","prices":[{"type":"petrol","price":1.935,"self":true,"updatedAt":"18/06/2026 09:22:35"},{"type":"diesel","price":1.985,"self":true,"updatedAt":"18/06/2026 09:22:35"}]},{"id":"14859","lat":41.153755112182765,"lon":14.651790708303452,"name":"ESSO","brand":"Esso","address":"VIA S.GIOVANNI  82030, CAUTANO, BN","prices":[{"type":"petrol","price":1.848,"self":true,"updatedAt":"18/06/2026 11:15:35"},{"type":"diesel","price":1.968,"self":true,"updatedAt":"18/06/2026 11:15:35"},{"type":"lpg","price":0.819,"self":false,"updatedAt":"18/06/2026 11:15:35"}]},{"id":"6721","lat":41.071574192512514,"lon":14.71189024047544,"name":"CEPPALONI - SAN GIOVANN APPIA S.S. 7 KM. 251","brand":"Q8","address":"APPIA S.S. 7 KM. 251 - SAN GIOVANNI SNC 82010, CEPPALONI, BN","prices":[{"type":"petrol","price":1.809,"self":true,"updatedAt":"17/06/2026 01:39:59"},{"type":"diesel","price":1.899,"self":true,"updatedAt":"17/06/2026 18:04:31"}]},{"id":"11139","lat":41.043801060287954,"lon":14.742077887058258,"name":"Q8 IMPIANTO N°8253","brand":"Q8","address":"via provinciale snc, 82014, CEPPALONI, BN","prices":[{"type":"petrol","price":1.979,"self":true,"updatedAt":"20/06/2026 06:54:11"},{"type":"diesel","price":2.049,"self":true,"updatedAt":"20/06/2026 06:54:11"}]},{"id":"29186","lat":41.06709678857966,"lon":14.712586998939514,"name":"SS APPIA CEPPALONI","brand":"Agip Eni","address":"S.S. APPIA KM 251,966-TUFARA VALLE  82010, CEPPALONI, BN","prices":[{"type":"petrol","price":1.808,"self":true,"updatedAt":"20/06/2026 05:57:46"},{"type":"diesel","price":1.898,"self":true,"updatedAt":"20/06/2026 05:57:46"},{"type":"lpg","price":0.729,"self":false,"updatedAt":"20/06/2026 05:57:46"}]},{"id":"55236","lat":41.1512287,"lon":14.6758156,"name":"FINERGY","brand":"Pompe Bianche","address":"PROVINCIALE VITULANESE KM 5+560 82030, FOGLIANISE, BN","prices":[{"type":"petrol","price":1.828,"self":true,"updatedAt":"18/06/2026 11:16:52"},{"type":"diesel","price":1.948,"self":true,"updatedAt":"18/06/2026 11:16:52"},{"type":"methane","price":1.598,"self":false,"updatedAt":"18/06/2026 11:16:52"}]},{"id":"61599","lat":41.16513,"lon":14.66772,"name":"V.B. CARBURANTI","brand":"Beneco","address":"SILVIO PEDICINI SNC 82030, FOGLIANISE, BN","prices":[{"type":"petrol","price":1.839,"self":true,"updatedAt":"18/06/2026 09:43:07"},{"type":"diesel","price":1.959,"self":true,"updatedAt":"18/06/2026 09:43:07"}]},{"id":"60658","lat":41.085187,"lon":14.5405643,"name":"GoilMoiano","brand":"Pompe Bianche","address":"PROV MOIANO - SANT'AGATA SNC 82010, MOIANO, BN","prices":[{"type":"petrol","price":1.859,"self":true,"updatedAt":"17/06/2026 11:50:16"},{"type":"diesel","price":1.959,"self":true,"updatedAt":"17/06/2026 11:50:16"}]},{"id":"59526","lat":41.05414905137614,"lon":14.63425390831452,"name":"Impianto Montesarchio","brand":"Sarni Oil","address":"Via Annunziata Vecchia snc 82016, MONTESARCHIO, BN","prices":[{"type":"petrol","price":1.849,"self":true,"updatedAt":"17/06/2026 11:49:00"},{"type":"diesel","price":1.959,"self":true,"updatedAt":"17/06/2026 11:49:00"},{"type":"methane","price":1.598,"self":false,"updatedAt":"17/06/2026 11:49:00"},{"type":"lpg","price":0.749,"self":false,"updatedAt":"17/06/2026 11:49:00"}]},{"id":"6719","lat":41.06120234008578,"lon":14.64345507323742,"name":"MONTESARCHIO VIA APPIA","brand":"Q8","address":"VIA APPIA SNC 82016, MONTESARCHIO, BN","prices":[{"type":"petrol","price":1.789,"self":true,"updatedAt":"20/06/2026 01:41:11"},{"type":"diesel","price":1.889,"self":true,"updatedAt":"20/06/2026 01:41:11"}]},{"id":"50737","lat":41.05590598789787,"lon":14.655710757021403,"name":"Oroil","brand":"Oroil","address":"VIA BENEVENTO 129 82016, MONTESARCHIO, BN","prices":[{"type":"petrol","price":1.799,"self":true,"updatedAt":"17/06/2026 12:34:42"},{"type":"diesel","price":1.899,"self":true,"updatedAt":"17/06/2026 12:34:42"},{"type":"lpg","price":0.759,"self":false,"updatedAt":"17/06/2026 12:34:42"}]},{"id":"58692","lat":41.0515872,"lon":14.6532941,"name":"pv 8378","brand":"Agip Eni","address":"F.  CARACCIOLO SNC 82016, MONTESARCHIO, BN","prices":[{"type":"petrol","price":1.789,"self":true,"updatedAt":"21/06/2026 00:24:49"},{"type":"diesel","price":1.864,"self":true,"updatedAt":"21/06/2026 00:24:49"}]},{"id":"62224","lat":41.0421197,"lon":14.5703883,"name":"IP METANO GPL","brand":"Api-Ip","address":"APPIA 69 82011, PAOLISI, BN","prices":[{"type":"petrol","price":1.819,"self":true,"updatedAt":"20/06/2026 11:34:30"},{"type":"diesel","price":1.899,"self":true,"updatedAt":"20/06/2026 11:34:30"},{"type":"methane","price":1.499,"self":true,"updatedAt":"20/06/2026 11:34:30"},{"type":"lpg","price":0.789,"self":true,"updatedAt":"20/06/2026 11:34:30"}]},{"id":"57515","lat":41.21145860245865,"lon":14.643604143499752,"name":"IES","brand":"Ies","address":"STATALE 372, KM 51+ 515 S.C. 82030, PAUPISI, BN","prices":[{"type":"petrol","price":1.878,"self":true,"updatedAt":"20/06/2026 13:25:28"},{"type":"diesel","price":1.958,"self":true,"updatedAt":"20/06/2026 13:25:28"},{"type":"methane","price":1.499,"self":false,"updatedAt":"20/06/2026 13:25:28"}]},{"id":"42883","lat":41.210574964384264,"lon":14.65294768220906,"name":"TAMOIL","brand":"Tamoil","address":"SS 372 TELESINA KM 52+380 S.N.C. 82030, PAUPISI, BN","prices":[{"type":"petrol","price":1.878,"self":true,"updatedAt":"20/06/2026 20:30:29"},{"type":"diesel","price":1.958,"self":true,"updatedAt":"20/06/2026 20:30:29"}]},{"id":"57385","lat":41.2144941,"lon":14.6995216,"name":"PV7681","brand":"Q8","address":"Via G. Ocone 28, PONTE, BN","prices":[{"type":"petrol","price":1.889,"self":true,"updatedAt":"16/06/2026 14:00:33"},{"type":"diesel","price":1.999,"self":true,"updatedAt":"16/06/2026 14:00:33"}]},{"id":"53556","lat":41.0856629217668,"lon":14.503460320773307,"name":"Stazione di Servizio Q8 di Icolari Vincenzo","brand":"Q8","address":"Via Caudina  82019, SANT'AGATA DE' GOTI, BN","prices":[{"type":"petrol","price":1.879,"self":true,"updatedAt":"18/06/2026 08:13:16"},{"type":"diesel","price":1.979,"self":true,"updatedAt":"18/06/2026 08:13:16"}]},{"id":"51770","lat":41.20833075760506,"lon":14.5637646317482,"name":"Q8","brand":"Q8","address":"VIA SS 372 TELESINA KM.44+319 SNC 82036, SOLOPACA (BN)  82036, SOLOPACA, BN","prices":[{"type":"petrol","price":1.879,"self":true,"updatedAt":"20/06/2026 06:43:42"},{"type":"diesel","price":1.959,"self":true,"updatedAt":"20/06/2026 06:43:42"},{"type":"lpg","price":0.739,"self":true,"updatedAt":"20/06/2026 06:43:42"}]},{"id":"28105","lat":41.19743070000001,"lon":14.5593088,"name":"Tamoil Di Salvatore Alex","brand":"Tamoil","address":"Corso Cusani 294 82036, SOLOPACA, BN","prices":[{"type":"petrol","price":1.889,"self":true,"updatedAt":"20/06/2026 23:12:25"},{"type":"diesel","price":1.969,"self":true,"updatedAt":"20/06/2026 23:12:25"}]},{"id":"59789","lat":41.218277,"lon":14.533611,"name":"54586  TELESE TERME","brand":"Agip Eni","address":"SS 87  VIA ROMA  SNC 12, TELESE TERME, BN","prices":[{"type":"petrol","price":1.824,"self":true,"updatedAt":"21/06/2026 00:25:20"},{"type":"diesel","price":1.919,"self":true,"updatedAt":"21/06/2026 00:25:20"}]},{"id":"58479","lat":41.21646,"lon":14.5196,"name":"8336  TELESE TERME","brand":"Agip Eni","address":"SS 87 KM 66  SNC, TELESE TERME, BN","prices":[{"type":"petrol","price":1.824,"self":true,"updatedAt":"21/06/2026 00:43:30"},{"type":"diesel","price":1.919,"self":true,"updatedAt":"21/06/2026 00:43:30"}]},{"id":"13114","lat":41.20687867714638,"lon":14.503986239433289,"name":"DISTRIBUTORI ECOS SRL TELESE TERME","brand":"Q8","address":"S. GIOVANNI LOC.PIANA - 82037, TELESE TERME, BN","prices":[{"type":"petrol","price":1.929,"self":true,"updatedAt":"19/06/2026 17:08:30"},{"type":"diesel","price":1.979,"self":true,"updatedAt":"19/06/2026 17:08:30"},{"type":"lpg","price":0.799,"self":false,"updatedAt":"19/06/2026 17:08:30"}]},{"id":"40805","lat":41.20857330604402,"lon":14.506815969944,"name":"futur car fuel","brand":"Pompe Bianche","address":"via vallo rotondo snc 82037, TELESE TERME, BN","prices":[{"type":"petrol","price":1.939,"self":true,"updatedAt":"20/06/2026 09:48:55"},{"type":"diesel","price":1.989,"self":true,"updatedAt":"20/06/2026 09:48:55"},{"type":"lpg","price":0.809,"self":false,"updatedAt":"20/06/2026 09:48:55"}]},{"id":"50103","lat":41.18845114981566,"lon":14.679728426770964,"name":"MCF SRL","brand":"Api-Ip","address":"PIAZZA MATTEOTTI snc 82030, TORRECUSO, BN","prices":[{"type":"petrol","price":1.899,"self":true,"updatedAt":"20/06/2026 09:35:05"},{"type":"diesel","price":1.999,"self":true,"updatedAt":"20/06/2026 09:35:05"}]},{"id":"60203","lat":41.18582,"lon":14.68126,"name":"TORRECUSO","brand":"Pompe Bianche","address":"SS87  82030, TORRECUSO, BN","prices":[{"type":"petrol","price":1.847,"self":true,"updatedAt":"21/06/2026 00:13:01"},{"type":"diesel","price":1.925,"self":true,"updatedAt":"21/06/2026 00:13:01"}]},{"id":"52886","lat":41.168586,"lon":14.655612,"name":"Stazione di Servizio IP  Vitulano","brand":"Api-Ip","address":"SP2 snc 82038, VITULANO, BN","prices":[{"type":"petrol","price":1.849,"self":true,"updatedAt":"19/06/2026 16:36:52"},{"type":"diesel","price":1.949,"self":true,"updatedAt":"19/06/2026 16:36:52"}]}]