[{"id":"58582","lat":41.018394,"lon":16.70962,"name":"9003 BINETTO","brand":"Agip Eni","address":"VIA GRUMO(EX SS.96 KM.107+069), BINETTO, BA","prices":[{"type":"petrol","price":1.829,"self":true,"updatedAt":"24/06/2026 00:56:08"},{"type":"diesel","price":1.909,"self":true,"updatedAt":"24/06/2026 08:11:43"}]},{"id":"16914","lat":41.0282935912153,"lon":16.718142861245724,"name":"IP Binetto","brand":"Api-Ip","address":"STRADA PROVINCIALE N.13 TRATTO BINETTO-BITETTO KM.5+981   70020, BINETTO, BA","prices":[{"type":"petrol","price":1.819,"self":true,"updatedAt":"24/06/2026 12:08:04"},{"type":"diesel","price":1.929,"self":true,"updatedAt":"24/06/2026 12:08:04"}]},{"id":"32975","lat":41.03345208403568,"lon":16.74483373761177,"name":"Bitetto","brand":"Api-Ip","address":"S.P. 206 KM 4  70020, BITETTO, BA","prices":[{"type":"petrol","price":1.812,"self":true,"updatedAt":"24/06/2026 11:03:42"},{"type":"diesel","price":1.922,"self":true,"updatedAt":"24/06/2026 11:03:42"},{"type":"lpg","price":0.787,"self":false,"updatedAt":"24/06/2026 09:15:36"}]},{"id":"10134","lat":41.103455063193536,"lon":16.68095827102661,"name":"Bitonto","brand":"Api-Ip","address":"STRADA STATALE   70032, BITONTO, BA","prices":[{"type":"petrol","price":1.799,"self":true,"updatedAt":"24/06/2026 11:07:36"},{"type":"diesel","price":1.889,"self":true,"updatedAt":"24/06/2026 11:07:36"}]},{"id":"29918","lat":41.11148383311335,"lon":16.7029724196434,"name":"BITONTO - ANNUNZIATA","brand":"Api-Ip","address":"VIA DELL'ANNUNZIATA SNC 70032, BITONTO, BA","prices":[{"type":"petrol","price":1.799,"self":true,"updatedAt":"24/06/2026 13:00:59"},{"type":"diesel","price":1.889,"self":true,"updatedAt":"24/06/2026 13:00:59"}]},{"id":"35232","lat":41.09528382912479,"lon":16.69663947486879,"name":"BITONTO - S.P.119","brand":"Api-Ip","address":"S.P. 119 VIA PALO  70032, BITONTO, BA","prices":[{"type":"petrol","price":1.799,"self":true,"updatedAt":"24/06/2026 11:02:25"},{"type":"diesel","price":1.889,"self":true,"updatedAt":"24/06/2026 11:02:25"}]},{"id":"12301","lat":41.13386119236642,"lon":16.69662114260143,"name":"CAMER BITONTO","brand":"Camer","address":"SP.NR.218 POLIGONALE IMP.MET. SN 70032, BITONTO, BA","prices":[{"type":"petrol","price":1.802,"self":true,"updatedAt":"23/06/2026 18:25:37"},{"type":"diesel","price":1.888,"self":true,"updatedAt":"23/06/2026 18:25:37"},{"type":"methane","price":1.55,"self":false,"updatedAt":"23/06/2026 18:25:37"}]},{"id":"54085","lat":41.10149,"lon":16.70272,"name":"DI 30","brand":"Dill s","address":"Via Modugno S.P. 231 SNC 70032, BITONTO, BA","prices":[{"type":"petrol","price":1.809,"self":true,"updatedAt":"25/06/2026 00:32:28"},{"type":"diesel","price":1.889,"self":true,"updatedAt":"25/06/2026 00:32:28"}]},{"id":"40042","lat":41.12005252895122,"lon":16.68875277042389,"name":"ENI","brand":"Agip Eni","address":"88 PER GIOVINAZZO KM 0+700 70032, BITONTO, BA","prices":[{"type":"petrol","price":1.859,"self":true,"updatedAt":"24/06/2026 23:53:44"},{"type":"diesel","price":1.949,"self":true,"updatedAt":"24/06/2026 23:53:44"},{"type":"lpg","price":0.799,"self":false,"updatedAt":"24/06/2026 23:53:44"}]},{"id":"52279","lat":41.11404939089479,"lon":16.62500737607479,"name":"IP  41","brand":"Api-Ip","address":"S.P. 231    KM. 13+400  70032, BITONTO, BA","prices":[{"type":"petrol","price":1.809,"self":true,"updatedAt":"25/06/2026 00:10:52"},{"type":"diesel","price":1.889,"self":true,"updatedAt":"25/06/2026 00:10:52"}]},{"id":"51730","lat":41.1039472,"lon":16.693374,"name":"IP - ITALIANA PETROLI","brand":"Api-Ip","address":"Piazzale Ferdinando II di Borbone  70032, BITONTO, BA","prices":[{"type":"petrol","price":1.879,"self":true,"updatedAt":"24/06/2026 01:57:30"},{"type":"diesel","price":1.959,"self":true,"updatedAt":"24/06/2026 01:57:30"}]},{"id":"52291","lat":41.136284819542766,"lon":16.727762222290036,"name":"IP 32","brand":"Api-Ip","address":"S.P. 91 KM. 2+750  70032, BITONTO, BA","prices":[{"type":"petrol","price":1.809,"self":true,"updatedAt":"25/06/2026 00:21:49"},{"type":"diesel","price":1.889,"self":true,"updatedAt":"25/06/2026 00:21:48"},{"type":"methane","price":1.55,"self":false,"updatedAt":"25/06/2026 00:21:49"},{"type":"lpg","price":0.777,"self":false,"updatedAt":"25/06/2026 00:21:49"}]},{"id":"22745","lat":41.0466772177892,"lon":16.559596359729767,"name":"Q8  di Michele Piscopo","brand":"Q8","address":"VIA LE MATTINE 26 70032, BITONTO, BA","prices":[{"type":"petrol","price":1.829,"self":true,"updatedAt":"22/06/2026 18:07:20"},{"type":"diesel","price":1.919,"self":true,"updatedAt":"22/06/2026 18:07:20"}]},{"id":"18909","lat":41.11702162075826,"lon":16.70142626123811,"name":"SELF AREA AGIP DI LAVACCA EUGENIA","brand":"Agip Eni","address":"GIOVANNI XXIII 94 70032, BITONTO, BA","prices":[{"type":"petrol","price":1.824,"self":true,"updatedAt":"25/06/2026 00:29:25"},{"type":"diesel","price":1.904,"self":true,"updatedAt":"25/06/2026 00:29:25"}]},{"id":"55420","lat":41.13134871619583,"lon":16.692352294921875,"name":"STAZIONE DI SERVIZIO GIORDANO FRANCESCO","brand":"Itala Petroli","address":"GIUSEPPE LAZZATI SN 70032, BITONTO, BA","prices":[{"type":"petrol","price":1.839,"self":true,"updatedAt":"22/06/2026 14:50:10"},{"type":"diesel","price":1.949,"self":true,"updatedAt":"22/06/2026 14:50:10"}]},{"id":"16707","lat":41.115876280222096,"lon":16.685894922615034,"name":"Viavaicenter","brand":"Dill s","address":"GIUSEPPE LAZZATI 14 70032, BITONTO, BA","prices":[{"type":"petrol","price":1.839,"self":true,"updatedAt":"22/06/2026 13:25:50"},{"type":"diesel","price":1.949,"self":true,"updatedAt":"22/06/2026 13:25:50"}]},{"id":"52418","lat":41.16766113066133,"lon":16.704398095607758,"name":"54496 – Giovinazzo Nord","brand":"Agip Eni","address":"S.S. 16 BIS KM. 787 + 230  70054, GIOVINAZZO, BA","prices":[{"type":"petrol","price":1.829,"self":true,"updatedAt":"25/06/2026 01:19:59"},{"type":"diesel","price":1.909,"self":true,"updatedAt":"25/06/2026 01:19:59"},{"type":"methane","price":1.564,"self":false,"updatedAt":"24/06/2026 23:54:36"},{"type":"lpg","price":0.737,"self":false,"updatedAt":"24/06/2026 23:54:36"}]},{"id":"52419","lat":41.16735,"lon":16.703346,"name":"54501 – Giovinazzo Sud","brand":"Agip Eni","address":"S.S. 16 BIS KM. 787 + 220  70054, GIOVINAZZO, BA","prices":[{"type":"petrol","price":1.829,"self":true,"updatedAt":"24/06/2026 23:54:45"},{"type":"diesel","price":1.909,"self":true,"updatedAt":"24/06/2026 08:04:02"},{"type":"methane","price":1.564,"self":false,"updatedAt":"24/06/2026 23:54:45"},{"type":"lpg","price":0.737,"self":false,"updatedAt":"24/06/2026 23:54:45"}]},{"id":"31858","lat":41.161907162574096,"lon":16.718769371509552,"name":"GIOVINAZZO - S.S. 16 BIS AL KM. 788+654","brand":"Q8","address":"S.S. 16 BIS AL KM. 788+654  70054, GIOVINAZZO, BA","prices":[{"type":"petrol","price":1.819,"self":true,"updatedAt":"22/06/2026 16:04:07"},{"type":"diesel","price":1.899,"self":true,"updatedAt":"22/06/2026 16:04:07"}]},{"id":"38369","lat":41.18856347312423,"lon":16.662947237491608,"name":"MENGA PETROLI","brand":"Menga petroli","address":"Statale 16 Adriatica, Km. 782+400, dir. MOLFETTA - 70054, GIOVINAZZO, BA","prices":[{"type":"petrol","price":1.829,"self":true,"updatedAt":"24/06/2026 11:37:32"},{"type":"diesel","price":1.909,"self":true,"updatedAt":"24/06/2026 11:37:32"}]},{"id":"30746","lat":41.17334938123169,"lon":16.684502810239792,"name":"ROXIENNE SRL","brand":"Q8","address":"Statale 16 bis Adriatica, Km. 785+450, dir. BARI  70054, GIOVINAZZO, BA","prices":[{"type":"petrol","price":1.829,"self":true,"updatedAt":"22/06/2026 09:30:04"},{"type":"diesel","price":1.929,"self":true,"updatedAt":"22/06/2026 09:30:04"},{"type":"methane","price":1.629,"self":false,"updatedAt":"22/06/2026 09:30:04"}]},{"id":"37029","lat":41.18427505778105,"lon":16.67658694088459,"name":"Stazione di Servizio Q8 di Nicola Gisondi","brand":"Q8","address":"VIA BARI, 83/B - SS 16 KM 783+733  70054, GIOVINAZZO, BA","prices":[{"type":"petrol","price":1.839,"self":true,"updatedAt":"24/06/2026 12:25:02"},{"type":"diesel","price":1.949,"self":true,"updatedAt":"24/06/2026 12:25:02"}]},{"id":"49818","lat":41.15958331797142,"lon":16.678486423278805,"name":"VROM S.R.L.","brand":"Api-Ip","address":"S.P. 88 GIOVINAZZO - BITONTO KM.4+300 SN 70054, GIOVINAZZO, BA","prices":[{"type":"petrol","price":1.829,"self":true,"updatedAt":"23/06/2026 09:26:48"},{"type":"diesel","price":1.939,"self":true,"updatedAt":"23/06/2026 09:26:48"}]},{"id":"58316","lat":41.004316222640185,"lon":16.71359810697021,"name":"B Energy Group","brand":"B+","address":"CASSANO SNC 70025, GRUMO APPULA, BA","prices":[{"type":"petrol","price":1.819,"self":true,"updatedAt":"24/06/2026 16:31:57"},{"type":"diesel","price":1.899,"self":true,"updatedAt":"24/06/2026 16:31:57"}]},{"id":"59539","lat":41.01381,"lon":16.69924,"name":"IP","brand":"Api-Ip","address":"PROVINCIALE 228 KM. 1 SN 70025, GRUMO APPULA, BA","prices":[{"type":"petrol","price":1.829,"self":true,"updatedAt":"24/06/2026 09:10:14"},{"type":"diesel","price":1.929,"self":true,"updatedAt":"24/06/2026 09:10:15"}]},{"id":"17127","lat":41.19302942434383,"lon":16.59158706665039,"name":"AGIP","brand":"Agip Eni","address":"SP MOLFETTA TERLIZZI KM 0.86  70056, MOLFETTA, BA","prices":[{"type":"petrol","price":1.824,"self":true,"updatedAt":"24/06/2026 00:47:58"},{"type":"diesel","price":1.914,"self":true,"updatedAt":"24/06/2026 00:47:58"}]},{"id":"52351","lat":41.16419314752486,"lon":16.567593766158225,"name":"DI 27","brand":"Esso","address":"S.P. 112 KM. 2+760  70056, MOLFETTA, BA","prices":[{"type":"petrol","price":1.819,"self":true,"updatedAt":"25/06/2026 00:15:13"},{"type":"diesel","price":1.899,"self":true,"updatedAt":"25/06/2026 00:15:13"}]},{"id":"46371","lat":41.199218901172706,"lon":16.610691864296317,"name":"ENI ALDO CHIECO","brand":"Agip Eni","address":"16 Adriatica, Km. 777+ 885, via giovinazzo  70056, MOLFETTA, BA","prices":[{"type":"petrol","price":1.824,"self":true,"updatedAt":"24/06/2026 01:07:23"},{"type":"diesel","price":1.914,"self":true,"updatedAt":"24/06/2026 01:07:23"}]},{"id":"23669","lat":41.20577869864454,"lon":16.58748798072338,"name":"ESSO","brand":"Esso","address":"VIA MADONNA DEI MARTIRI  70056, MOLFETTA, BA","prices":[{"type":"petrol","price":1.819,"self":true,"updatedAt":"24/06/2026 08:01:37"},{"type":"diesel","price":1.899,"self":true,"updatedAt":"24/06/2026 08:01:37"}]},{"id":"40736","lat":41.18217552008881,"lon":16.582828061901864,"name":"lanza giammaria","brand":"Metanauto Group","address":"VIA TERLIZZI KM 1.00 70056, MOLFETTA, BA","prices":[{"type":"methane","price":1.659,"self":false,"updatedAt":"22/06/2026 09:10:28"}]},{"id":"40735","lat":41.17957938010796,"lon":16.590257361531258,"name":"lanza giammaria","brand":"Metanauto Group","address":"CONTRADA SANTA LUCIA  70056, MOLFETTA, BA","prices":[{"type":"methane","price":1.659,"self":false,"updatedAt":"22/06/2026 09:10:24"}]},{"id":"22883","lat":41.21061348080482,"lon":16.572240187835632,"name":"MOLFETTA - PADULA","brand":"Api-Ip","address":"CONTRADA PADULA  70056, MOLFETTA, BA","prices":[{"type":"petrol","price":1.812,"self":true,"updatedAt":"24/06/2026 11:01:08"},{"type":"diesel","price":1.892,"self":true,"updatedAt":"24/06/2026 11:01:08"}]},{"id":"56522","lat":41.20425633504804,"lon":16.55676213414969,"name":"MOLFETTA EASY CC MONGOLFIERA","brand":"Energas","address":"Via dell'Arte Bianca  70056, MOLFETTA, BA","prices":[{"type":"petrol","price":1.889,"self":true,"updatedAt":"25/06/2026 00:18:57"},{"type":"diesel","price":1.969,"self":true,"updatedAt":"25/06/2026 00:18:57"},{"type":"methane","price":1.769,"self":false,"updatedAt":"25/06/2026 00:18:57"},{"type":"lpg","price":0.769,"self":false,"updatedAt":"25/06/2026 00:18:57"}]},{"id":"6746","lat":41.20538490764532,"lon":16.559286147746207,"name":"MOLFETTA VIA DEI LAVORATORI Z.I.","brand":"Q8","address":"VIA DEI LAVORATORI Z.I. SNC 70029, MOLFETTA, BA","prices":[{"type":"petrol","price":1.819,"self":true,"updatedAt":"22/06/2026 16:04:08"},{"type":"diesel","price":1.899,"self":true,"updatedAt":"22/06/2026 16:04:08"}]},{"id":"57031","lat":41.18714042456333,"lon":16.58659815788269,"name":"Q8 Pellegrini Domenico","brand":"Q8","address":"TERLIZZI KM 1 SNC 70056, MOLFETTA, BA","prices":[{"type":"petrol","price":1.819,"self":true,"updatedAt":"24/06/2026 10:16:51"},{"type":"diesel","price":1.899,"self":true,"updatedAt":"24/06/2026 10:16:51"}]},{"id":"57884","lat":41.19513,"lon":16.62139,"name":"VALENTE NICOLA","brand":"Agip Eni","address":"EX S.S. 16 KM 779,200 SNC 70056, MOLFETTA, BA","prices":[{"type":"petrol","price":1.829,"self":true,"updatedAt":"25/06/2026 01:26:08"},{"type":"diesel","price":1.919,"self":true,"updatedAt":"25/06/2026 01:26:08"},{"type":"lpg","price":0.779,"self":false,"updatedAt":"25/06/2026 01:26:08"}]},{"id":"30818","lat":41.05888915004012,"lon":16.715922206640244,"name":"4861","brand":"Tamoil","address":"SS96 - KM 111+002 SN 70027, PALO DEL COLLE, BA","prices":[{"type":"petrol","price":1.779,"self":true,"updatedAt":"25/06/2026 00:12:20"},{"type":"diesel","price":1.859,"self":true,"updatedAt":"25/06/2026 00:12:20"}]},{"id":"49642","lat":41.066515193582376,"lon":16.706616282463035,"name":"DI 23","brand":"Agip Eni","address":"S.P. 220  KM. 0+570 70027, PALO DEL COLLE, BA","prices":[{"type":"petrol","price":1.839,"self":true,"updatedAt":"24/06/2026 23:38:04"},{"type":"diesel","price":1.909,"self":true,"updatedAt":"24/06/2026 18:12:04"},{"type":"methane","price":1.767,"self":false,"updatedAt":"24/06/2026 23:38:04"},{"type":"lpg","price":0.759,"self":false,"updatedAt":"24/06/2026 18:22:11"}]},{"id":"49752","lat":41.04708259665206,"lon":16.70744776725769,"name":"ip sp44 palo binetto","brand":"Api-Ip","address":"sp 44 Palo- Binetto km 0,008  70027, PALO DEL COLLE, BA","prices":[{"type":"petrol","price":1.849,"self":true,"updatedAt":"22/06/2026 15:42:05"},{"type":"diesel","price":1.949,"self":true,"updatedAt":"22/06/2026 15:42:05"}]},{"id":"22122","lat":41.06197873139475,"lon":16.705345381614734,"name":"PALO DEL COLLE (S.P. PER BITONTO)","brand":"Api-Ip","address":"C.SO VITTORIO EMANUELE (S.P. PER BITONTO)  70027, PALO DEL COLLE, BA","prices":[{"type":"petrol","price":1.799,"self":true,"updatedAt":"24/06/2026 13:01:13"},{"type":"diesel","price":1.932,"self":true,"updatedAt":"24/06/2026 13:01:13"}]},{"id":"9881","lat":41.0672959222282,"lon":16.703954187731597,"name":"PALO DEL COLLE VIA BITONTO","brand":"Q8","address":"VIA BITONTO  70027, PALO DEL COLLE, BA","prices":[{"type":"petrol","price":1.809,"self":true,"updatedAt":"24/06/2026 17:39:50"},{"type":"diesel","price":1.929,"self":true,"updatedAt":"24/06/2026 17:39:50"}]},{"id":"24593","lat":41.1198167510475,"lon":16.50492213491816,"name":"RUVO DI PUGLIA - TERLIZZI SP2","brand":"Api-Ip","address":"SP2 PER TERLIZZI  70037, RUVO DI PUGLIA, BA","prices":[{"type":"petrol","price":1.829,"self":true,"updatedAt":"24/06/2026 09:12:06"},{"type":"diesel","price":1.919,"self":true,"updatedAt":"24/06/2026 17:10:45"}]},{"id":"62351","lat":41.118114,"lon":16.550293,"name":"AREA TERLIZZI","brand":"Gatti carburanti","address":"S.P. TERLIZZI-MARIOTTO SN 70038, TERLIZZI, BA","prices":[{"type":"petrol","price":1.837,"self":true,"updatedAt":"25/06/2026 00:48:44"},{"type":"diesel","price":1.897,"self":true,"updatedAt":"25/06/2026 00:48:44"},{"type":"lpg","price":0.727,"self":true,"updatedAt":"19/06/2026 11:02:23"}]},{"id":"12297","lat":41.115942948718036,"lon":16.584261506595567,"name":"CAMER TERLIZZI","brand":"Camer","address":"LOC.SOVERETO S.P.231 KM.16+800 SN 70038, TERLIZZI, BA","prices":[{"type":"petrol","price":1.802,"self":true,"updatedAt":"23/06/2026 18:27:54"},{"type":"diesel","price":1.888,"self":true,"updatedAt":"23/06/2026 18:27:54"},{"type":"methane","price":1.499,"self":false,"updatedAt":"23/06/2026 18:27:54"},{"type":"lpg","price":0.699,"self":false,"updatedAt":"23/06/2026 18:27:54"}]},{"id":"37737","lat":41.12801067404926,"lon":16.53083100914955,"name":"ENI","brand":"Agip Eni","address":"STRADA PROVINCIALE RUVO-TERLIZZI  70038, TERLIZZI, BA","prices":[{"type":"petrol","price":1.829,"self":true,"updatedAt":"25/06/2026 00:13:54"},{"type":"diesel","price":1.909,"self":true,"updatedAt":"25/06/2026 00:13:54"}]},{"id":"46927","lat":41.11265375633931,"lon":16.549016547211068,"name":"ENI","brand":"Agip Eni","address":"STRADA PROVINCIALE 231 KM. 19,800  70038, TERLIZZI, BA","prices":[{"type":"petrol","price":1.824,"self":true,"updatedAt":"24/06/2026 23:55:40"},{"type":"diesel","price":1.914,"self":true,"updatedAt":"24/06/2026 23:55:40"},{"type":"methane","price":1.537,"self":false,"updatedAt":"24/06/2026 23:55:40"},{"type":"lpg","price":0.722,"self":false,"updatedAt":"24/06/2026 23:55:40"}]},{"id":"37738","lat":41.13629447932953,"lon":16.5453065559268,"name":"Eni","brand":"Agip Eni","address":"Strada provinciale terlizzi-molfetta  70038, TERLIZZI, BA","prices":[{"type":"petrol","price":1.829,"self":true,"updatedAt":"25/06/2026 01:18:45"},{"type":"diesel","price":1.909,"self":true,"updatedAt":"25/06/2026 01:18:45"}]},{"id":"61830","lat":41.1318739,"lon":16.551209,"name":"PP75","brand":"Dill s","address":"Viale Federico II  70038, TERLIZZI, BA","prices":[{"type":"petrol","price":1.835,"self":true,"updatedAt":"25/06/2026 00:40:33"},{"type":"diesel","price":1.915,"self":true,"updatedAt":"25/06/2026 00:40:33"}]},{"id":"6748","lat":41.13003134213563,"lon":16.55204555092621,"name":"TERLIZZI VIALE ROMA","brand":"Q8","address":"VIALE ROMA SNC 70038, TERLIZZI, BA","prices":[{"type":"petrol","price":1.819,"self":true,"updatedAt":"24/06/2026 17:39:45"},{"type":"diesel","price":1.895,"self":true,"updatedAt":"24/06/2026 01:42:45"}]},{"id":"22042","lat":41.12342324203114,"lon":16.515387743511155,"name":"Totalerg","brand":"Api-Ip","address":"S.P.TERLIZZI-RUVO DI PUGLIA KM.1,230  70038, TERLIZZI, BA","prices":[{"type":"petrol","price":1.859,"self":true,"updatedAt":"18/06/2026 06:51:07"},{"type":"diesel","price":1.979,"self":true,"updatedAt":"18/06/2026 06:51:07"},{"type":"methane","price":1.529,"self":false,"updatedAt":"18/06/2026 06:51:07"},{"type":"lpg","price":0.799,"self":false,"updatedAt":"18/06/2026 06:51:07"}]},{"id":"53888","lat":41.0066,"lon":16.69503,"name":"IP 35","brand":"Api-Ip","address":"SP PER GRUMO APPULA KM 0,300 70020, TORITTO, BA","prices":[{"type":"petrol","price":1.809,"self":true,"updatedAt":"25/06/2026 01:20:55"},{"type":"diesel","price":1.899,"self":true,"updatedAt":"25/06/2026 01:20:55"},{"type":"lpg","price":0.767,"self":false,"updatedAt":"25/06/2026 01:20:55"}]},{"id":"45101","lat":41.000599000123,"lon":16.676106000123,"name":"Q8 DI FORESE MICHELE","brand":"Q8","address":"VIA EX SS 96 KM 103 + 531  SN 70020, TORITTO, BA","prices":[{"type":"petrol","price":1.809,"self":true,"updatedAt":"24/06/2026 12:48:28"},{"type":"diesel","price":1.899,"self":true,"updatedAt":"24/06/2026 12:48:28"}]},{"id":"59092","lat":41.234818,"lon":16.509398,"name":"09033 Bisceglie","brand":"Agip Eni","address":"VIA IMBRIANI  SN, BISCEGLIE, BT","prices":[{"type":"petrol","price":1.829,"self":true,"updatedAt":"25/06/2026 01:19:04"},{"type":"diesel","price":1.909,"self":true,"updatedAt":"25/06/2026 01:19:04"}]},{"id":"56190","lat":41.235648524934696,"lon":16.514542575341288,"name":"CASSETTA PETROLI","brand":"Pompe Bianche","address":"Via Mauro Giuliani 8 76011, BISCEGLIE, BT","prices":[{"type":"petrol","price":1.819,"self":true,"updatedAt":"22/06/2026 18:07:58"},{"type":"diesel","price":1.919,"self":true,"updatedAt":"22/06/2026 18:07:58"}]},{"id":"26769","lat":41.232342606401936,"lon":16.516795691909806,"name":"di liddo giovanni","brand":"Api-Ip","address":"VIA IMBRIANI ANG. CARRARA DI C  76011, BISCEGLIE, BT","prices":[{"type":"petrol","price":1.818,"self":true,"updatedAt":"24/06/2026 19:25:12"},{"type":"diesel","price":1.898,"self":true,"updatedAt":"24/06/2026 19:25:12"}]},{"id":"21756","lat":41.23338637804639,"lon":16.503362506628036,"name":"DZ power carburanti di Pasquale D'Azzeo","brand":"Pompe Bianche","address":"GARIBALDI 27 76011, BISCEGLIE, BT","prices":[{"type":"petrol","price":1.809,"self":true,"updatedAt":"24/06/2026 17:27:41"},{"type":"diesel","price":1.909,"self":true,"updatedAt":"24/06/2026 17:27:41"},{"type":"lpg","price":0.769,"self":false,"updatedAt":"24/06/2026 17:27:41"}]},{"id":"31594","lat":41.230420562456274,"lon":16.533207446336746,"name":"Papagni Carburanti srl Contrada Pantano","brand":"Pompe Bianche","address":"CONTRADA PANTANO KM. 770+400 S.N. 76011, BISCEGLIE, BT","prices":[{"type":"lpg","price":0.769,"self":false,"updatedAt":"24/06/2026 07:46:19"}]},{"id":"22627","lat":41.23559930564602,"lon":16.50844596326351,"name":"Stazione di Servizio TOIL di Nicola Gisondi","brand":"Toil","address":"VIA IMBRIANI 212 76011, BISCEGLIE, BT","prices":[{"type":"petrol","price":1.817,"self":true,"updatedAt":"24/06/2026 12:24:56"},{"type":"diesel","price":1.907,"self":true,"updatedAt":"24/06/2026 12:24:56"}]},{"id":"60159","lat":41.23448205990335,"lon":16.506099700927734,"name":"tamoil","brand":"Tamoil","address":"V.VENETO ANG. VIA CADORNA SNC 76011, BISCEGLIE, BT","prices":[{"type":"petrol","price":1.819,"self":true,"updatedAt":"24/06/2026 00:37:37"},{"type":"diesel","price":1.919,"self":true,"updatedAt":"25/06/2026 00:54:57"}]}]