[{"id":"61782","lat":41.321171851085644,"lon":15.007904210337301,"name":"Distributore Paradiso srl","brand":"Api-Ip","address":"RENATO ZEPPA 10 82025, MONTEFALCONE DI VAL FORTORE, BN","prices":[{"type":"petrol","price":2.096,"self":true,"updatedAt":"25/06/2026 15:35:34"},{"type":"diesel","price":2.199,"self":true,"updatedAt":"25/06/2026 15:35:34"}]},{"id":"58543","lat":41.42959,"lon":15.03073,"name":"EMME SAN BARTOLOMEO","brand":"Pompe Bianche","address":"S.S. 369 Km. 1,300 C/da Casone SNC 82028, SAN BARTOLOMEO IN GALDO, BN","prices":[{"type":"petrol","price":1.898,"self":true,"updatedAt":"19/06/2026 16:28:41"},{"type":"diesel","price":1.948,"self":true,"updatedAt":"19/06/2026 16:28:41"}]},{"id":"17611","lat":41.447446958060056,"lon":15.04226464418025,"name":"MONACO STATION","brand":"Pompe Bianche","address":"C/DA MARANO  82028, SAN BARTOLOMEO IN GALDO, BN","prices":[{"type":"petrol","price":1.898,"self":true,"updatedAt":"19/06/2026 16:28:47"},{"type":"diesel","price":1.948,"self":true,"updatedAt":"19/06/2026 16:28:47"},{"type":"lpg","price":0.895,"self":false,"updatedAt":"19/06/2026 16:28:47"}]},{"id":"14769","lat":41.42735509025276,"lon":15.123699232935905,"name":"goil","brand":"Pompe Bianche","address":"VIA STRADALE ROSETO  71031, ALBERONA, FG","prices":[{"type":"petrol","price":1.729,"self":true,"updatedAt":"25/06/2026 14:06:24"},{"type":"diesel","price":1.849,"self":true,"updatedAt":"25/06/2026 14:06:24"}]},{"id":"19344","lat":41.39836521205422,"lon":15.19813307820084,"name":"STAZIONE TAMOIL","brand":"Tamoil","address":"VIA GIARDINO  71032, BICCARI, FG","prices":[{"type":"petrol","price":1.799,"self":true,"updatedAt":"22/06/2026 16:52:28"},{"type":"diesel","price":1.899,"self":true,"updatedAt":"22/06/2026 16:52:28"}]},{"id":"41191","lat":41.32268623733592,"lon":15.160615146160126,"name":"CARBURANTI E LUBRIFICANTI TANGI PAOLO","brand":"Pompe Bianche","address":"VIA FONTANA SNC 71020, FAETO, FG","prices":[{"type":"petrol","price":1.901,"self":true,"updatedAt":"21/06/2026 22:13:50"},{"type":"diesel","price":1.942,"self":true,"updatedAt":"21/06/2026 22:13:50"}]},{"id":"17669","lat":41.378705683121076,"lon":15.098708420991898,"name":"GOIL","brand":"Pompe Bianche","address":"CONTRADA PIANO DEI MORTI  71039, ROSETO VALFORTORE, FG","prices":[{"type":"petrol","price":1.911,"self":true,"updatedAt":"19/06/2026 21:31:15"},{"type":"diesel","price":2.228,"self":true,"updatedAt":"19/06/2026 21:31:15"}]},{"id":"49404","lat":41.4848639652452,"lon":15.05176842212677,"name":"VOLTURARA PETROLI SRL","brand":"Pompe Bianche","address":"Strada Statale, Km. 0,700, FOGGIA - 71030, VOLTURARA APPULA, FG","prices":[{"type":"petrol","price":1.809,"self":true,"updatedAt":"22/06/2026 11:24:54"},{"type":"diesel","price":1.809,"self":true,"updatedAt":"22/06/2026 11:24:54"}]},{"id":"16977","lat":41.49730611969058,"lon":15.15468344092369,"name":"PIT STOP SRL","brand":"Pompe Bianche","address":"Statale 17 dell'Appennino Abruzzese e Appulo Sannitica, Km. 305+520, dir. Campobasso - 71030, VOLTURINO, FG","prices":[{"type":"petrol","price":1.988,"self":true,"updatedAt":"25/06/2026 21:48:46"},{"type":"diesel","price":1.889,"self":true,"updatedAt":"25/06/2026 21:48:46"}]},{"id":"40170","lat":41.47810183118289,"lon":15.12742817401886,"name":"stazione di servizio di benito di pasqua","brand":"Pompe Bianche","address":"VIA COMUNALE \"COLAMANCINI\"  71030, VOLTURINO, FG","prices":[{"type":"petrol","price":1.859,"self":true,"updatedAt":"22/06/2026 10:37:19"},{"type":"diesel","price":1.869,"self":true,"updatedAt":"22/06/2026 10:37:19"}]}]