[{"id":"40655","lat":41.8330636148123,"lon":14.713562652468681,"name":"distributore IP","brand":"Api-Ip","address":"corso italia  86031, CASTELMAURO, CB","prices":[{"type":"petrol","price":1.849,"self":true,"updatedAt":"30/06/2026 14:05:09"},{"type":"diesel","price":1.939,"self":true,"updatedAt":"30/06/2026 14:05:10"}]},{"id":"58958","lat":41.8465423,"lon":14.5869444,"name":"GG OIL ROCCAVIVARA","brand":"Pompe Bianche","address":"SS650, ROCCAVIVARA, CB","prices":[{"type":"petrol","price":1.789,"self":true,"updatedAt":"01/07/2026 07:02:57"},{"type":"diesel","price":1.849,"self":true,"updatedAt":"01/07/2026 07:02:57"}]},{"id":"48947","lat":41.79355957982183,"lon":14.565411560466002,"name":"ENILIVE","brand":"Agip Eni","address":"S.S. 747 KM. 27+900  102 86029, TRIVENTO, CB","prices":[{"type":"petrol","price":1.834,"self":true,"updatedAt":"30/06/2026 23:35:08"},{"type":"diesel","price":1.894,"self":true,"updatedAt":"30/06/2026 23:35:08"},{"type":"lpg","price":0.742,"self":false,"updatedAt":"30/06/2026 23:35:08"}]},{"id":"48498","lat":41.769975001836634,"lon":14.545071728836074,"name":"LG LOZZI SRL","brand":"Agip Eni","address":"VIA ICONICELLA SNC 86029, TRIVENTO, CB","prices":[{"type":"petrol","price":1.995,"self":true,"updatedAt":"25/06/2026 20:04:46"},{"type":"diesel","price":2.088,"self":true,"updatedAt":"25/06/2026 20:04:46"}]},{"id":"26617","lat":41.78075721234641,"lon":14.551730040101575,"name":"Scarano Carburanti S.r.l","brand":"Tamoil","address":"PIAZZA FONTANA 4 86029, TRIVENTO, CB","prices":[{"type":"petrol","price":1.899,"self":true,"updatedAt":"28/06/2026 09:09:44"},{"type":"diesel","price":1.999,"self":true,"updatedAt":"28/06/2026 09:09:44"}]},{"id":"49100","lat":41.94740529675128,"lon":14.666210115370978,"name":"Smart Oil - Dogliola","brand":"Pompe Bianche","address":"VIA SS 650 KM 61+915 LOC. FARA SN 66050, DOGLIOLA (CH)  66050, DOGLIOLA, CH","prices":[{"type":"petrol","price":1.819,"self":true,"updatedAt":"29/06/2026 17:46:59"},{"type":"diesel","price":1.899,"self":true,"updatedAt":"29/06/2026 17:46:59"},{"type":"methane","price":1.377,"self":false,"updatedAt":"29/06/2026 17:46:59"},{"type":"lpg","price":0.759,"self":false,"updatedAt":"29/06/2026 17:46:59"}]},{"id":"9538","lat":41.97539415691512,"lon":14.672203660011292,"name":"PV FRESAGRANDINARIA","brand":"Pompe Bianche","address":"VIALE ABRUZZO SNC 66050, FRESAGRANDINARIA, CH","prices":[{"type":"petrol","price":1.929,"self":true,"updatedAt":"16/06/2026 17:53:27"},{"type":"diesel","price":1.999,"self":true,"updatedAt":"16/06/2026 17:53:27"}]},{"id":"60673","lat":41.91791173832495,"lon":14.661289267996851,"name":"GG OIL TUFILLO","brand":"Pompe Bianche","address":"S.S. 650 KM 58+600 SN 66050, TUFILLO, CH","prices":[{"type":"petrol","price":1.809,"self":true,"updatedAt":"01/07/2026 07:03:03"},{"type":"diesel","price":1.889,"self":true,"updatedAt":"01/07/2026 07:03:03"},{"type":"lpg","price":0.749,"self":false,"updatedAt":"01/07/2026 07:03:03"}]}]