[{"id":"28877","lat":41.82855166379511,"lon":15.77463984489441,"name":"piazzale matteotti","brand":"Pompe Bianche","address":"PIAZZALE MATTEOTTI SNC 71010, CAGNANO VARANO, FG","prices":[{"type":"petrol","price":1.878,"self":true,"updatedAt":"22/06/2026 07:19:51"},{"type":"diesel","price":1.978,"self":true,"updatedAt":"22/06/2026 07:19:51"}]},{"id":"35053","lat":41.84284148158092,"lon":15.860834643244743,"name":"DI PERNA ANTONIO PIO","brand":"Pompe Bianche","address":"TERRE SAN CIRILLO  71010, CARPINO, FG","prices":[{"type":"petrol","price":1.939,"self":true,"updatedAt":"21/06/2026 21:30:24"},{"type":"diesel","price":2.059,"self":true,"updatedAt":"21/06/2026 21:30:24"}]},{"id":"48518","lat":41.849362650751225,"lon":15.831921771674704,"name":"IP Gargano","brand":"Api-Ip","address":"strada scorrimento veloce 89  71010, CARPINO, FG","prices":[{"type":"petrol","price":1.878,"self":true,"updatedAt":"22/06/2026 07:25:44"},{"type":"diesel","price":1.978,"self":true,"updatedAt":"22/06/2026 07:25:44"}]},{"id":"27252","lat":41.85446946248601,"lon":15.83865612745285,"name":"Varano Petroli sas","brand":"Pompe Bianche","address":"Strada Provinciale N. 50 Km. 22,100  71010, CARPINO, FG","prices":[{"type":"petrol","price":1.85,"self":true,"updatedAt":"17/06/2026 15:01:13"},{"type":"diesel","price":1.95,"self":true,"updatedAt":"17/06/2026 15:01:13"}]},{"id":"37045","lat":41.90460551541408,"lon":15.898496881127357,"name":"tamoil","brand":"Tamoil","address":"via umberto i° snc 71010, ISCHITELLA, FG","prices":[{"type":"petrol","price":1.859,"self":true,"updatedAt":"21/06/2026 00:04:03"},{"type":"diesel","price":1.949,"self":true,"updatedAt":"21/06/2026 00:04:03"}]},{"id":"25690","lat":41.91462063941394,"lon":15.759692847766132,"name":"V8 Fuel di Voto Alessandro Rocco","brand":"Retitalia","address":"ISTMO VARANO SNC 71010, ISCHITELLA, FG","prices":[{"type":"petrol","price":1.859,"self":true,"updatedAt":"21/06/2026 10:17:24"},{"type":"diesel","price":1.949,"self":true,"updatedAt":"21/06/2026 10:17:24"}]},{"id":"30446","lat":41.92796062134483,"lon":15.881802141666412,"name":"ENI STATION DI COLOGNA UMBERTO","brand":"Agip Eni","address":"VIA MADONNA DELLA LIBERA SNC 71012, RODI GARGANICO, FG","prices":[{"type":"petrol","price":1.849,"self":true,"updatedAt":"21/06/2026 23:32:48"},{"type":"diesel","price":1.949,"self":true,"updatedAt":"21/06/2026 23:32:48"}]},{"id":"60739","lat":41.897743,"lon":15.958462,"name":"TOIL","brand":"Toil","address":"PELILLI (S.FRANCESCO) SN 71018, VICO DEL GARGANO, FG","prices":[{"type":"petrol","price":1.859,"self":true,"updatedAt":"19/06/2026 13:40:36"},{"type":"diesel","price":1.969,"self":true,"updatedAt":"19/06/2026 13:40:36"}]},{"id":"17628","lat":41.90232734831074,"lon":15.964226424694061,"name":"Vico Agricalor Sas","brand":"Agip Eni","address":"CONTRADA VEDATIGLIA SC 71018, VICO DEL GARGANO, FG","prices":[{"type":"petrol","price":1.849,"self":true,"updatedAt":"22/06/2026 00:20:25"},{"type":"diesel","price":1.949,"self":true,"updatedAt":"22/06/2026 00:20:25"}]}]