[{"id":"52689","lat":41.94440561618202,"lon":16.00928820669651,"name":"ESSO","brand":"Esso","address":"S.S. 89 KM 83 + 455 S.N. 71010, PESCHICI, FG","prices":[{"type":"petrol","price":1.999,"self":true,"updatedAt":"20/06/2026 07:38:40"},{"type":"diesel","price":2.099,"self":true,"updatedAt":"20/06/2026 07:38:40"}]},{"id":"53081","lat":41.93867967963035,"lon":16.020233631134033,"name":"F.lli Tardivo srl","brand":"Pompe Bianche","address":"LOC. PIETRA DELLE DUE MADONNE S.N.C. 71010, PESCHICI, FG","prices":[{"type":"petrol","price":1.999,"self":true,"updatedAt":"20/06/2026 08:21:53"},{"type":"diesel","price":2.099,"self":true,"updatedAt":"20/06/2026 08:21:53"}]},{"id":"25175","lat":41.93353587386485,"lon":16.014865189790726,"name":"stazione servizio CARUSEL","brand":"Pompe Bianche","address":"Statale 89 Garganica, Km. 85+800, dir. PESCHICI - 71010, PESCHICI, FG","prices":[{"type":"petrol","price":1.999,"self":true,"updatedAt":"20/06/2026 12:07:21"},{"type":"diesel","price":2.099,"self":true,"updatedAt":"20/06/2026 12:07:21"},{"type":"lpg","price":0.999,"self":false,"updatedAt":"20/06/2026 12:07:21"}]},{"id":"24354","lat":41.90522130726346,"lon":16.095639243721962,"name":"3P gas & carburanti PASTORELLA","brand":"Pompe Bianche","address":"CONTRADA PIANO GRANDE - SP 52bis km 1,500 direzione foresta umbra 6 71019, VIESTE, FG","prices":[{"type":"lpg","price":0.999,"self":false,"updatedAt":"17/06/2026 09:01:07"}]},{"id":"35924","lat":41.88764307909966,"lon":16.16528481245041,"name":"ENI 29240","brand":"Agip Eni","address":"LUNGOMARE EUROPA 50 71019, VIESTE, FG","prices":[{"type":"petrol","price":1.829,"self":true,"updatedAt":"22/06/2026 23:42:25"},{"type":"diesel","price":1.919,"self":true,"updatedAt":"22/06/2026 23:42:25"}]},{"id":"62852","lat":41.87755,"lon":16.17583,"name":"ESSO 10","brand":"Esso","address":"Lungomare E. Mattei  71019, VIESTE, FG","prices":[{"type":"petrol","price":1.829,"self":true,"updatedAt":"23/06/2026 00:39:10"},{"type":"diesel","price":1.919,"self":true,"updatedAt":"23/06/2026 00:39:10"}]},{"id":"31034","lat":41.88740026950457,"lon":16.179551482200623,"name":"gargano carburanti SRL","brand":"Pompe Bianche","address":"VIALE C. COLOMBO 91 BIS 71019, VIESTE, FG","prices":[{"type":"petrol","price":1.829,"self":true,"updatedAt":"22/06/2026 19:02:09"},{"type":"diesel","price":1.929,"self":true,"updatedAt":"22/06/2026 19:02:09"}]},{"id":"62169","lat":41.8664287,"lon":16.1744905,"name":"Petrol Luna","brand":"Api-Ip","address":"Lungomare E. Mattei 104 71019, VIESTE, FG","prices":[{"type":"petrol","price":1.859,"self":true,"updatedAt":"22/06/2026 07:39:16"},{"type":"diesel","price":1.959,"self":true,"updatedAt":"22/06/2026 07:39:16"}]},{"id":"35928","lat":41.89880493297332,"lon":16.145484745502472,"name":"vesta carburanti","brand":"Pompe Bianche","address":"contrada defensola  24 71019, VIESTE, FG","prices":[{"type":"petrol","price":1.949,"self":true,"updatedAt":"22/06/2026 11:04:27"},{"type":"diesel","price":2.059,"self":true,"updatedAt":"22/06/2026 11:04:27"}]}]