[{"id":"41098","lat":41.84374745231902,"lon":14.192911684513092,"name":"ARCHE' ATELETA","brand":"Pompe Bianche","address":"S.S. 652 KM 27+255 SNC 67030, ATELETA, AQ","prices":[{"type":"petrol","price":1.829,"self":true,"updatedAt":"23/06/2026 16:50:52"},{"type":"diesel","price":1.929,"self":true,"updatedAt":"23/06/2026 16:50:52"}]},{"id":"58280","lat":41.78054,"lon":14.10657,"name":"6514  CASTEL DI SANGRO","brand":"Agip Eni","address":"SS 17 KM 147+465  SNC, CASTEL DI SANGRO, AQ","prices":[{"type":"petrol","price":1.829,"self":true,"updatedAt":"28/06/2026 00:53:03"},{"type":"diesel","price":1.899,"self":true,"updatedAt":"28/06/2026 00:53:03"}]},{"id":"53891","lat":41.7771199,"lon":14.104449,"name":"Q8 - CASTEL DI SANGRO SS17 KM 147+958","brand":"Q8","address":"SS 17 KM 147+958 SNC 67031, CASTEL DI SANGRO, AQ","prices":[{"type":"petrol","price":1.819,"self":true,"updatedAt":"28/06/2026 07:11:28"},{"type":"diesel","price":1.909,"self":true,"updatedAt":"28/06/2026 07:11:28"}]},{"id":"41856","lat":41.76685219451033,"lon":14.098870754241943,"name":"toil castel di sangro","brand":"Toil","address":"S.STATALE 17 KM 149+200  67031, CASTEL DI SANGRO, AQ","prices":[{"type":"petrol","price":1.809,"self":true,"updatedAt":"28/06/2026 01:17:35"},{"type":"diesel","price":1.909,"self":true,"updatedAt":"28/06/2026 01:17:35"},{"type":"methane","price":1.699,"self":false,"updatedAt":"27/06/2026 00:41:23"},{"type":"lpg","price":0.759,"self":false,"updatedAt":"27/06/2026 00:41:23"}]},{"id":"7719","lat":41.77451597793361,"lon":14.100015390213002,"name":"VERLINGAS","brand":"Verlingas","address":"STARDA STATALE 17 KM. 148,140 - Via del Lavoro  9 67031, CASTEL DI SANGRO, AQ","prices":[{"type":"petrol","price":1.829,"self":true,"updatedAt":"27/06/2026 08:03:18"},{"type":"diesel","price":1.929,"self":true,"updatedAt":"27/06/2026 08:03:19"},{"type":"lpg","price":0.769,"self":false,"updatedAt":"27/06/2026 08:03:18"}]},{"id":"32327","lat":41.88712595842577,"lon":14.068726822090184,"name":"PESCOCOSTANZO - DEL RE","brand":"Api-Ip","address":"VIA DEL RE  67033, PESCOCOSTANZO, AQ","prices":[{"type":"petrol","price":1.842,"self":true,"updatedAt":"27/06/2026 09:04:42"},{"type":"diesel","price":1.919,"self":true,"updatedAt":"27/06/2026 09:04:42"}]},{"id":"58501","lat":41.86680871745537,"lon":14.068238866412875,"name":"ARCHE' RIVISONDOLI","brand":"Esso","address":"SP 56 SNC 67036, RIVISONDOLI, AQ","prices":[{"type":"petrol","price":1.829,"self":true,"updatedAt":"24/06/2026 21:27:03"},{"type":"diesel","price":1.929,"self":true,"updatedAt":"24/06/2026 21:27:03"}]},{"id":"27204","lat":41.86539890245248,"lon":14.032859913932953,"name":"LA VECCHIA PESA","brand":"Pompe Bianche","address":"Statale 17 dell'Appennino Abruzzese e Appulo Sannitica, Km. 133.50, dir. sulmona - 67036, RIVISONDOLI, AQ","prices":[{"type":"petrol","price":1.799,"self":true,"updatedAt":"27/06/2026 13:16:53"},{"type":"diesel","price":1.899,"self":true,"updatedAt":"27/06/2026 13:16:54"}]},{"id":"47395","lat":41.85095706516586,"lon":14.076629526693655,"name":"ESSO ROCCARASO Via Roma","brand":"Esso","address":"Via Roma  67037, ROCCARASO, AQ","prices":[{"type":"petrol","price":1.799,"self":true,"updatedAt":"28/06/2026 07:11:18"},{"type":"diesel","price":1.899,"self":true,"updatedAt":"28/06/2026 07:11:18"}]},{"id":"27684","lat":41.8553061449447,"lon":14.068569839000702,"name":"STAZIONE DI SERVIZIO ENI","brand":"Agip Eni","address":"Statale 17 dell'Appennino Abruzzese e Appulo Sannitica, Km. 136+934, dir. L'AQUILA  67037, ROCCARASO, AQ","prices":[{"type":"petrol","price":1.824,"self":true,"updatedAt":"28/06/2026 01:11:50"},{"type":"diesel","price":1.914,"self":true,"updatedAt":"28/06/2026 01:11:50"}]},{"id":"53847","lat":41.978454,"lon":14.1334633,"name":"AVENTINO SNC","brand":"Tamoil","address":"COLLESALARDO . 66017, PALENA, CH","prices":[{"type":"petrol","price":1.899,"self":true,"updatedAt":"19/06/2026 07:14:16"},{"type":"diesel","price":1.999,"self":true,"updatedAt":"19/06/2026 07:14:16"}]},{"id":"62464","lat":41.9219068,"lon":14.2364677,"name":"PIZZOIL","brand":"Pompe Bianche","address":"Traversa Via Roma 2  66040, PIZZOFERRATO, CH","prices":[{"type":"petrol","price":1.819,"self":true,"updatedAt":"26/06/2026 16:42:20"},{"type":"diesel","price":1.869,"self":true,"updatedAt":"26/06/2026 16:42:20"}]},{"id":"49731","lat":41.821349790410316,"lon":14.174409806728363,"name":"Stazione Eni piana di sangro","brand":"Agip Eni","address":"652 di Fondo Valle Sangro, Km. 24+146, val di sangro - 86088, SAN PIETRO AVELLANA, IS","prices":[{"type":"petrol","price":1.849,"self":true,"updatedAt":"27/06/2026 15:08:39"},{"type":"diesel","price":1.949,"self":true,"updatedAt":"27/06/2026 15:08:39"},{"type":"lpg","price":0.849,"self":false,"updatedAt":"27/06/2026 15:08:39"}]}]