[{"id":"52689","lat":41.94440561618202,"lon":16.00928820669651,"name":"ESSO","brand":"Esso","address":"S.S. 89 KM 83 + 455 S.N. 71010, PESCHICI, FG","prices":[{"type":"petrol","price":1.999,"self":true,"updatedAt":"27/06/2026 07:57:01"},{"type":"diesel","price":2.099,"self":true,"updatedAt":"27/06/2026 07:57:01"}]},{"id":"53081","lat":41.93867967963035,"lon":16.020233631134033,"name":"F.lli Tardivo srl","brand":"Pompe Bianche","address":"LOC. PIETRA DELLE DUE MADONNE S.N.C. 71010, PESCHICI, FG","prices":[{"type":"petrol","price":1.999,"self":true,"updatedAt":"26/06/2026 08:57:21"},{"type":"diesel","price":2.099,"self":true,"updatedAt":"26/06/2026 08:57:21"}]},{"id":"25175","lat":41.93353587386485,"lon":16.014865189790726,"name":"stazione servizio CARUSEL","brand":"Pompe Bianche","address":"Statale 89 Garganica, Km. 85+800, dir. PESCHICI - 71010, PESCHICI, FG","prices":[{"type":"petrol","price":1.999,"self":true,"updatedAt":"27/06/2026 16:36:57"},{"type":"diesel","price":2.099,"self":true,"updatedAt":"27/06/2026 16:36:57"},{"type":"lpg","price":0.999,"self":false,"updatedAt":"27/06/2026 16:36:57"}]},{"id":"24354","lat":41.90522130726346,"lon":16.095639243721962,"name":"3P gas & carburanti PASTORELLA","brand":"Pompe Bianche","address":"CONTRADA PIANO GRANDE - SP 52bis km 1,500 direzione foresta umbra 6 71019, VIESTE, FG","prices":[{"type":"lpg","price":0.999,"self":false,"updatedAt":"25/06/2026 22:52:16"}]},{"id":"35924","lat":41.88764307909966,"lon":16.16528481245041,"name":"ENI 29240","brand":"Agip Eni","address":"LUNGOMARE EUROPA 50 71019, VIESTE, FG","prices":[{"type":"petrol","price":1.829,"self":true,"updatedAt":"28/06/2026 23:50:40"},{"type":"diesel","price":1.899,"self":true,"updatedAt":"28/06/2026 15:02:03"}]},{"id":"62852","lat":41.87755,"lon":16.17583,"name":"ESSO 10","brand":"Esso","address":"Lungomare E. Mattei  71019, VIESTE, FG","prices":[{"type":"petrol","price":1.829,"self":true,"updatedAt":"29/06/2026 00:43:42"},{"type":"diesel","price":1.909,"self":true,"updatedAt":"29/06/2026 00:43:42"}]},{"id":"31034","lat":41.88740026950457,"lon":16.179551482200623,"name":"gargano carburanti SRL","brand":"Pompe Bianche","address":"VIALE C. COLOMBO 91 BIS 71019, VIESTE, FG","prices":[{"type":"petrol","price":1.829,"self":true,"updatedAt":"29/06/2026 00:41:27"},{"type":"diesel","price":1.909,"self":true,"updatedAt":"29/06/2026 07:50:19"}]},{"id":"62169","lat":41.8664287,"lon":16.1744905,"name":"Petrol Luna","brand":"Api-Ip","address":"Lungomare E. Mattei 104 71019, VIESTE, FG","prices":[{"type":"petrol","price":1.829,"self":true,"updatedAt":"23/06/2026 15:54:19"},{"type":"diesel","price":1.919,"self":true,"updatedAt":"23/06/2026 15:54:19"}]},{"id":"35928","lat":41.89880493297332,"lon":16.145484745502472,"name":"vesta carburanti","brand":"Pompe Bianche","address":"contrada defensola  24 71019, VIESTE, FG","prices":[{"type":"petrol","price":1.899,"self":true,"updatedAt":"24/06/2026 07:55:50"},{"type":"diesel","price":1.999,"self":true,"updatedAt":"24/06/2026 07:55:50"}]}]