[{"id":"62985","lat":42.0583,"lon":13.5639,"name":"PETROLITALIA AIELLI","brand":"PETROLITALIA","address":"STATALE 5 KM 127+571 SNC 67041, AIELLI, AQ","prices":[{"type":"petrol","price":1.779,"self":true,"updatedAt":"25/06/2026 15:40:56"},{"type":"diesel","price":1.879,"self":true,"updatedAt":"25/06/2026 15:40:56"}]},{"id":"59723","lat":42.07534,"lon":13.53904,"name":"ARCHE' CELANO","brand":"Pompe Bianche","address":"VIA DELLA TORRE 86 67043, CELANO, AQ","prices":[{"type":"petrol","price":1.799,"self":true,"updatedAt":"23/06/2026 16:53:28"},{"type":"diesel","price":1.899,"self":true,"updatedAt":"23/06/2026 16:53:28"}]},{"id":"51234","lat":42.06310990519823,"lon":13.507998229451237,"name":"Easy Service Celano","brand":"Energas","address":"Via SS 5 KM 123+100  SNC 67043, CELANO, AQ","prices":[{"type":"petrol","price":1.769,"self":false,"updatedAt":"25/06/2026 23:44:34"},{"type":"diesel","price":1.859,"self":false,"updatedAt":"25/06/2026 23:44:34"},{"type":"lpg","price":0.728,"self":false,"updatedAt":"25/06/2026 23:44:34"}]},{"id":"42267","lat":42.08211907975565,"lon":13.541409318944943,"name":"stazione di servizio ip di renzo","brand":"Api-Ip","address":"VIA DELLA TORRE 20/22 67043, CELANO, AQ","prices":[{"type":"petrol","price":1.829,"self":true,"updatedAt":"22/06/2026 18:49:28"},{"type":"diesel","price":1.929,"self":true,"updatedAt":"22/06/2026 18:49:28"}]},{"id":"39377","lat":42.05980528802059,"lon":13.543382585048676,"name":"TD srl","brand":"Pompe Bianche","address":"via Tiburtina Valeria km 126  67043, CELANO, AQ","prices":[{"type":"petrol","price":1.778,"self":true,"updatedAt":"25/06/2026 11:00:32"},{"type":"diesel","price":1.858,"self":true,"updatedAt":"25/06/2026 11:00:32"},{"type":"lpg","price":0.728,"self":false,"updatedAt":"25/06/2026 11:00:32"}]},{"id":"43517","lat":42.04329791508895,"lon":13.626129693865778,"name":"ARCHE' COLLARMELE","brand":"Pompe Bianche","address":"S.R.NUM.83 KM 2+400  67040, COLLARMELE, AQ","prices":[{"type":"petrol","price":1.779,"self":true,"updatedAt":"23/06/2026 23:57:39"},{"type":"diesel","price":1.879,"self":true,"updatedAt":"23/06/2026 23:57:39"},{"type":"lpg","price":0.739,"self":false,"updatedAt":"23/06/2026 09:45:07"}]},{"id":"61598","lat":42.14306,"lon":13.74156,"name":"ENGY S \"MOLINA\"","brand":"Api-Ip","address":"SS261 KM 35  67020, MOLINA ATERNO, AQ","prices":[{"type":"petrol","price":1.857,"self":true,"updatedAt":"25/06/2026 00:27:00"},{"type":"diesel","price":1.937,"self":true,"updatedAt":"25/06/2026 00:27:00"}]},{"id":"16199","lat":42.23489001864224,"lon":13.725677579641342,"name":"Distributore carburanti","brand":"Api-Ip","address":"STRADA STATALE 17 KM. 68+200  67020, NAVELLI, AQ","prices":[{"type":"petrol","price":1.829,"self":true,"updatedAt":"24/06/2026 18:48:48"},{"type":"diesel","price":1.909,"self":true,"updatedAt":"24/06/2026 18:48:48"}]},{"id":"59934","lat":42.24934568018492,"lon":13.695498704610278,"name":"NAVELLI","brand":"Pompe Bianche","address":"ss17 km 65+125   67020, NAVELLI, AQ","prices":[{"type":"petrol","price":1.765,"self":true,"updatedAt":"25/06/2026 00:43:55"},{"type":"diesel","price":2.185,"self":true,"updatedAt":"25/06/2026 00:43:55"}]},{"id":"33804","lat":42.02610851536124,"lon":13.660203516483307,"name":"IP","brand":"Api-Ip","address":"PIAZZA MAZZARINO S.N.C. 67057, PESCINA, AQ","prices":[{"type":"petrol","price":1.829,"self":true,"updatedAt":"24/06/2026 18:31:12"},{"type":"diesel","price":1.909,"self":true,"updatedAt":"24/06/2026 18:31:12"}]},{"id":"50818","lat":42.02805170108349,"lon":13.647235059311251,"name":"Ottavi carburanti sas","brand":"Agip Eni","address":"83 Marsicana, Km. 4+911, Pescina - 67057, PESCINA, AQ","prices":[{"type":"petrol","price":1.829,"self":true,"updatedAt":"26/06/2026 00:13:05"},{"type":"diesel","price":1.899,"self":true,"updatedAt":"26/06/2026 00:13:04"}]},{"id":"41042","lat":42.19954032398696,"lon":13.51973757147789,"name":"ARCHE' ROCCA DI MEZZO","brand":"Pompe Bianche","address":"SS 696  SNC 67048, ROCCA DI MEZZO, AQ","prices":[{"type":"petrol","price":1.899,"self":true,"updatedAt":"24/06/2026 11:45:06"},{"type":"diesel","price":1.989,"self":true,"updatedAt":"24/06/2026 11:45:06"}]},{"id":"41097","lat":42.001285692853834,"lon":13.607877641916275,"name":"ARCHE' SAN BENEDETTO DEI MARSI","brand":"Pompe Bianche","address":"S.P.20 MARRUVIANA KM 16+685  67058, SAN BENEDETTO DEI MARSI, AQ","prices":[{"type":"petrol","price":1.799,"self":true,"updatedAt":"24/06/2026 00:41:01"},{"type":"diesel","price":1.869,"self":true,"updatedAt":"24/06/2026 00:41:01"}]},{"id":"45052","lat":42.001235566668804,"lon":13.606472740655363,"name":"IANI PETROLI","brand":"Pompe Bianche","address":"STRADA PROVINCIALE 20 KM. 16+600  67058, SAN BENEDETTO DEI MARSI, AQ","prices":[{"type":"lpg","price":0.759,"self":false,"updatedAt":"25/06/2026 16:58:42"}]},{"id":"33815","lat":42.00125001403318,"lon":13.606159687042238,"name":"Iani srl","brand":"Pompe Bianche","address":"Strada Provinciale 20 Km. 16,600, dir. Avezzano  67058, SAN BENEDETTO DEI MARSI, AQ","prices":[{"type":"petrol","price":1.769,"self":true,"updatedAt":"25/06/2026 16:59:02"},{"type":"diesel","price":1.869,"self":true,"updatedAt":"25/06/2026 16:59:02"}]},{"id":"39782","lat":42.001556173528016,"lon":13.603614270687103,"name":"S BENEDETTO MARSI TOIL SPA","brand":"Toil","address":"S.P. N.20 KM 15+890  SNC 67058, SAN BENEDETTO DEI MARSI, AQ","prices":[{"type":"petrol","price":1.829,"self":true,"updatedAt":"25/06/2026 00:14:56"},{"type":"diesel","price":1.879,"self":true,"updatedAt":"25/06/2026 00:14:56"},{"type":"lpg","price":0.759,"self":false,"updatedAt":"26/06/2026 00:19:46"}]}]