[{"id":"60757","lat":42.11401875987699,"lon":14.353304808613574,"name":"FC","brand":"Pompe Bianche","address":"VIA NAZIONALE SS84 206 66040, ALTINO, CH","prices":[{"type":"petrol","price":1.859,"self":true,"updatedAt":"25/06/2026 12:04:57"},{"type":"diesel","price":1.949,"self":true,"updatedAt":"25/06/2026 12:04:57"}]},{"id":"59051","lat":42.11414116125329,"lon":14.347105924720504,"name":"OK ALTINO","brand":"OK energie","address":"Via Nazionale 170  66040, ALTINO, CH","prices":[{"type":"petrol","price":1.779,"self":true,"updatedAt":"27/06/2026 13:07:59"},{"type":"diesel","price":1.859,"self":true,"updatedAt":"27/06/2026 13:07:59"}]},{"id":"56487","lat":42.0840815,"lon":14.2534562,"name":"TAMOIL ALTINO S.S. 84 KM 56+832","brand":"Tamoil","address":"S.S. 84 KM. 56+825 LOC. SELVA SNC 66040, ALTINO, CH","prices":[{"type":"petrol","price":1.789,"self":true,"updatedAt":"28/06/2026 07:44:23"},{"type":"diesel","price":1.869,"self":true,"updatedAt":"28/06/2026 07:44:23"}]},{"id":"5936","lat":42.075042999999994,"lon":14.446454116567566,"name":"ATESSA","brand":"Api-Ip","address":"Via Antonio Gramsci / SP MONTEMARCONE 84 66041, ATESSA, CH","prices":[{"type":"petrol","price":1.799,"self":true,"updatedAt":"27/06/2026 09:12:41"},{"type":"diesel","price":1.899,"self":true,"updatedAt":"27/06/2026 09:12:41"}]},{"id":"5935","lat":42.12904487067406,"lon":14.432293860118875,"name":"ATESSA","brand":"Api-Ip","address":"Via Colle Pietre 87 66040, ATESSA, CH","prices":[{"type":"petrol","price":1.799,"self":true,"updatedAt":"27/06/2026 09:10:26"},{"type":"diesel","price":1.899,"self":true,"updatedAt":"27/06/2026 09:10:26"}]},{"id":"14509","lat":42.066325976273376,"lon":14.452757388353348,"name":"BOSCHETTI ANTONIO","brand":"FLY","address":"P. GOBETTI 21 66040, ATESSA, CH","prices":[{"type":"petrol","price":1.8,"self":true,"updatedAt":"25/06/2026 11:15:59"},{"type":"diesel","price":1.9,"self":true,"updatedAt":"25/06/2026 11:15:59"}]},{"id":"21831","lat":42.12769206649996,"lon":14.41176451742649,"name":"D&Dsas","brand":"Pompe Bianche","address":"S.p ex S.s 154 km5+874  66041, ATESSA, CH","prices":[{"type":"petrol","price":1.82,"self":true,"updatedAt":"27/06/2026 08:55:58"},{"type":"diesel","price":1.9,"self":true,"updatedAt":"27/06/2026 08:55:58"}]},{"id":"27045","lat":42.070061712403486,"lon":14.461528327824908,"name":"DISTRIBUTORE IP di BERARDI DANIELE","brand":"Api-Ip","address":"MADONNA A MARE 6 66041, ATESSA, CH","prices":[{"type":"petrol","price":1.815,"self":true,"updatedAt":"24/06/2026 09:59:17"},{"type":"diesel","price":1.916,"self":true,"updatedAt":"24/06/2026 09:59:17"}]},{"id":"59466","lat":42.0879,"lon":14.4461,"name":"ENI di FRANCESCHINI -ATESSA-","brand":"Agip Eni","address":"via s.p. marrucina km 6 loc. Carriera snc  66041, ATESSA, CH","prices":[{"type":"petrol","price":1.824,"self":true,"updatedAt":"28/06/2026 01:28:04"},{"type":"diesel","price":1.899,"self":true,"updatedAt":"28/06/2026 01:28:03"},{"type":"lpg","price":0.747,"self":false,"updatedAt":"28/06/2026 01:28:03"}]},{"id":"60763","lat":42.121475695203074,"lon":14.478563969609057,"name":"FC","brand":"Pompe Bianche","address":"SP Loc. Montecalvo  10 66041, ATESSA, CH","prices":[{"type":"petrol","price":1.899,"self":true,"updatedAt":"27/06/2026 08:01:55"},{"type":"diesel","price":1.999,"self":true,"updatedAt":"27/06/2026 08:01:55"}]},{"id":"9084","lat":42.13302724931936,"lon":14.409601986408234,"name":"RES ATESSA","brand":"Pompe Bianche","address":"Statale 652 di Fondo Valle Sangro, Km. 67+537, dir. villa santa maria  66041, ATESSA, CH","prices":[{"type":"petrol","price":1.815,"self":true,"updatedAt":"25/06/2026 12:08:38"},{"type":"diesel","price":1.895,"self":true,"updatedAt":"25/06/2026 12:08:38"},{"type":"lpg","price":0.737,"self":false,"updatedAt":"25/06/2026 12:08:38"}]},{"id":"23069","lat":42.117344866570704,"lon":14.29057008465577,"name":"DS CARBURANTI","brand":"Pompe Bianche","address":"Statale 84 Frentana, Km. 48,700, dir. SUD - 66043, CASOLI, CH","prices":[{"type":"petrol","price":1.799,"self":true,"updatedAt":"26/06/2026 06:50:48"},{"type":"diesel","price":1.899,"self":true,"updatedAt":"26/06/2026 06:50:48"}]},{"id":"27305","lat":42.11525234000667,"lon":14.257894390216052,"name":"Eni Casoli","brand":"Agip Eni","address":"CONTRADA CIPOLLARO SNC 66043, CASOLI, CH","prices":[{"type":"petrol","price":1.819,"self":true,"updatedAt":"28/06/2026 00:24:39"},{"type":"diesel","price":1.919,"self":true,"updatedAt":"28/06/2026 00:24:39"},{"type":"lpg","price":0.687,"self":false,"updatedAt":"25/01/2024 00:08:03"}]},{"id":"14770","lat":42.12457342965443,"lon":14.303758184729976,"name":"RES CASOLI SP100","brand":"Pompe Bianche","address":"S.P. 100 KM. 25+975  66043, CASOLI, CH","prices":[{"type":"petrol","price":1.799,"self":true,"updatedAt":"25/06/2026 11:52:13"},{"type":"diesel","price":1.899,"self":true,"updatedAt":"25/06/2026 11:52:13"},{"type":"lpg","price":0.765,"self":false,"updatedAt":"25/06/2026 11:52:13"}]},{"id":"58021","lat":42.121282895854605,"lon":14.302990223460759,"name":"RES CASOLI SS84","brand":"Pompe Bianche","address":"S.S. 84 KM. 51+562  66043, CASOLI, CH","prices":[{"type":"petrol","price":1.799,"self":true,"updatedAt":"25/06/2026 11:52:48"},{"type":"diesel","price":1.899,"self":true,"updatedAt":"25/06/2026 11:52:48"}]},{"id":"9435","lat":42.19269988013503,"lon":14.369336664676666,"name":"eni di franceschini","brand":"Agip Eni","address":"Statale 84 Frentana, Km. 72+320, dir. castel frentano  66032, CASTEL FRENTANO, CH","prices":[{"type":"petrol","price":1.829,"self":true,"updatedAt":"28/06/2026 01:28:16"},{"type":"diesel","price":1.899,"self":true,"updatedAt":"28/06/2026 01:28:16"}]},{"id":"25323","lat":42.23322707125807,"lon":14.462730183731082,"name":"Eni Fossacesia","brand":"Agip Eni","address":"SP EX SS 524 KM 8+710  SN 66022, FOSSACESIA, CH","prices":[{"type":"petrol","price":1.789,"self":true,"updatedAt":"28/06/2026 00:04:32"},{"type":"diesel","price":1.849,"self":true,"updatedAt":"28/06/2026 00:04:32"}]},{"id":"57511","lat":42.209034723310516,"lon":14.48997974395752,"name":"Self Area Thomas","brand":"Pompe Bianche","address":"STATALE 652 KM 78+344 SNC 66022, FOSSACESIA, CH","prices":[{"type":"petrol","price":1.87,"self":true,"updatedAt":"25/06/2026 15:56:25"},{"type":"diesel","price":1.966,"self":true,"updatedAt":"25/06/2026 15:56:25"}]},{"id":"54126","lat":42.062524280947464,"lon":14.275864362716714,"name":"PETROLSERVICE SRL","brand":"Pompe Bianche","address":"SAN SEBASTIANO 10 66010, GESSOPALENA, CH","prices":[{"type":"petrol","price":1.939,"self":true,"updatedAt":"26/06/2026 18:11:44"},{"type":"diesel","price":1.999,"self":true,"updatedAt":"26/06/2026 18:11:44"}]},{"id":"53630","lat":42.1910579,"lon":14.2585172,"name":"Verna Mattia","brand":"Pompe Bianche","address":"PIANO FONTI 52 66016, GUARDIAGRELE, CH","prices":[{"type":"petrol","price":1.809,"self":true,"updatedAt":"25/06/2026 08:31:29"},{"type":"diesel","price":1.909,"self":true,"updatedAt":"25/06/2026 08:31:29"}]},{"id":"57121","lat":42.182093,"lon":14.393605,"name":"Area di servizio ENI 26609","brand":"Agip Eni","address":"VILLA ELCE SNC 66034, LANCIANO, CH","prices":[{"type":"petrol","price":1.819,"self":true,"updatedAt":"28/06/2026 01:00:32"},{"type":"diesel","price":1.919,"self":true,"updatedAt":"28/06/2026 01:00:32"},{"type":"lpg","price":0.799,"self":false,"updatedAt":"27/06/2026 23:29:20"}]},{"id":"33960","lat":42.21744469574228,"lon":14.419393390417099,"name":"DI NUNZIO SRL","brand":"Pompe Bianche","address":"VIA ICONICELLA 326/B 66034, LANCIANO, CH","prices":[{"type":"petrol","price":1.809,"self":false,"updatedAt":"26/06/2026 10:07:56"},{"type":"diesel","price":1.879,"self":false,"updatedAt":"26/06/2026 10:07:56"},{"type":"methane","price":1.495,"self":false,"updatedAt":"26/06/2026 10:07:56"},{"type":"lpg","price":0.799,"self":false,"updatedAt":"26/06/2026 10:07:56"}]},{"id":"9111","lat":42.2258473063603,"lon":14.399688747325627,"name":"Eni Lanciano di Salomone Nicola & c.s.n.c","brand":"Agip Eni","address":"VIA PER FOSSACESIA 96 66034, LANCIANO, CH","prices":[{"type":"petrol","price":1.829,"self":true,"updatedAt":"28/06/2026 00:57:19"},{"type":"diesel","price":1.899,"self":true,"updatedAt":"28/06/2026 00:57:19"}]},{"id":"45244","lat":42.20991419724995,"lon":14.386967037549871,"name":"ESSO LANCIANO - SS 84 KM 75+170","brand":"Esso","address":"84 Frentana, Km. 75+170, Lanciano - 66034, LANCIANO, CH","prices":[{"type":"petrol","price":1.818,"self":true,"updatedAt":"28/06/2026 07:07:33"},{"type":"diesel","price":1.898,"self":true,"updatedAt":"28/06/2026 07:07:33"}]},{"id":"28404","lat":42.22646862267286,"lon":14.3876913699753,"name":"IP","brand":"Api-Ip","address":"CAPPUCCINI 29 66034, LANCIANO, CH","prices":[{"type":"petrol","price":1.879,"self":true,"updatedAt":"22/06/2026 22:48:30"},{"type":"diesel","price":1.999,"self":true,"updatedAt":"22/06/2026 22:48:30"}]},{"id":"27829","lat":42.225104961792454,"lon":14.405091488793946,"name":"IP G.L. Carburanti e gomme - Via G. Mameli","brand":"Api-Ip","address":"Via Iconicella snc 66034, LANCIANO, CH","prices":[{"type":"petrol","price":1.839,"self":false,"updatedAt":"25/06/2026 11:45:11"},{"type":"diesel","price":1.919,"self":false,"updatedAt":"25/06/2026 11:45:11"}]},{"id":"5526","lat":42.23199091592006,"lon":14.397363976686506,"name":"LANCIANO","brand":"Api-Ip","address":"Via del Mare 13/15 66034, LANCIANO, CH","prices":[{"type":"petrol","price":1.822,"self":true,"updatedAt":"27/06/2026 09:12:20"},{"type":"diesel","price":1.892,"self":true,"updatedAt":"27/06/2026 09:12:20"}]},{"id":"32194","lat":42.229790069722114,"lon":14.404611487102557,"name":"LANCIANO - S.P. SAN VITO","brand":"Api-Ip","address":"S.P. SAN VITO - LANCIANO KM. 7,754  66034, LANCIANO, CH","prices":[{"type":"petrol","price":1.822,"self":true,"updatedAt":"27/06/2026 09:04:52"},{"type":"diesel","price":1.892,"self":true,"updatedAt":"27/06/2026 09:04:52"}]},{"id":"6675","lat":42.22086426669915,"lon":14.389418363571167,"name":"LANCIANO VIA GUIDO ROSATO S.N.C.","brand":"Q8","address":"VIA GUIDO ROSATO S.N.C. 66030, LANCIANO, CH","prices":[{"type":"petrol","price":1.829,"self":true,"updatedAt":"24/06/2026 18:07:41"},{"type":"diesel","price":1.919,"self":true,"updatedAt":"24/06/2026 18:07:41"}]},{"id":"33919","lat":42.24560916938116,"lon":14.418964236974716,"name":"SOC. ITALIANA GAS LIQUIDI SPA di DELL'ELCE AGOSTINO","brand":"Pompe Bianche","address":"CONTRADA VILLA MARTELLI 342 66034, LANCIANO, CH","prices":[{"type":"lpg","price":0.789,"self":false,"updatedAt":"22/06/2026 15:09:02"}]},{"id":"23483","lat":42.23514222680647,"lon":14.396986216306686,"name":"stazione eni","brand":"Agip Eni","address":"VIA DEL MARE SNC 66034, LANCIANO, CH","prices":[{"type":"petrol","price":1.829,"self":true,"updatedAt":"28/06/2026 01:06:47"},{"type":"diesel","price":1.909,"self":true,"updatedAt":"28/06/2026 01:06:46"}]},{"id":"6293","lat":42.200907084879,"lon":14.468751919383635,"name":"Eni Mozzagrogna","brand":"Agip Eni","address":"SPADARIA PEDEMONTANA KM 4+140 SNC 66030, MOZZAGROGNA, CH","prices":[{"type":"petrol","price":1.809,"self":true,"updatedAt":"28/06/2026 00:33:26"},{"type":"diesel","price":1.879,"self":true,"updatedAt":"28/06/2026 00:33:26"},{"type":"lpg","price":0.799,"self":true,"updatedAt":"28/06/2026 00:33:26"}]},{"id":"21985","lat":42.17956798460181,"lon":14.460786581039429,"name":"TAMOIL SANGRO CARBURANTI","brand":"Tamoil","address":"Statale 652 di Fondo Valle Sangro, Km. 74+300, dir. atessa - 66030, MOZZAGROGNA, CH","prices":[{"type":"petrol","price":1.839,"self":true,"updatedAt":"28/06/2026 00:52:28"},{"type":"diesel","price":1.919,"self":true,"updatedAt":"28/06/2026 00:52:27"},{"type":"methane","price":1.479,"self":false,"updatedAt":"28/06/2026 00:52:27"}]},{"id":"49357","lat":42.21908548851843,"lon":14.278519153594965,"name":"ESSO","brand":"Tamoil","address":"ORTONESE SS 538 KM 18+149 SNC 66036, ORSOGNA, CH","prices":[{"type":"petrol","price":1.779,"self":true,"updatedAt":"25/06/2026 16:31:55"},{"type":"diesel","price":1.859,"self":true,"updatedAt":"25/06/2026 16:31:55"}]},{"id":"41335","lat":42.22002313558617,"lon":14.285705258452595,"name":"MASCITTI CARBURANTI","brand":"Mascitti","address":"Via Achille Rosica 1 66036, ORSOGNA, CH","prices":[{"type":"petrol","price":1.794,"self":true,"updatedAt":"23/06/2026 11:47:21"},{"type":"diesel","price":1.894,"self":true,"updatedAt":"23/06/2026 11:47:21"}]},{"id":"58562","lat":42.1760905157612,"lon":14.486591190090937,"name":"stazione IP","brand":"Api-Ip","address":"Contrada Sinaglia SNC 66020, PAGLIETA, CH","prices":[{"type":"petrol","price":1.827,"self":true,"updatedAt":"26/06/2026 16:33:23"},{"type":"diesel","price":1.917,"self":true,"updatedAt":"26/06/2026 16:33:23"}]},{"id":"44783","lat":42.10913050073304,"lon":14.375859126448631,"name":"PERANO","brand":"Pompe Bianche","address":"SS 154 KM 1+780  197 66040, PERANO, CH","prices":[{"type":"petrol","price":1.799,"self":true,"updatedAt":"24/06/2026 14:18:03"},{"type":"diesel","price":1.889,"self":true,"updatedAt":"26/06/2026 09:03:05"}]},{"id":"61109","lat":42.1075596955059,"lon":14.374215602874756,"name":"ROSS CARBURANTI DI ROSSETTI ANNA ANGELA","brand":"Pompe Bianche","address":"QUADRONI 22 66040, PERANO, CH","prices":[{"type":"petrol","price":1.859,"self":true,"updatedAt":"23/06/2026 17:19:27"},{"type":"diesel","price":1.959,"self":true,"updatedAt":"23/06/2026 17:19:27"}]},{"id":"33908","lat":42.070420142018314,"lon":14.315395504236221,"name":"ROCCACARBURANTI","brand":"Pompe Bianche","address":"C.da Collegrande  66040, ROCCASCALEGNA, CH","prices":[{"type":"petrol","price":1.994,"self":true,"updatedAt":"22/06/2026 09:42:14"},{"type":"diesel","price":2.023,"self":true,"updatedAt":"22/06/2026 09:42:14"}]},{"id":"59883","lat":42.1398903,"lon":14.3920223,"name":"OK SANT'EUSANIO DEL SANGRO","brand":"OK energie","address":"Contrada Brecciaio  66037, SANT'EUSANIO DEL SANGRO, CH","prices":[{"type":"petrol","price":1.779,"self":true,"updatedAt":"27/06/2026 12:58:00"},{"type":"diesel","price":1.859,"self":true,"updatedAt":"27/06/2026 12:58:00"}]},{"id":"26114","lat":42.214672750799494,"lon":14.434782564640045,"name":"16575 SANTA MARIA IMBARO CHIETI","brand":"Agip Eni","address":"S.S.524 KM.5,500  66030, SANTA MARIA IMBARO, CH","prices":[{"type":"petrol","price":1.784,"self":true,"updatedAt":"28/06/2026 00:25:30"},{"type":"diesel","price":1.819,"self":true,"updatedAt":"28/06/2026 00:25:30"}]},{"id":"47715","lat":42.21754700000002,"lon":14.442990326389301,"name":"SANTA MARIA IMBARO","brand":"Pompe Bianche","address":"VIA NAZIONALE PER LANCIANO 26 66030, SANTA MARIA IMBARO, CH","prices":[{"type":"petrol","price":1.783,"self":false,"updatedAt":"27/06/2026 08:05:07"},{"type":"diesel","price":1.833,"self":false,"updatedAt":"27/06/2026 08:05:07"}]},{"id":"50905","lat":42.037770545637635,"lon":14.411496650341217,"name":"IP TORNARECCIO","brand":"Api-Ip","address":"via Roma 56  64014, TORNARECCIO, CH","prices":[{"type":"petrol","price":1.819,"self":true,"updatedAt":"23/06/2026 14:49:48"},{"type":"diesel","price":1.929,"self":true,"updatedAt":"23/06/2026 14:49:48"}]}]