[{"id":"52330","lat":42.387140891083895,"lon":12.47075979258149,"name":"ENI LIVE","brand":"Pompe Bianche","address":"SS3 FLAMINIA KM 65+762 SNC 02046, MAGLIANO SABINA, RI","prices":[{"type":"petrol","price":1.835,"self":true,"updatedAt":"22/06/2026 07:53:09"},{"type":"diesel","price":1.919,"self":true,"updatedAt":"22/06/2026 07:53:09"},{"type":"lpg","price":0.722,"self":false,"updatedAt":"22/06/2026 07:53:09"}]},{"id":"49915","lat":42.362375743544135,"lon":12.484129859332898,"name":"ESSO di PERTICARANI DANIELE","brand":"Esso","address":"Viale XIII Giugno SNC 02046, MAGLIANO SABINA, RI","prices":[{"type":"petrol","price":1.889,"self":false,"updatedAt":"22/06/2026 13:15:37"},{"type":"diesel","price":1.989,"self":false,"updatedAt":"22/06/2026 13:15:37"}]},{"id":"36843","lat":42.364143,"lon":12.4788065,"name":"FLAMINIA EST","brand":"Agip Eni","address":"Autostrada A1 MILANO-NAPOLI, Km. 509, dir. NORD - 02046, MAGLIANO SABINA, RI","prices":[{"type":"petrol","price":1.837,"self":true,"updatedAt":"24/06/2026 00:21:58"},{"type":"diesel","price":1.936,"self":true,"updatedAt":"24/06/2026 00:21:58"},{"type":"lpg","price":0.799,"self":false,"updatedAt":"24/06/2026 00:21:58"}]},{"id":"6665","lat":42.36876409511893,"lon":12.471552167493883,"name":"MAGLIANO SABINA SP MAGLIANO SABINA-FRANGELLINI","brand":"Q8","address":"SP MAGLIANO SABINA-FRANGELLINI SNC 02046, MAGLIANO SABINA, RI","prices":[{"type":"petrol","price":1.829,"self":true,"updatedAt":"23/06/2026 01:40:46"},{"type":"diesel","price":1.919,"self":true,"updatedAt":"23/06/2026 01:40:46"}]},{"id":"59744","lat":42.3164,"lon":12.49183,"name":"FLAMINIA OVEST","brand":"Agip Eni","address":"Autostrada A1 MILANO-NAPOLI, dir. ROMA, MAGLIANO ROMANO, RM","prices":[{"type":"petrol","price":1.837,"self":true,"updatedAt":"24/06/2026 00:09:55"},{"type":"diesel","price":1.936,"self":true,"updatedAt":"24/06/2026 00:09:55"},{"type":"lpg","price":0.799,"self":false,"updatedAt":"24/06/2026 00:09:55"}]},{"id":"54769","lat":42.49944053092116,"lon":12.314300537109375,"name":"GIOVE OVEST","brand":"Esso","address":"Autostrada A1 MILANO-NAPOLI,  Km. 481, dir. Roma 05024, GIOVE, TR","prices":[{"type":"petrol","price":2.099,"self":true,"updatedAt":"22/06/2026 07:30:12"},{"type":"diesel","price":2.209,"self":true,"updatedAt":"22/06/2026 07:30:11"},{"type":"lpg","price":0.989,"self":false,"updatedAt":"22/06/2026 07:30:10"}]},{"id":"7547","lat":42.45203455362766,"lon":12.480492889881134,"name":"nunzi luca","brand":"Api-Ip","address":"Statale 3 Via Flaminia, Km. 74,400, dir. sud-nord  05035, NARNI, TR","prices":[{"type":"petrol","price":1.849,"self":true,"updatedAt":"23/06/2026 18:15:55"},{"type":"diesel","price":1.919,"self":true,"updatedAt":"23/06/2026 18:15:54"}]},{"id":"30425","lat":42.485160794801146,"lon":12.452387362718582,"name":"san liberato","brand":"Api-Ip","address":"N. 675 UMBRO LAZIALE KM. 53+935 05027, NARNI, TR","prices":[{"type":"petrol","price":1.829,"self":true,"updatedAt":"23/06/2026 08:48:37"},{"type":"diesel","price":1.919,"self":true,"updatedAt":"23/06/2026 08:48:37"},{"type":"methane","price":1.499,"self":false,"updatedAt":"23/06/2026 08:48:37"},{"type":"lpg","price":0.829,"self":false,"updatedAt":"23/06/2026 08:48:37"}]},{"id":"24661","lat":42.408811090437915,"lon":12.468844056129456,"name":"flaminia service","brand":"Pompe Bianche","address":"FLAMINIA KM. 68,750  05030, OTRICOLI, TR","prices":[{"type":"petrol","price":1.879,"self":true,"updatedAt":"22/06/2026 19:05:55"},{"type":"diesel","price":1.979,"self":true,"updatedAt":"22/06/2026 19:05:55"}]},{"id":"12122","lat":42.498710415347404,"lon":12.365788221359253,"name":"ENERPETROLI - PV PENNA IN TEVERINA - TR","brand":"Enerpetroli","address":"S.P. PENNESE KM.2,050  05028, PENNA IN TEVERINA, TR","prices":[{"type":"petrol","price":1.839,"self":true,"updatedAt":"19/06/2026 11:25:48"},{"type":"diesel","price":1.949,"self":true,"updatedAt":"19/06/2026 11:25:48"}]},{"id":"61252","lat":42.45175946532244,"lon":12.305492162704468,"name":"PV Enilive 27465","brand":"Agip Eni","address":"S.S 675 UMBRO LAZIALE KM 40940 SNC 01030, BASSANO IN TEVERINA, VT","prices":[{"type":"petrol","price":1.84,"self":true,"updatedAt":"24/06/2026 00:00:50"},{"type":"diesel","price":1.919,"self":true,"updatedAt":"24/06/2026 00:00:50"},{"type":"methane","price":1.479,"self":false,"updatedAt":"24/06/2026 00:00:50"},{"type":"lpg","price":0.732,"self":false,"updatedAt":"24/06/2026 00:00:50"}]},{"id":"60391","lat":42.48273,"lon":12.25037,"name":"BOMARZO","brand":"Pompe Bianche","address":"SP Bomarzese snc 01020, BOMARZO, VT","prices":[{"type":"petrol","price":1.575,"self":true,"updatedAt":"24/06/2026 00:00:54"},{"type":"diesel","price":1.645,"self":true,"updatedAt":"24/06/2026 00:00:54"}]},{"id":"61986","lat":42.3297024,"lon":12.2683392,"name":"FELGAS","brand":"Bianco Carburanti","address":"PROVINCIALE MASSARELLA KM.6,750 01030, CARBOGNANO, VT","prices":[{"type":"petrol","price":1.899,"self":true,"updatedAt":"15/06/2026 11:45:10"},{"type":"diesel","price":1.999,"self":true,"updatedAt":"15/06/2026 11:45:10"},{"type":"lpg","price":0.769,"self":false,"updatedAt":"15/06/2026 11:45:10"}]},{"id":"56507","lat":42.26563,"lon":12.39813,"name":"ENERPETROLI DI GIOVANNI DARIDA","brand":"Enerpetroli","address":"CIVITA CASTELLANA SNC 01030, CASTEL SANT'ELIA, VT","prices":[{"type":"petrol","price":1.829,"self":true,"updatedAt":"23/06/2026 13:38:38"},{"type":"diesel","price":1.949,"self":true,"updatedAt":"23/06/2026 13:38:38"}]},{"id":"58395","lat":42.2881,"lon":12.4166,"name":"54451 CIVITA CASTELLANA","brand":"Agip Eni","address":"Belvedere Falerii Veteres  01033, CIVITA CASTELLANA, VT","prices":[{"type":"petrol","price":1.829,"self":true,"updatedAt":"23/06/2026 23:26:56"},{"type":"diesel","price":1.919,"self":true,"updatedAt":"23/06/2026 23:26:56"}]},{"id":"11966","lat":42.332022403574925,"lon":12.448678134918282,"name":"CIVITACASTELLANA-SS.3 FLAMINIA KM.58+252","brand":"Q8","address":"SS.3 FLAMINIA KM.58+252 S/N 01033, CIVITA CASTELLANA, VT","prices":[{"type":"petrol","price":1.839,"self":true,"updatedAt":"24/06/2026 07:50:20"},{"type":"diesel","price":1.939,"self":true,"updatedAt":"24/06/2026 07:50:20"}]},{"id":"58532","lat":42.321874,"lon":12.435449,"name":"ENERPETROLI - PV CIVITA CASTELLANA FLAMINIA KM. 56 ESSO","brand":"Esso","address":"S.S. FLAMINIA KM. 56,600  01033, CIVITA CASTELLANA, VT","prices":[{"type":"petrol","price":1.829,"self":false,"updatedAt":"22/06/2026 12:19:42"},{"type":"diesel","price":1.929,"self":false,"updatedAt":"22/06/2026 12:19:42"}]},{"id":"51297","lat":42.30648396728192,"lon":12.411400000000015,"name":"ENERPETROLI - PV CIVITA CASTELLANA NEPESINA 2 VARIANTE - VT","brand":"Enerpetroli","address":"S.S. 311 VAR.NEPESINA KM. 18+550  01033, CIVITA CASTELLANA, VT","prices":[{"type":"petrol","price":1.819,"self":true,"updatedAt":"23/06/2026 12:00:39"},{"type":"diesel","price":1.919,"self":true,"updatedAt":"23/06/2026 12:00:39"},{"type":"lpg","price":0.769,"self":false,"updatedAt":"23/06/2026 12:00:39"}]},{"id":"29517","lat":42.279626697621374,"lon":12.369897365570068,"name":"ENERPETROLI - PV CIVITA CASTELLANA NEPESINA KM.13,400 - VT","brand":"Enerpetroli","address":"S.P. NEPESINA KM. 13+400  01033, CIVITA CASTELLANA, VT","prices":[{"type":"petrol","price":1.819,"self":true,"updatedAt":"22/06/2026 12:18:25"},{"type":"diesel","price":1.919,"self":true,"updatedAt":"22/06/2026 12:18:25"},{"type":"lpg","price":0.769,"self":false,"updatedAt":"22/06/2026 12:18:25"}]},{"id":"35624","lat":42.30531421506271,"lon":12.418842315673828,"name":"ENERPETROLI - PV CIVITA CASTELLANA VIA TERNI - VT","brand":"Enerpetroli","address":"VIA TERNI  01033, CIVITA CASTELLANA, VT","prices":[{"type":"petrol","price":1.819,"self":true,"updatedAt":"22/06/2026 12:19:06"},{"type":"diesel","price":1.919,"self":true,"updatedAt":"22/06/2026 12:19:06"},{"type":"lpg","price":0.769,"self":false,"updatedAt":"22/06/2026 12:19:06"}]},{"id":"49481","lat":42.346450522205345,"lon":12.45694489189032,"name":"IP DI MILIA EMANUELE","brand":"Api-Ip","address":"3 Via Flaminia, Km. 60,900, TERNI - 01033, CIVITA CASTELLANA, VT","prices":[{"type":"petrol","price":1.869,"self":true,"updatedAt":"19/06/2026 18:55:15"},{"type":"diesel","price":1.959,"self":true,"updatedAt":"19/06/2026 18:55:15"}]},{"id":"11168","lat":42.295474336628715,"lon":12.413963815938587,"name":"Oroenergy snc","brand":"Agip Eni","address":"TERNI 1/A 01033, CIVITA CASTELLANA, VT","prices":[{"type":"petrol","price":1.829,"self":true,"updatedAt":"23/06/2026 23:21:02"},{"type":"diesel","price":1.919,"self":true,"updatedAt":"23/06/2026 23:21:02"}]},{"id":"62204","lat":42.315222413707446,"lon":12.426475236786953,"name":"Q8 Civita Castellana Di Bari Yari","brand":"Q8","address":"Via Terni km 20+723  01033, CIVITA CASTELLANA, VT","prices":[{"type":"petrol","price":1.839,"self":true,"updatedAt":"23/06/2026 08:11:34"},{"type":"diesel","price":1.959,"self":true,"updatedAt":"23/06/2026 08:11:34"}]},{"id":"27390","lat":42.3006654,"lon":12.4073423,"name":"Stazione di Servizio IP di Cioccolini Loreno","brand":"Api-Ip","address":"Via Corchiano 36  01033, CIVITA CASTELLANA, VT","prices":[{"type":"petrol","price":1.849,"self":true,"updatedAt":"22/06/2026 15:11:55"},{"type":"diesel","price":1.939,"self":true,"updatedAt":"22/06/2026 15:11:55"}]},{"id":"60390","lat":42.344926,"lon":12.355668,"name":"CORCHIANO","brand":"Pompe Bianche","address":"Via Civita Castellana 46  01030, CORCHIANO, VT","prices":[{"type":"petrol","price":1.625,"self":true,"updatedAt":"24/06/2026 00:36:09"},{"type":"diesel","price":1.595,"self":true,"updatedAt":"24/06/2026 00:36:09"}]},{"id":"25227","lat":42.29795170000001,"lon":12.379727,"name":"Fabrica di roma","brand":"Cancellieri carburanti","address":"VIA PROV.LE FALERIENSE KM 8+744 SNC 01034, FABRICA DI ROMA (VT) KM. 8+744 01034, FABRICA DI ROMA, VT","prices":[{"type":"petrol","price":1.859,"self":true,"updatedAt":"23/06/2026 22:01:24"},{"type":"diesel","price":1.959,"self":true,"updatedAt":"23/06/2026 22:01:23"},{"type":"lpg","price":0.739,"self":false,"updatedAt":"23/06/2026 22:01:23"}]},{"id":"27196","lat":42.3184670047087,"lon":12.385816276073456,"name":"PEGASO SAS","brand":"Pompe Bianche","address":"LOCALITA' QUARTACCIO SNC 01034, FABRICA DI ROMA, VT","prices":[{"type":"petrol","price":1.869,"self":true,"updatedAt":"23/06/2026 23:24:25"},{"type":"diesel","price":1.969,"self":true,"updatedAt":"23/06/2026 23:24:25"}]},{"id":"57323","lat":42.305652332021694,"lon":12.3488038033247,"name":"Q8 stazione di servizio di Agnelli Paolo","brand":"Q8","address":"S.P. FALERINA KM 5,600 . 01034, FABRICA DI ROMA, VT","prices":[{"type":"petrol","price":1.839,"self":true,"updatedAt":"23/06/2026 20:59:01"},{"type":"diesel","price":1.929,"self":true,"updatedAt":"23/06/2026 20:59:01"}]},{"id":"30923","lat":42.33359079648655,"lon":12.302594348652974,"name":"Tamoil","brand":"Tamoil","address":"VIA DEGLI EROI 89 01034, FABRICA DI ROMA, VT","prices":[{"type":"petrol","price":1.859,"self":true,"updatedAt":"24/06/2026 00:36:22"},{"type":"diesel","price":1.959,"self":true,"updatedAt":"24/06/2026 00:36:22"}]},{"id":"16345","lat":42.31749102505903,"lon":12.38474370552252,"name":"Tamoil","brand":"Tamoil","address":"LOCALITA' QUARTACCIO SNC 01028, FABRICA DI ROMA, VT","prices":[{"type":"petrol","price":1.859,"self":true,"updatedAt":"23/06/2026 14:02:30"},{"type":"diesel","price":1.959,"self":true,"updatedAt":"23/06/2026 14:02:30"},{"type":"lpg","price":0.739,"self":false,"updatedAt":"23/06/2026 23:40:48"}]},{"id":"23884","lat":42.33303461474845,"lon":12.299445136064833,"name":"Tamoil","brand":"Tamoil","address":"VIA ROMA SNC 01034, FABRICA DI ROMA, VT","prices":[{"type":"petrol","price":1.859,"self":true,"updatedAt":"23/06/2026 14:05:39"},{"type":"diesel","price":1.959,"self":true,"updatedAt":"23/06/2026 14:05:39"}]},{"id":"40648","lat":42.374282987276665,"lon":12.445203065872192,"name":"Enerpetroli","brand":"Enerpetroli","address":"STRADA S.315 KM 3,680 01035, GALLESE, VT","prices":[{"type":"petrol","price":1.929,"self":false,"updatedAt":"24/06/2026 07:09:45"},{"type":"diesel","price":1.999,"self":false,"updatedAt":"24/06/2026 07:09:45"},{"type":"lpg","price":0.809,"self":false,"updatedAt":"24/06/2026 07:09:45"}]},{"id":"29358","lat":42.37471475538046,"lon":12.398419976234436,"name":"MONTI ANTONIO E FIGLI S.N.C.","brand":"Pompe Bianche","address":"SAN FRANCESCO SNC 01035, GALLESE, VT","prices":[{"type":"petrol","price":1.899,"self":true,"updatedAt":"23/06/2026 11:36:05"},{"type":"diesel","price":1.969,"self":true,"updatedAt":"23/06/2026 11:36:05"}]},{"id":"46861","lat":42.458303269316964,"lon":12.386963758672323,"name":"8137","brand":"Tamoil","address":"S.S. 204 ORTANA KM 28,220 SNC 01028, ORTE, VT","prices":[{"type":"petrol","price":1.859,"self":true,"updatedAt":"23/06/2026 13:35:30"},{"type":"diesel","price":1.969,"self":true,"updatedAt":"23/06/2026 13:35:30"}]},{"id":"51977","lat":42.45272215045899,"lon":12.407545814732556,"name":"AP FUEL ORTE","brand":"AP Fuel","address":"SP151 ORTANA KM31,236 VIATERNI 12 01028, ORTE, VT","prices":[{"type":"petrol","price":1.889,"self":true,"updatedAt":"19/06/2026 16:03:11"},{"type":"diesel","price":1.979,"self":true,"updatedAt":"19/06/2026 16:03:11"}]},{"id":"42875","lat":42.43885597933646,"lon":12.40800200219769,"name":"ENERPETROLI","brand":"Enerpetroli","address":"CORSO GARIBALDI SNC 01028, ORTE, VT","prices":[{"type":"petrol","price":1.939,"self":false,"updatedAt":"21/06/2026 15:52:05"},{"type":"diesel","price":1.999,"self":false,"updatedAt":"21/06/2026 15:52:05"}]},{"id":"47071","lat":42.46034798335777,"lon":12.418895959854128,"name":"ENI ORTE - AREA SERVIZIO UMBRIA","brand":"Q8","address":"204 Ortana, Km. 32+536, Terni - 01028, ORTE, VT","prices":[{"type":"petrol","price":1.879,"self":true,"updatedAt":"24/06/2026 01:08:43"},{"type":"diesel","price":1.979,"self":true,"updatedAt":"24/06/2026 01:08:43"},{"type":"lpg","price":0.789,"self":false,"updatedAt":"24/06/2026 01:08:43"}]},{"id":"26773","lat":42.45983277837481,"lon":12.377969243516532,"name":"ORTE","brand":"Q8","address":"VIA RIFUGIO 6 01028, ORTE, VT","prices":[{"type":"petrol","price":1.879,"self":false,"updatedAt":"24/06/2026 07:38:18"},{"type":"diesel","price":1.989,"self":false,"updatedAt":"24/06/2026 07:38:18"}]},{"id":"20904","lat":42.451737497774374,"lon":12.406679168343544,"name":"ORTE VIA TIBERINA-S.P.151","brand":"Q8","address":"VIA TIBERINA-S.P.151  01028, ORTE, VT","prices":[{"type":"petrol","price":1.939,"self":true,"updatedAt":"24/06/2026 01:42:25"},{"type":"diesel","price":2.029,"self":true,"updatedAt":"24/06/2026 01:42:25"}]},{"id":"34774","lat":42.463631801395415,"lon":12.42296433553463,"name":"T.e.e.g. s.n.c.","brand":"Esso","address":"Statale 675 Umbro-Laziale, Km. 33,080, dir. sud - 01028, ORTE, VT","prices":[{"type":"petrol","price":1.879,"self":true,"updatedAt":"22/06/2026 17:00:24"},{"type":"diesel","price":1.989,"self":true,"updatedAt":"22/06/2026 17:00:24"},{"type":"lpg","price":0.789,"self":false,"updatedAt":"22/06/2026 17:00:24"}]},{"id":"44149","lat":42.26059647897048,"lon":12.269296998147638,"name":"7108","brand":"Tamoil","address":"S.P. CASSIA CIMINA SNC 01037, RONCIGLIONE, VT","prices":[{"type":"petrol","price":1.789,"self":true,"updatedAt":"24/06/2026 01:09:03"},{"type":"diesel","price":1.889,"self":true,"updatedAt":"24/06/2026 01:09:03"},{"type":"lpg","price":0.719,"self":false,"updatedAt":"24/06/2026 00:15:35"}]},{"id":"58233","lat":42.46243,"lon":12.26503,"name":"17496  SORIANO NEL CIMINO","brand":"Agip Eni","address":"SUPERSTRADA VITERBO ORTE 675  KM 44  SNC, SORIANO NEL CIMINO, VT","prices":[{"type":"petrol","price":1.819,"self":true,"updatedAt":"23/06/2026 23:59:16"},{"type":"diesel","price":1.919,"self":true,"updatedAt":"23/06/2026 23:59:16"},{"type":"lpg","price":0.747,"self":false,"updatedAt":"23/06/2026 23:59:16"}]},{"id":"60842","lat":42.44017655766,"lon":12.256913334131,"name":"Q8 Soriano Nel Cimino","brand":"Q8","address":"S. P. Molinella Loc. Pian Di Rosciano snc 01038, SORIANO NEL CIMINO, VT","prices":[{"type":"petrol","price":1.839,"self":true,"updatedAt":"20/06/2026 19:50:53"},{"type":"diesel","price":1.949,"self":true,"updatedAt":"20/06/2026 19:50:53"},{"type":"lpg","price":0.747,"self":false,"updatedAt":"20/06/2026 19:50:53"}]},{"id":"57510","lat":42.37859,"lon":12.25845,"name":"TIBER VALLERANO","brand":"Q8","address":"PROV.LE VAR. CANEPINESE KM 3+700 01030, VALLERANO, VT","prices":[{"type":"petrol","price":1.847,"self":true,"updatedAt":"23/06/2026 10:10:11"},{"type":"diesel","price":1.927,"self":true,"updatedAt":"23/06/2026 10:10:11"},{"type":"lpg","price":0.737,"self":false,"updatedAt":"23/06/2026 23:34:05"}]},{"id":"33245","lat":42.416187570934824,"lon":12.351682828376397,"name":"TIBER","brand":"Q8","address":"VIA SAN LANNO 30 01030, VASANELLO, VT","prices":[{"type":"petrol","price":1.867,"self":true,"updatedAt":"23/06/2026 15:39:40"},{"type":"diesel","price":1.957,"self":true,"updatedAt":"23/06/2026 15:39:40"}]},{"id":"55050","lat":42.40173050441107,"lon":12.294354993813709,"name":"Farnese Carburanti Snc Vignanello","brand":"Agip Eni","address":"S.P. 33 KM 7,351 01039, VIGNANELLO, VT","prices":[{"type":"petrol","price":1.839,"self":true,"updatedAt":"24/06/2026 00:15:06"},{"type":"diesel","price":1.919,"self":true,"updatedAt":"24/06/2026 00:15:06"},{"type":"lpg","price":0.747,"self":false,"updatedAt":"24/06/2026 00:15:06"}]},{"id":"21902","lat":42.398408898780836,"lon":12.296748161315918,"name":"VIGNANELLO VIA GALLESE K.8+391","brand":"Q8","address":"VIA GALLESE K.8+391  01039, VIGNANELLO, VT","prices":[{"type":"petrol","price":1.837,"self":true,"updatedAt":"23/06/2026 01:40:44"},{"type":"diesel","price":1.917,"self":true,"updatedAt":"23/06/2026 01:40:44"}]}]