[{"id":"29676","lat":42.41494987355314,"lon":11.36535108089447,"name":"AUTOGRILL CAPALBIO","brand":"Pompe Bianche","address":"Statale 1 Via Aurelia, Km. 132+150, dir. SUD  58011, CAPALBIO, GR","prices":[{"type":"petrol","price":1.856,"self":true,"updatedAt":"20/06/2026 08:49:04"},{"type":"diesel","price":1.956,"self":true,"updatedAt":"20/06/2026 08:49:04"},{"type":"lpg","price":0.79,"self":false,"updatedAt":"20/06/2026 08:49:04"}]},{"id":"29614","lat":42.4149039604422,"lon":11.407037550926248,"name":"CAPALBIO - AURELIA","brand":"Api-Ip","address":"SS 1 AURELIA KM 128,720  58011, CAPALBIO, GR","prices":[{"type":"petrol","price":1.839,"self":true,"updatedAt":"20/06/2026 09:02:03"},{"type":"diesel","price":1.929,"self":true,"updatedAt":"20/06/2026 09:02:03"},{"type":"lpg","price":0.793,"self":false,"updatedAt":"20/06/2026 09:02:03"}]},{"id":"6573","lat":42.41502670808588,"lon":11.351958741738827,"name":"CAPALBIO LC.NUNZIATELLA S.S. 1 AURELIA KM. 133","brand":"Q8","address":"S.S. 1 AURELIA KM. 133 LC.NUNZIATELLA SNC 58100, CAPALBIO, GR","prices":[{"type":"petrol","price":1.857,"self":true,"updatedAt":"20/06/2026 08:14:53"},{"type":"diesel","price":1.957,"self":true,"updatedAt":"20/06/2026 08:14:53"}]},{"id":"51433","lat":42.41462638642552,"lon":11.384947744152896,"name":"capalbio sud - l'oasi di Capalbio","brand":"Pompe Bianche","address":"1 Via Aurelia, Km. 130, roma - 58011, CAPALBIO, GR","prices":[{"type":"petrol","price":1.834,"self":true,"updatedAt":"20/06/2026 09:02:48"},{"type":"diesel","price":1.927,"self":true,"updatedAt":"20/06/2026 09:02:48"},{"type":"lpg","price":0.793,"self":false,"updatedAt":"20/06/2026 09:02:48"}]},{"id":"56234","lat":42.42483,"lon":11.41608,"name":"ENERPETROLI - PV CAPALBIO BORGO CARIGE","brand":"Enerpetroli","address":"S.P. CAPALBIO - LOC. BORGO CARIGE  58011, CAPALBIO, GR","prices":[{"type":"petrol","price":1.839,"self":true,"updatedAt":"19/06/2026 17:33:00"},{"type":"diesel","price":1.939,"self":true,"updatedAt":"19/06/2026 17:33:00"}]},{"id":"58942","lat":42.4150868,"lon":11.4263867,"name":"PANTA","brand":"Pompe Bianche","address":"SS 1   58011, CAPALBIO, GR","prices":[{"type":"petrol","price":1.869,"self":true,"updatedAt":"19/06/2026 08:36:23"},{"type":"diesel","price":1.999,"self":true,"updatedAt":"19/06/2026 08:36:23"},{"type":"lpg","price":0.793,"self":false,"updatedAt":"19/06/2026 08:36:23"}]},{"id":"10874","lat":42.40155047471082,"lon":11.497970223426819,"name":"IL CHIARONE DISTRIBUTORE IP","brand":"Api-Ip","address":"PIAZZA DELLE MIMOSE LOC. PESCIA ROMANA 3 01014, MONTALTO DI CASTRO (VT), MONTALTO DI CASTRO, VT","prices":[{"type":"petrol","price":1.899,"self":true,"updatedAt":"19/06/2026 17:29:52"},{"type":"diesel","price":1.979,"self":true,"updatedAt":"19/06/2026 17:29:52"}]},{"id":"56472","lat":42.393681,"lon":11.495113,"name":"PV ENERPETROLI PESCIA ROMANA","brand":"Enerpetroli","address":"VIA DEI PINI  01014, MONTALTO DI CASTRO, VT","prices":[{"type":"petrol","price":1.919,"self":false,"updatedAt":"19/06/2026 17:05:10"},{"type":"diesel","price":2.019,"self":false,"updatedAt":"19/06/2026 17:05:10"}]}]