[{"id":"46138","lat":42.32401112037127,"lon":13.515157991741944,"name":"L'Aquila - Barisciano","brand":"Beyfin","address":"Località Collerendola  67021, BARISCIANO, AQ","prices":[{"type":"petrol","price":1.859,"self":false,"updatedAt":"21/06/2026 00:17:57"},{"type":"diesel","price":1.939,"self":false,"updatedAt":"21/06/2026 00:17:57"},{"type":"methane","price":1.699,"self":false,"updatedAt":"21/06/2026 00:45:17"},{"type":"lpg","price":0.839,"self":false,"updatedAt":"21/06/2026 00:45:17"}]},{"id":"59023","lat":42.36646545057875,"lon":13.723398570951556,"name":"XFUEL CASTEL DEL MONTE","brand":"Pompe Bianche","address":"Piazzale del Lago SNC 67023, CASTEL DEL MONTE, AQ","prices":[{"type":"petrol","price":2.029,"self":true,"updatedAt":"19/06/2026 16:39:57"},{"type":"diesel","price":2.079,"self":true,"updatedAt":"19/06/2026 16:39:57"}]},{"id":"48120","lat":42.286268699526836,"lon":13.745843213537512,"name":"Vulcangas 1020","brand":"Agip Eni","address":"153 della Valle del Tirino, Km. 15+350, OVEST - 67025, OFENA, AQ","prices":[{"type":"petrol","price":1.869,"self":true,"updatedAt":"21/06/2026 00:50:28"},{"type":"diesel","price":1.989,"self":true,"updatedAt":"21/06/2026 00:50:28"},{"type":"lpg","price":0.799,"self":false,"updatedAt":"20/06/2026 23:53:50"}]},{"id":"18783","lat":42.29493237672296,"lon":13.537421375513077,"name":"IP","brand":"Api-Ip","address":"S.S. 261 KM 4+912 SNC 67028, SAN DEMETRIO NE' VESTINI, AQ","prices":[{"type":"petrol","price":1.869,"self":true,"updatedAt":"18/06/2026 09:07:57"},{"type":"diesel","price":1.939,"self":true,"updatedAt":"18/06/2026 09:07:57"}]},{"id":"47045","lat":42.27254159068116,"lon":13.561917937646967,"name":"MIRCO FABRIZIO 2","brand":"Api-Ip","address":"261 KM. 6+094 S.N.C. 67028, SAN DEMETRIO NE' VESTINI, AQ","prices":[{"type":"petrol","price":1.869,"self":true,"updatedAt":"18/06/2026 09:08:25"},{"type":"diesel","price":1.939,"self":true,"updatedAt":"18/06/2026 09:08:25"}]},{"id":"53931","lat":42.293463,"lon":13.6372344,"name":"6022","brand":"Tamoil","address":"SS 17 KM 58+285 SNC 67020, SAN PIO DELLE CAMERE, AQ","prices":[{"type":"petrol","price":1.799,"self":true,"updatedAt":"21/06/2026 00:25:15"},{"type":"diesel","price":1.929,"self":true,"updatedAt":"21/06/2026 00:25:14"},{"type":"lpg","price":0.799,"self":false,"updatedAt":"21/06/2026 00:25:14"}]},{"id":"56132","lat":42.48866122204884,"lon":13.710821812907996,"name":"Stazione di Servizio Comunale - Comune di Castelli","brand":"Pompe Bianche","address":"VIA F.A. GRUE - S.P. 37  64041, CASTELLI, TE","prices":[{"type":"petrol","price":1.953,"self":true,"updatedAt":"15/06/2026 10:51:55"},{"type":"diesel","price":2.01,"self":true,"updatedAt":"15/06/2026 10:51:55"}]}]