[{"id":"47810","lat":42.932170113147784,"lon":13.084964600108947,"name":"ESSO - VISSO S.P. 209 Km 67+912","brand":"Esso","address":"S.P. 209 KM 67+912  62039, VISSO, MC","prices":[{"type":"petrol","price":1.849,"self":true,"updatedAt":"23/06/2026 07:35:55"},{"type":"diesel","price":1.949,"self":true,"updatedAt":"23/06/2026 07:35:55"},{"type":"lpg","price":0.839,"self":false,"updatedAt":"23/06/2026 07:35:55"}]},{"id":"17931","lat":42.78965964841628,"lon":13.095054030418396,"name":"API DI BRANDIMARTE G.BATTISTA","brand":"Api-Ip","address":"VIALE DELLA STAZIONE/CIRCONVAL. SNC 06046, NORCIA, PG","prices":[{"type":"petrol","price":1.759,"self":true,"updatedAt":"28/04/2026 16:41:18"},{"type":"diesel","price":2.139,"self":true,"updatedAt":"28/04/2026 16:41:18"}]},{"id":"57290","lat":42.795712606109014,"lon":13.09094287455082,"name":"IP NORCIA SUBASIO PETROLI SRL","brand":"Api-Ip","address":"Viale Umbria 12 06046, NORCIA, PG","prices":[{"type":"petrol","price":1.829,"self":true,"updatedAt":"22/06/2026 15:24:05"},{"type":"diesel","price":1.929,"self":true,"updatedAt":"22/06/2026 15:24:05"}]},{"id":"63223","lat":42.7899045,"lon":13.0946246,"name":"italiana petroli spa","brand":"Api-Ip","address":"Circonvallazione di Norcia 9  06046, NORCIA, PG","prices":[{"type":"petrol","price":1.829,"self":true,"updatedAt":"22/06/2026 18:43:07"},{"type":"diesel","price":1.929,"self":true,"updatedAt":"22/06/2026 18:43:07"}]},{"id":"61948","lat":42.787285,"lon":13.096325,"name":"PV ENERPETROLI NORCIA (ESSO)","brand":"Esso","address":"VIA DELLA STAZIONE SNC 06046, NORCIA, PG","prices":[{"type":"petrol","price":1.829,"self":true,"updatedAt":"23/06/2026 11:56:02"},{"type":"diesel","price":1.919,"self":true,"updatedAt":"23/06/2026 11:56:02"}]}]