[{"id":"8499","lat":42.852246167501626,"lon":13.55448693037033,"name":"STAZIONE DI SERVIZIO BAR TAMOIL DI AMATUCCI CLAUDIO","brand":"Tamoil","address":"Viale Treviri 209 63100, ASCOLI PICENO, AP","prices":[{"type":"petrol","price":1.899,"self":true,"updatedAt":"19/06/2026 12:15:53"},{"type":"diesel","price":1.999,"self":true,"updatedAt":"19/06/2026 12:15:53"}]},{"id":"35662","lat":42.83968,"lon":13.646271,"name":"17310 Ascoli Mare","brand":"Agip Eni","address":"RACC. AUTOSTR. ASCOLI-MARE KM 3+820 63100, ASCOLI PICENO, AP","prices":[{"type":"petrol","price":1.819,"self":true,"updatedAt":"21/06/2026 00:36:11"},{"type":"diesel","price":1.899,"self":true,"updatedAt":"21/06/2026 00:36:11"},{"type":"lpg","price":0.742,"self":false,"updatedAt":"21/06/2026 23:47:22"}]},{"id":"27708","lat":42.853976928253104,"lon":13.701517581939697,"name":"7626","brand":"Tamoil","address":"CAMPOLUNGO SNC 63100, ASCOLI PICENO, AP","prices":[{"type":"petrol","price":1.819,"self":true,"updatedAt":"22/06/2026 00:31:36"},{"type":"diesel","price":1.879,"self":true,"updatedAt":"22/06/2026 00:31:36"},{"type":"methane","price":1.359,"self":false,"updatedAt":"22/06/2026 00:31:36"}]},{"id":"41125","lat":42.861746949077684,"lon":13.590261279762217,"name":"ARCHE' ASCOLI PICENO","brand":"Pompe Bianche","address":"VIA ZEPPELLE 99 63100, ASCOLI PICENO, AP","prices":[{"type":"petrol","price":1.799,"self":true,"updatedAt":"19/06/2026 15:21:07"},{"type":"diesel","price":1.899,"self":true,"updatedAt":"19/06/2026 15:21:07"}]},{"id":"60313","lat":42.8614875,"lon":13.6416655,"name":"ASCOLI PICENO","brand":"Pompe Bianche","address":"Via Emidio Luzi 43  63100, ASCOLI PICENO, AP","prices":[{"type":"petrol","price":1.749,"self":true,"updatedAt":"21/06/2026 23:19:22"},{"type":"diesel","price":1.876,"self":true,"updatedAt":"21/06/2026 23:19:22"}]},{"id":"10088","lat":42.85416058030797,"lon":13.592567592859268,"name":"Ascoli Piceno","brand":"Api-Ip","address":"Viale dell'indipendenza  63100, ASCOLI PICENO, AP","prices":[{"type":"petrol","price":1.799,"self":true,"updatedAt":"21/06/2026 09:15:15"},{"type":"diesel","price":1.899,"self":true,"updatedAt":"21/06/2026 09:15:15"}]},{"id":"30395","lat":42.85048033589845,"lon":13.610724898147623,"name":"ASCOLI PICENO - TEVERE 282","brand":"Api-Ip","address":"VIA TEVERE 282 63100, ASCOLI PICENO, AP","prices":[{"type":"petrol","price":1.819,"self":true,"updatedAt":"21/06/2026 09:00:29"},{"type":"diesel","price":1.919,"self":true,"updatedAt":"21/06/2026 09:00:29"}]},{"id":"11463","lat":42.845423598861935,"lon":13.62163830919269,"name":"ASCOLI PICENO-VIA DEL COMMERCIO","brand":"Q8","address":"VIA DEL COMMERCIO S/N 63100, ASCOLI PICENO, AP","prices":[{"type":"petrol","price":1.819,"self":true,"updatedAt":"20/06/2026 01:40:35"},{"type":"diesel","price":1.899,"self":true,"updatedAt":"20/06/2026 01:40:35"}]},{"id":"60310","lat":42.858533,"lon":13.579269,"name":"Easy Service Ascoli Piceno","brand":"Q8","address":"VIALE VELLEI 7/A 63100, ASCOLI PICENO, AP","prices":[{"type":"petrol","price":1.799,"self":true,"updatedAt":"22/06/2026 00:38:24"},{"type":"diesel","price":1.899,"self":true,"updatedAt":"22/06/2026 00:38:24"}]},{"id":"57023","lat":42.85332030980939,"lon":13.598058665670795,"name":"ENI DI EVANGELISTI MAURO E C SAS","brand":"Agip Eni","address":"VIA DELLA REPUBBLICA 13 63100, ASCOLI PICENO, AP","prices":[{"type":"petrol","price":1.784,"self":true,"updatedAt":"21/06/2026 15:04:02"},{"type":"diesel","price":1.859,"self":true,"updatedAt":"21/06/2026 15:04:02"}]},{"id":"43680","lat":42.85039234385275,"lon":13.622479670608545,"name":"eni di evangelisti sAS","brand":"Agip Eni","address":"VIA DEI GIRASOLI  2 63100, ASCOLI PICENO, AP","prices":[{"type":"petrol","price":1.839,"self":true,"updatedAt":"21/06/2026 00:36:23"},{"type":"diesel","price":1.944,"self":true,"updatedAt":"21/06/2026 00:36:23"}]},{"id":"62440","lat":42.836685496591635,"lon":13.633092702160651,"name":"Eredi Celani Luigi s.r.l. Metano","brand":"Pompe Bianche","address":"Via Navicella 123 63100, ASCOLI PICENO, AP","prices":[{"type":"methane","price":1.35,"self":false,"updatedAt":"19/06/2026 18:00:49"}]},{"id":"59561","lat":42.851487,"lon":13.59048,"name":"ESSO ASCOLI PICENO VIA E. MARI","brand":"Esso","address":"ERASMO MARI SNC 63100, ASCOLI PICENO, AP","prices":[{"type":"petrol","price":1.819,"self":true,"updatedAt":"22/06/2026 07:09:59"},{"type":"diesel","price":1.919,"self":true,"updatedAt":"22/06/2026 07:09:59"}]},{"id":"51882","lat":42.849967397275535,"lon":13.625977021539335,"name":"F.lli fioravanti s.n.c.","brand":"Agip Eni","address":"VIA DEI GIRASOLI SNC 63100, ASCOLI PICENO, AP","prices":[{"type":"petrol","price":1.819,"self":true,"updatedAt":"22/06/2026 07:56:04"},{"type":"diesel","price":1.914,"self":true,"updatedAt":"22/06/2026 07:56:04"}]},{"id":"44231","lat":42.855002000123,"lon":13.700925000123,"name":"GOLDENGAS area servizio API Ascoli Z.I. Campolungo","brand":"Api-Ip","address":"ZONA INDUSTRIALE CAMPOLUNGO SNC 63100, ASCOLI PICENO, AP","prices":[{"type":"petrol","price":1.829,"self":false,"updatedAt":"21/06/2026 09:02:08"},{"type":"diesel","price":1.909,"self":false,"updatedAt":"21/06/2026 09:02:08"},{"type":"methane","price":1.359,"self":false,"updatedAt":"21/06/2026 09:02:08"},{"type":"lpg","price":0.839,"self":false,"updatedAt":"21/06/2026 09:02:08"}]},{"id":"48070","lat":42.85253354389749,"lon":13.605246231816777,"name":"GOLDENGAS Q8","brand":"Q8","address":"VIA ZEPPELLE SNC 63100, ASCOLI PICENO, AP","prices":[{"type":"petrol","price":1.839,"self":true,"updatedAt":"21/06/2026 09:02:13"},{"type":"diesel","price":1.919,"self":true,"updatedAt":"21/06/2026 09:02:13"},{"type":"lpg","price":0.799,"self":false,"updatedAt":"21/06/2026 09:02:13"}]},{"id":"55283","lat":42.8609053431835,"lon":13.595138609313961,"name":"IP ASCOLI PICENO","brand":"Api-Ip","address":"Via delle Zeppelle  63100, ASCOLI PICENO, AP","prices":[{"type":"petrol","price":1.799,"self":true,"updatedAt":"22/06/2026 00:51:18"},{"type":"diesel","price":1.899,"self":true,"updatedAt":"22/06/2026 00:51:18"},{"type":"methane","price":1.499,"self":false,"updatedAt":"22/06/2026 00:30:41"},{"type":"lpg","price":0.799,"self":false,"updatedAt":"22/06/2026 00:30:41"}]},{"id":"62441","lat":42.84461617065738,"lon":13.61044597063905,"name":"IP Castagneti - Eredi Celani Luigi s.r.l.","brand":"Api-Ip","address":"Via Calzecchi Onesti 3 63100, ASCOLI PICENO, AP","prices":[{"type":"petrol","price":1.785,"self":true,"updatedAt":"19/06/2026 18:00:39"},{"type":"diesel","price":1.885,"self":true,"updatedAt":"19/06/2026 18:00:39"}]},{"id":"50786","lat":42.857942933524306,"lon":13.71755874650372,"name":"M. CARBURANTIN SRL","brand":"Pompe Bianche","address":"Via Mutilati del lavoro snc 63100, ASCOLI PICENO, AP","prices":[{"type":"petrol","price":2.149,"self":true,"updatedAt":"20/06/2026 10:02:17"},{"type":"diesel","price":2.289,"self":true,"updatedAt":"20/06/2026 10:02:17"},{"type":"lpg","price":0.857,"self":false,"updatedAt":"20/06/2026 10:02:17"}]},{"id":"56375","lat":42.853313,"lon":13.604697,"name":"PAD ASCOLI PICENO S.S.4 KM.206,800 (loc MONTICELLI)","brand":"PAD","address":"S.S. 4 KM 206+800 SN 63100, ASCOLI PICENO, AP","prices":[{"type":"petrol","price":1.799,"self":true,"updatedAt":"22/06/2026 07:10:06"},{"type":"diesel","price":1.899,"self":true,"updatedAt":"22/06/2026 07:10:06"}]},{"id":"56874","lat":42.8448376,"lon":13.6364501,"name":"STAZIONE DI SERVIZIO IP ASCOLI COMMERCIO","brand":"Api-Ip","address":"Via del Commercio  63100, ASCOLI PICENO, AP","prices":[{"type":"petrol","price":1.819,"self":true,"updatedAt":"22/06/2026 00:43:09"},{"type":"diesel","price":1.899,"self":true,"updatedAt":"22/06/2026 00:43:09"}]},{"id":"13886","lat":42.85466895345792,"lon":13.565006465641432,"name":"STAZIONE RIFORNIMENTO ROSSI BRUNORI ALFREDO","brand":"Esso","address":"VIALE TREVIRI 59 63100, ASCOLI PICENO, AP","prices":[{"type":"petrol","price":1.819,"self":true,"updatedAt":"21/06/2026 23:10:31"},{"type":"diesel","price":1.919,"self":true,"updatedAt":"21/06/2026 23:10:31"}]},{"id":"21472","lat":42.84255167358341,"lon":13.626016080379486,"name":"TAMOIL","brand":"Tamoil","address":"Statale 81 Piceno Aprutina, Km. 3.600, dir. SUD - 63100, ASCOLI PICENO, AP","prices":[{"type":"petrol","price":1.899,"self":true,"updatedAt":"20/06/2026 11:04:42"},{"type":"diesel","price":1.989,"self":true,"updatedAt":"20/06/2026 11:04:42"}]},{"id":"59560","lat":42.854465,"lon":13.587956,"name":"TAMOIL ASCOLI PICENO VIALE LUCIANI 3","brand":"Tamoil","address":"LUIGI LUCIANI 3 63100, ASCOLI PICENO, AP","prices":[{"type":"petrol","price":1.819,"self":true,"updatedAt":"22/06/2026 07:43:21"},{"type":"diesel","price":1.919,"self":true,"updatedAt":"22/06/2026 07:43:21"}]},{"id":"35245","lat":42.859176412372044,"lon":13.707310656483514,"name":"Castel di Lama Carburanti","brand":"Agip Eni","address":"VIA SALARIA KM. 213+800 SNC 63082, CASTEL DI LAMA, AP","prices":[{"type":"petrol","price":1.824,"self":true,"updatedAt":"22/06/2026 06:50:14"},{"type":"diesel","price":1.919,"self":true,"updatedAt":"22/06/2026 06:50:14"}]},{"id":"61261","lat":42.86576954694759,"lon":13.727551895021044,"name":"ALA CASTORANO","brand":"Ala","address":"STATALE 4 VIA SALARIA, KM. 216+580, DIR. OVEST - LOC. S. SILVESTRO  63081, CASTORANO, AP","prices":[{"type":"petrol","price":1.829,"self":true,"updatedAt":"21/06/2026 23:56:03"},{"type":"diesel","price":1.929,"self":true,"updatedAt":"21/06/2026 23:56:03"}]},{"id":"59756","lat":42.86925615397133,"lon":13.743526851520555,"name":"PETROLITALIA Colli del Tronto","brand":"PETROLITALIA","address":"SALARIA 121 63079, COLLI DEL TRONTO, AP","prices":[{"type":"petrol","price":1.789,"self":true,"updatedAt":"19/06/2026 08:47:06"},{"type":"diesel","price":1.909,"self":true,"updatedAt":"19/06/2026 08:47:06"}]},{"id":"25467","lat":42.96922094808594,"lon":13.673418760299683,"name":"Ip amadio","brand":"Api-Ip","address":"CONTRADA GALLO 33, 63067 - -, COSSIGNANO, AP","prices":[{"type":"petrol","price":1.817,"self":true,"updatedAt":"20/06/2026 07:51:00"},{"type":"diesel","price":1.879,"self":true,"updatedAt":"20/06/2026 07:51:00"},{"type":"methane","price":1.359,"self":false,"updatedAt":"20/06/2026 07:51:00"},{"type":"lpg","price":0.789,"self":false,"updatedAt":"20/06/2026 07:51:00"}]},{"id":"57109","lat":42.84625282224669,"lon":13.698835372924805,"name":"Goldengas spa PV Maltignano","brand":"Agip Eni","address":"R.A. 11 ASCOLI MARE KM. 8+252 SNC 63085, MALTIGNANO, AP","prices":[{"type":"petrol","price":1.819,"self":true,"updatedAt":"21/06/2026 09:01:55"},{"type":"diesel","price":1.919,"self":true,"updatedAt":"21/06/2026 09:01:55"},{"type":"methane","price":1.359,"self":false,"updatedAt":"21/06/2026 09:01:55"},{"type":"lpg","price":0.799,"self":false,"updatedAt":"21/06/2026 09:01:55"}]},{"id":"60315","lat":42.846552,"lon":13.684158,"name":"MALTIGNANO","brand":"Pompe Bianche","address":"Str. della Bonifica 26A  63085, MALTIGNANO, AP","prices":[{"type":"petrol","price":1.744,"self":true,"updatedAt":"21/06/2026 23:55:53"},{"type":"diesel","price":2.115,"self":true,"updatedAt":"21/06/2026 23:55:53"}]},{"id":"22564","lat":42.98890674397313,"lon":13.609121228905451,"name":"CAMELA BASILIO","brand":"Tamoil","address":"VIA CUPRENSE 2 63068, MONTALTO DELLE MARCHE, AP","prices":[{"type":"petrol","price":2.139,"self":true,"updatedAt":"17/06/2026 12:14:53"},{"type":"diesel","price":2.259,"self":true,"updatedAt":"17/06/2026 12:14:53"}]},{"id":"26556","lat":42.96763440763727,"lon":13.612014807548576,"name":"Vittori Cesare","brand":"Pompe Bianche","address":"OLTRE TESINO 15 63068, MONTALTO DELLE MARCHE, AP","prices":[{"type":"petrol","price":1.839,"self":true,"updatedAt":"21/06/2026 01:13:46"},{"type":"diesel","price":1.939,"self":true,"updatedAt":"21/06/2026 01:13:46"}]},{"id":"29905","lat":42.97487381477018,"lon":13.593017509965875,"name":"SELF SERVICE MONTEDINOVE","brand":"Pompe Bianche","address":"BORGO SAN TOMMASO  63069, MONTEDINOVE, AP","prices":[{"type":"petrol","price":1.899,"self":true,"updatedAt":"21/06/2026 21:30:23"},{"type":"diesel","price":1.959,"self":true,"updatedAt":"21/06/2026 21:30:23"}]},{"id":"54281","lat":42.971928,"lon":13.722157,"name":"MARIANI SRL","brand":"Api-Ip","address":"PALMIRO TOGLIATTI 149 63073, OFFIDA, AP","prices":[{"type":"petrol","price":1.879,"self":true,"updatedAt":"18/06/2026 10:20:50"},{"type":"diesel","price":1.999,"self":true,"updatedAt":"18/06/2026 10:20:50"}]},{"id":"13918","lat":42.94010949818129,"lon":13.70234102010727,"name":"STAZIONE DI SERVIZIO DE ANGELIS EDO E C. SNC","brand":"Agip Eni","address":"CONTRADA SAN LAZZARO 148/D 63073, OFFIDA, AP","prices":[{"type":"petrol","price":1.849,"self":true,"updatedAt":"22/06/2026 00:17:58"},{"type":"diesel","price":1.919,"self":true,"updatedAt":"22/06/2026 00:17:58"}]},{"id":"33615","lat":42.99196082923415,"lon":13.50419282913208,"name":"viozzi paolo","brand":"Tamoil","address":"viale europa  25 63853, SANTA VITTORIA IN MATENANO, FM","prices":[{"type":"petrol","price":2.15,"self":true,"updatedAt":"11/06/2026 07:25:21"},{"type":"diesel","price":2.09,"self":true,"updatedAt":"11/06/2026 07:25:21"}]},{"id":"16082","lat":42.83410408242008,"lon":13.736491575837135,"name":"AUTOSERVICE","brand":"Api-Ip","address":"VIA PAPA GIOVANNI XXIII  64010, ANCARANO, TE","prices":[{"type":"petrol","price":1.859,"self":true,"updatedAt":"19/06/2026 07:42:59"},{"type":"diesel","price":1.959,"self":true,"updatedAt":"19/06/2026 07:42:59"}]},{"id":"61538","lat":42.83512904205865,"lon":13.73591423034668,"name":"PETROLITALIA Ancarano","brand":"PETROLITALIA","address":"Via Piane del Tronto 2 64010, ANCARANO, TE","prices":[{"type":"petrol","price":1.779,"self":true,"updatedAt":"19/06/2026 08:50:38"},{"type":"diesel","price":1.899,"self":true,"updatedAt":"19/06/2026 08:50:38"}]},{"id":"52459","lat":42.75981833776507,"lon":13.736443906745901,"name":"Distributore carburanti Attili Marisa","brand":"Pompe Bianche","address":"FRAZIONE SANT'ONOFRIO 91 64012, CAMPLI, TE","prices":[{"type":"petrol","price":1.857,"self":true,"updatedAt":"21/06/2026 15:22:22"},{"type":"diesel","price":1.957,"self":true,"updatedAt":"21/06/2026 15:22:22"}]},{"id":"34120","lat":42.76965526876132,"lon":13.748803585767746,"name":"PETROL PICENA - Floriano di Campli","brand":"PetrolPicena","address":"Via Fonte a Collina - Loc. Floriano 318 64012, CAMPLI, TE","prices":[{"type":"petrol","price":1.909,"self":true,"updatedAt":"19/06/2026 15:03:36"},{"type":"diesel","price":1.989,"self":true,"updatedAt":"19/06/2026 15:03:36"}]},{"id":"52362","lat":42.79351396050513,"lon":13.644885074343991,"name":"DEMI PETROLI","brand":"Pompe Bianche","address":"81 Piceno Aprutina, Km. 13750, NORD - 64010, CIVITELLA DEL TRONTO, TE","prices":[{"type":"petrol","price":1.959,"self":true,"updatedAt":"09/06/2026 08:26:14"},{"type":"diesel","price":1.989,"self":true,"updatedAt":"09/06/2026 08:26:14"}]},{"id":"26323","lat":42.786563756946755,"lon":13.646905794739723,"name":"PETROL PICENA - Villa Lempa","brand":"PetrolPicena","address":"Via 2 Giugno, Loc. Villa Lempa  64010, CIVITELLA DEL TRONTO, TE","prices":[{"type":"petrol","price":1.899,"self":true,"updatedAt":"19/06/2026 11:07:49"},{"type":"diesel","price":1.989,"self":true,"updatedAt":"19/06/2026 11:07:49"}]},{"id":"61794","lat":42.82048,"lon":13.7206,"name":"ENGY S \"SANT'EGIDIO TE\"","brand":"Api-Ip","address":"Corso Adriatico 259  64016, SANT'EGIDIO ALLA VIBRATA, TE","prices":[{"type":"petrol","price":1.877,"self":true,"updatedAt":"21/06/2026 21:08:16"},{"type":"diesel","price":1.947,"self":true,"updatedAt":"21/06/2026 21:08:16"}]},{"id":"21828","lat":42.826583981949724,"lon":13.707856893539429,"name":"ENI","brand":"Agip Eni","address":"VIA S.S. 259 KM.21+482  64016, SANT'EGIDIO ALLA VIBRATA, TE","prices":[{"type":"petrol","price":1.804,"self":true,"updatedAt":"22/06/2026 00:08:59"},{"type":"diesel","price":1.914,"self":true,"updatedAt":"22/06/2026 00:08:59"}]},{"id":"39056","lat":42.80977222843477,"lon":13.736009656414012,"name":"MENNILLI PETROLI S.EGIDIO VIB.","brand":"Pompe Bianche","address":"viale kennedy  197 64016, SANT'EGIDIO ALLA VIBRATA, TE","prices":[{"type":"petrol","price":1.843,"self":true,"updatedAt":"20/06/2026 08:57:41"},{"type":"diesel","price":1.923,"self":true,"updatedAt":"20/06/2026 08:57:41"},{"type":"lpg","price":0.783,"self":false,"updatedAt":"20/06/2026 08:57:41"}]},{"id":"59337","lat":42.819485582362546,"lon":13.69653804901198,"name":"Q8 S.Egidio alla Vibrata","brand":"Q8","address":"APRUTINA SNC 64016, SANT'EGIDIO ALLA VIBRATA, TE","prices":[{"type":"petrol","price":1.829,"self":true,"updatedAt":"21/06/2026 00:36:40"},{"type":"diesel","price":1.939,"self":true,"updatedAt":"21/06/2026 00:36:40"}]}]