[{"id":"57084","lat":42.81152174509788,"lon":12.65625,"name":"4672","brand":"Q8","address":"Via Romana 222  52100, AREZZO, AR","prices":[{"type":"petrol","price":1.799,"self":true,"updatedAt":"23/06/2026 08:40:49"},{"type":"diesel","price":1.879,"self":true,"updatedAt":"23/06/2026 08:40:49"}]},{"id":"58787","lat":42.935242,"lon":12.612703,"name":"G.C. PETROLEUM S.R.L.S.","brand":"Api-Ip","address":"FLAMINIA 9/11 06031, BEVAGNA, PG","prices":[{"type":"petrol","price":1.879,"self":true,"updatedAt":"23/06/2026 22:00:25"},{"type":"diesel","price":2.019,"self":true,"updatedAt":"23/06/2026 22:00:26"}]},{"id":"16606","lat":42.93561240140063,"lon":12.613929435610771,"name":"grill car di cacciamani giovanni &c","brand":"Esso","address":"VIA FLAMINIA 29 06031, BEVAGNA, PG","prices":[{"type":"petrol","price":1.927,"self":true,"updatedAt":"23/06/2026 22:00:08"},{"type":"diesel","price":2.017,"self":true,"updatedAt":"23/06/2026 22:00:08"}]},{"id":"6893","lat":42.93706100432096,"lon":12.619493007659912,"name":"Stazione di Servizio Esso","brand":"Esso","address":"VIA FLAMINIA S.S. 316 KM. 7,700  06031, BEVAGNA, PG","prices":[{"type":"petrol","price":1.825,"self":true,"updatedAt":"23/06/2026 15:42:17"},{"type":"diesel","price":1.935,"self":true,"updatedAt":"23/06/2026 15:42:17"}]},{"id":"5211","lat":42.97701247182238,"lon":12.569848001003265,"name":"Stazione di Servizio IP","brand":"Api-Ip","address":"VIA PIANDARCA 35 06031, BEVAGNA, PG","prices":[{"type":"petrol","price":1.828,"self":true,"updatedAt":"23/06/2026 06:54:06"},{"type":"diesel","price":1.948,"self":true,"updatedAt":"23/06/2026 06:54:07"},{"type":"lpg","price":0.799,"self":false,"updatedAt":"23/06/2026 06:54:06"}]},{"id":"32158","lat":42.99712826385168,"lon":12.5867886928811,"name":"impianto ip di Filippucci Deborah","brand":"Api-Ip","address":"VIA DELLA STAZIONE 18 06033, CANNARA, PG","prices":[{"type":"petrol","price":1.929,"self":true,"updatedAt":"18/06/2026 06:59:47"},{"type":"diesel","price":2.039,"self":true,"updatedAt":"18/06/2026 06:59:47"}]},{"id":"31287","lat":42.993078750388655,"lon":12.58284289325411,"name":"STAZIONE IP PETRINI","brand":"Api-Ip","address":"VIA AMEDEO DI SAVOIA 60 06033, CANNARA, PG","prices":[{"type":"petrol","price":1.869,"self":true,"updatedAt":"23/06/2026 09:29:42"},{"type":"diesel","price":1.969,"self":true,"updatedAt":"23/06/2026 09:29:42"}]},{"id":"26275","lat":42.83482928585461,"lon":12.701504230499268,"name":"CAPORICCI","brand":"Pompe Bianche","address":"VIA GARIBALDI 35 06044, CASTEL RITALDI, PG","prices":[{"type":"petrol","price":1.82,"self":true,"updatedAt":"20/06/2026 06:26:18"},{"type":"diesel","price":1.92,"self":true,"updatedAt":"20/06/2026 06:26:18"},{"type":"lpg","price":0.78,"self":false,"updatedAt":"20/06/2026 06:26:18"}]},{"id":"56964","lat":42.8172166630733,"lon":12.692206426199776,"name":"Silca Srl - IP La Bruna Castel Ritaldi","brand":"Api-Ip","address":"LOC. LA BRUNA SNC 06044, CASTEL RITALDI, PG","prices":[{"type":"petrol","price":1.799,"self":true,"updatedAt":"22/06/2026 12:58:22"},{"type":"diesel","price":1.889,"self":true,"updatedAt":"22/06/2026 12:58:22"}]},{"id":"46215","lat":42.951242000123,"lon":12.708037000123,"name":"4568","brand":"Agip Eni","address":"porta romana via roma  10 06034, FOLIGNO, PG","prices":[{"type":"petrol","price":1.789,"self":true,"updatedAt":"23/06/2026 23:33:05"},{"type":"diesel","price":1.854,"self":true,"updatedAt":"24/06/2026 06:08:25"}]},{"id":"33595","lat":42.98045925855058,"lon":12.736724549563974,"name":"Bocci Luigi","brand":"Esso","address":"VIA NOCERA UMBRA 19 06034, FOLIGNO, PG","prices":[{"type":"petrol","price":1.839,"self":true,"updatedAt":"21/06/2026 07:59:21"},{"type":"diesel","price":1.939,"self":true,"updatedAt":"21/06/2026 07:59:21"}]},{"id":"56629","lat":42.91327646772713,"lon":12.728501911778269,"name":"ENERPETROLI - PV FOLIGNO SS FLAMINIA VAR. KM.147,544","brand":"Enerpetroli","address":"S.S. FLAMINIA-VARIANTE KM. 147+544  06034, FOLIGNO, PG","prices":[{"type":"petrol","price":1.794,"self":true,"updatedAt":"23/06/2026 11:56:18"},{"type":"diesel","price":1.874,"self":true,"updatedAt":"23/06/2026 11:56:18"},{"type":"methane","price":1.394,"self":false,"updatedAt":"23/06/2026 11:56:18"},{"type":"lpg","price":0.764,"self":false,"updatedAt":"23/06/2026 11:56:18"}]},{"id":"55944","lat":42.96146,"lon":12.69994,"name":"ENERPETROLI - PV FOLIGNO V.FIRENZE","brand":"Enerpetroli","address":"FIRENZE 12 06034, FOLIGNO, PG","prices":[{"type":"petrol","price":1.839,"self":true,"updatedAt":"19/06/2026 11:37:06"},{"type":"diesel","price":1.929,"self":true,"updatedAt":"19/06/2026 11:37:06"}]},{"id":"56631","lat":42.91290090271352,"lon":12.728943457672116,"name":"ENERPETROLI - PV FOLIGNO VIA FLAMINIA VECCHIA","brand":"Enerpetroli","address":"VIA FLAMINIA VECCHIA KM.147+544  06034, FOLIGNO, PG","prices":[{"type":"petrol","price":1.794,"self":true,"updatedAt":"23/06/2026 12:01:14"},{"type":"diesel","price":1.874,"self":true,"updatedAt":"23/06/2026 12:01:14"},{"type":"methane","price":1.394,"self":false,"updatedAt":"23/06/2026 12:01:14"},{"type":"lpg","price":0.764,"self":false,"updatedAt":"23/06/2026 12:01:14"}]},{"id":"56823","lat":42.96631830270556,"lon":12.687620505542903,"name":"eni","brand":"Agip Eni","address":"FIRENZE 34 06034, FOLIGNO, PG","prices":[{"type":"petrol","price":1.849,"self":true,"updatedAt":"24/06/2026 00:20:50"},{"type":"diesel","price":1.949,"self":true,"updatedAt":"24/06/2026 00:20:50"}]},{"id":"22102","lat":42.95681374115363,"lon":12.709480758266409,"name":"FOLIGNO","brand":"Api-Ip","address":"Via Cesare Battisti 67/A, FOLIGNO, PG","prices":[{"type":"petrol","price":1.787,"self":true,"updatedAt":"23/06/2026 09:22:05"},{"type":"diesel","price":1.896,"self":true,"updatedAt":"23/06/2026 09:22:05"}]},{"id":"24511","lat":42.967466634417484,"lon":12.693770495700846,"name":"FOLIGNO - FIRENZE","brand":"Api-Ip","address":"VIA FIRENZE 81 06034, FOLIGNO, PG","prices":[{"type":"petrol","price":1.787,"self":true,"updatedAt":"23/06/2026 09:04:43"},{"type":"diesel","price":1.896,"self":true,"updatedAt":"23/06/2026 09:04:43"}]},{"id":"44513","lat":42.97104604813053,"lon":12.675146007270769,"name":"FOLIGNO NORD","brand":"CENTRALE METANO FOLIGNO","address":"Via Antonio da San Gallo  06034, FOLIGNO, PG","prices":[{"type":"petrol","price":1.834,"self":true,"updatedAt":"23/06/2026 22:00:14"},{"type":"diesel","price":1.924,"self":true,"updatedAt":"23/06/2026 22:00:14"},{"type":"lpg","price":0.829,"self":false,"updatedAt":"23/06/2026 22:00:14"}]},{"id":"35902","lat":42.92648977590185,"lon":12.727900506745982,"name":"FOLIGNO SS. 3 KM.149+75 LOC.S.ERACLIO","brand":"Q8","address":"SS. 3 KM.149+75 LOC.S.ERACLIO  06034, FOLIGNO, PG","prices":[{"type":"petrol","price":1.799,"self":true,"updatedAt":"23/06/2026 07:40:23"},{"type":"diesel","price":1.919,"self":true,"updatedAt":"23/06/2026 07:40:23"}]},{"id":"37859","lat":42.9250649592883,"lon":12.728473391500188,"name":"FOLIGNO SUD","brand":"CENTRALE METANO FOLIGNO","address":"FLAMINIA VECCHIA - VOC.FORMONI 2/A 06034, FOLIGNO, PG","prices":[{"type":"petrol","price":1.834,"self":true,"updatedAt":"23/06/2026 22:00:10"},{"type":"diesel","price":1.924,"self":true,"updatedAt":"23/06/2026 22:00:10"},{"type":"methane","price":1.339,"self":true,"updatedAt":"23/06/2026 22:00:10"},{"type":"lpg","price":0.788,"self":false,"updatedAt":"23/06/2026 22:00:10"}]},{"id":"29807","lat":42.95760611990806,"lon":12.709501492625009,"name":"FOLIGNO VIA CESARE BATTISTI","brand":"Q8","address":"VIA CESARE BATTISTI  06034, FOLIGNO, PG","prices":[{"type":"petrol","price":1.767,"self":true,"updatedAt":"23/06/2026 01:40:33"},{"type":"diesel","price":1.875,"self":true,"updatedAt":"23/06/2026 01:40:33"}]},{"id":"9358","lat":42.97314921461132,"lon":12.690995335578918,"name":"ICM - Foligno Nord","brand":"ICM","address":"STRADA STATALE 75 KM 23-0,60 SNC 06034, FOLIGNO, PG","prices":[{"type":"petrol","price":1.785,"self":false,"updatedAt":"23/06/2026 10:51:47"},{"type":"diesel","price":1.893,"self":false,"updatedAt":"23/06/2026 10:51:47"}]},{"id":"9354","lat":42.934110546902346,"lon":12.719244360923767,"name":"ICM - S. Eraclio","brand":"ICM","address":"VIA F. SANTOCCHIA 77 06034, FOLIGNO, PG","prices":[{"type":"petrol","price":1.785,"self":false,"updatedAt":"23/06/2026 10:51:55"},{"type":"diesel","price":1.893,"self":false,"updatedAt":"23/06/2026 10:51:55"}]},{"id":"44494","lat":42.96378988077721,"lon":12.686761064224925,"name":"Q8 METANO CITY","brand":"Q8","address":"VIA FIAMENGA 66 06034, FOLIGNO, PG","prices":[{"type":"methane","price":1.54,"self":false,"updatedAt":"22/06/2026 09:40:37"}]},{"id":"17398","lat":42.95902543937858,"lon":12.690646648406982,"name":"SELF CENTER 2000","brand":"Agip Eni","address":"VIA MASSIMO ARCAMONE FOLIGNO    PG - -, FOLIGNO, PG","prices":[{"type":"petrol","price":1.829,"self":true,"updatedAt":"24/06/2026 00:47:08"},{"type":"diesel","price":1.919,"self":true,"updatedAt":"24/06/2026 00:47:08"}]},{"id":"44741","lat":42.941108000123,"lon":12.716451000123,"name":"stazione di servizio \"ESSO\"","brand":"Esso","address":"VIA ROMA SN 06034, FOLIGNO, PG","prices":[{"type":"petrol","price":1.785,"self":true,"updatedAt":"23/06/2026 18:12:00"},{"type":"diesel","price":1.893,"self":true,"updatedAt":"23/06/2026 18:12:00"}]},{"id":"14252","lat":42.92404474159358,"lon":12.727018743753433,"name":"Stazione di Servizio ENI Mesca Attilio","brand":"Agip Eni","address":"SANTOCCHIA 163 06034, FOLIGNO, PG","prices":[{"type":"petrol","price":1.824,"self":true,"updatedAt":"24/06/2026 01:00:59"},{"type":"diesel","price":1.914,"self":true,"updatedAt":"24/06/2026 01:00:59"}]},{"id":"34884","lat":42.96380072164495,"lon":12.686753422021866,"name":"STAZIONE DI SERVIZIO Q8 2M DI PROIETTI MORENO","brand":"Q8","address":"VIA FIAMMENGA 66 06034, FOLIGNO, PG","prices":[{"type":"petrol","price":1.836,"self":true,"updatedAt":"23/06/2026 08:54:04"},{"type":"diesel","price":1.936,"self":true,"updatedAt":"23/06/2026 08:54:04"}]},{"id":"52448","lat":42.976605204121675,"lon":12.717622538722738,"name":"Stazione di servizio Q8 PANDA","brand":"Q8","address":"3 Via Flaminia, Km. SS3 km 154.890, nord - 06034, FOLIGNO, PG","prices":[{"type":"petrol","price":1.836,"self":true,"updatedAt":"22/06/2026 09:40:28"},{"type":"diesel","price":1.936,"self":true,"updatedAt":"22/06/2026 09:40:28"},{"type":"lpg","price":0.774,"self":false,"updatedAt":"22/06/2026 09:40:28"}]},{"id":"43859","lat":42.944687439102246,"lon":12.688590906745958,"name":"Tamoil 7435","brand":"Tamoil","address":"via daniele manin snc 06034, FOLIGNO, PG","prices":[{"type":"petrol","price":1.789,"self":true,"updatedAt":"24/06/2026 00:03:56"},{"type":"diesel","price":1.899,"self":true,"updatedAt":"24/06/2026 00:03:56"}]},{"id":"47111","lat":42.86187908603732,"lon":12.597932766759662,"name":"AREA34","brand":"Pompe Bianche","address":"SP45  06030, GIANO DELL'UMBRIA, PG","prices":[{"type":"petrol","price":1.959,"self":true,"updatedAt":"23/06/2026 14:21:07"},{"type":"diesel","price":1.999,"self":true,"updatedAt":"23/06/2026 14:21:07"},{"type":"lpg","price":0.839,"self":false,"updatedAt":"23/06/2026 14:21:07"}]},{"id":"16191","lat":42.87714345047822,"lon":12.520208358764648,"name":"Ballanti","brand":"Api-Ip","address":"Via G. Matteotti,  42 06035, GUALDO CATTANEO, PG","prices":[{"type":"petrol","price":1.899,"self":true,"updatedAt":"21/06/2026 17:55:50"},{"type":"diesel","price":1.979,"self":true,"updatedAt":"21/06/2026 17:55:50"}]},{"id":"51763","lat":42.92274569325544,"lon":12.503496761609902,"name":"Silca Srl - ESSO Gualdo Cattaneo","brand":"Esso","address":"LOCALITA' FRAZIONE POMONTE - VIA DEL PUGLIA SNC 06035, GUALDO CATTANEO (PG) SNC 06035, GUALDO CATTANEO, PG","prices":[{"type":"petrol","price":1.879,"self":true,"updatedAt":"19/06/2026 11:14:42"},{"type":"diesel","price":1.979,"self":true,"updatedAt":"19/06/2026 11:14:42"},{"type":"lpg","price":0.799,"self":false,"updatedAt":"19/06/2026 11:14:42"}]},{"id":"62481","lat":42.7623937,"lon":12.5239684,"name":"IP MASSA MARTANA","brand":"Api-Ip","address":"BELVEDERE KM 36+697 SNC 06056, MASSA MARTANA, PG","prices":[{"type":"petrol","price":1.799,"self":true,"updatedAt":"20/06/2026 11:49:00"},{"type":"diesel","price":1.899,"self":true,"updatedAt":"20/06/2026 11:48:59"}]},{"id":"60262","lat":42.77109,"lon":12.5242631,"name":"MASSA MARTANA","brand":"Pompe Bianche","address":"Viale Roma 37a  06056, MASSA MARTANA, PG","prices":[{"type":"petrol","price":1.807,"self":true,"updatedAt":"23/06/2026 23:59:53"},{"type":"diesel","price":1.889,"self":true,"updatedAt":"23/06/2026 23:59:53"}]},{"id":"23893","lat":42.900151656175744,"lon":12.64215944896232,"name":"ACTON montefalco","brand":"Acton1Q","address":"via Montepennino 17 06036, MONTEFALCO, PG","prices":[{"type":"petrol","price":1.799,"self":true,"updatedAt":"23/06/2026 23:29:49"},{"type":"diesel","price":1.899,"self":true,"updatedAt":"23/06/2026 23:29:49"}]},{"id":"45724","lat":42.88520369119201,"lon":12.648849785327911,"name":"Area di Servizio Tamoil Montefalco","brand":"Tamoil","address":"Loc. Cerrete C.s., 4 Presso distributore TAMOIL  06036, MONTEFALCO, PG","prices":[{"type":"petrol","price":1.799,"self":true,"updatedAt":"23/06/2026 00:22:25"},{"type":"diesel","price":1.899,"self":true,"updatedAt":"23/06/2026 00:22:25"}]},{"id":"45378","lat":42.881902000123,"lon":12.580910000123,"name":"PIT STOP DI ANTONIO D'ARIA","brand":"Api-Ip","address":"Vocabolo Cantinone  06036, MONTEFALCO, PG","prices":[{"type":"petrol","price":1.879,"self":true,"updatedAt":"24/06/2026 00:53:03"},{"type":"diesel","price":1.979,"self":true,"updatedAt":"24/06/2026 00:53:03"}]},{"id":"43239","lat":42.98851292402051,"lon":12.667332084655754,"name":"ACTON 1Q - SPELLO","brand":"Acton1Q","address":"VIA GUERRINO BONCI SNC 06038, SPELLO (PG) SNC 06038, SPELLO, PG","prices":[{"type":"petrol","price":1.799,"self":true,"updatedAt":"24/06/2026 00:30:41"}]},{"id":"34798","lat":42.98702782576079,"lon":12.673048675060272,"name":"Eni","brand":"Agip Eni","address":"Via Centrale Umbra 52 06038, SPELLO, PG","prices":[{"type":"petrol","price":1.829,"self":true,"updatedAt":"24/06/2026 00:06:06"},{"type":"diesel","price":1.919,"self":true,"updatedAt":"24/06/2026 00:06:06"}]},{"id":"17060","lat":42.97697734524163,"lon":12.68273413181305,"name":"Imp. IP Favetta Roberto & C Snc","brand":"Api-Ip","address":"STRADA STATALE 75 KM.22+260   06038, SPELLO, PG","prices":[{"type":"petrol","price":1.849,"self":true,"updatedAt":"23/06/2026 16:06:56"},{"type":"diesel","price":1.929,"self":true,"updatedAt":"23/06/2026 16:06:56"}]},{"id":"16968","lat":42.75337181301914,"lon":12.728666696924165,"name":"DE ANGELIS CARBURANTI","brand":"De Angelis Carburanti","address":"VIA GUGLIELMO MARCONI 308 06049, SPOLETO, PG","prices":[{"type":"petrol","price":1.789,"self":true,"updatedAt":"23/06/2026 19:51:55"},{"type":"diesel","price":1.879,"self":true,"updatedAt":"23/06/2026 19:51:55"}]},{"id":"54503","lat":42.76524675846903,"lon":12.723360881209373,"name":"Silca srl - IP Spoleto v. Marconi","brand":"Api-Ip","address":"MARCONI 659 06049, SPOLETO, PG","prices":[{"type":"petrol","price":1.799,"self":true,"updatedAt":"22/06/2026 10:20:50"},{"type":"diesel","price":1.889,"self":true,"updatedAt":"22/06/2026 10:20:50"},{"type":"lpg","price":0.799,"self":false,"updatedAt":"22/06/2026 10:20:50"}]},{"id":"60907","lat":42.7511177,"lon":12.7307343,"name":"SPOLETO","brand":"Pompe Bianche","address":"Via Guglielmo Marconi 196  06049, SPOLETO, PG","prices":[{"type":"petrol","price":1.636,"self":true,"updatedAt":"23/06/2026 23:51:37"},{"type":"diesel","price":1.624,"self":true,"updatedAt":"23/06/2026 23:51:37"}]},{"id":"57556","lat":42.761983,"lon":12.72431,"name":"STAZIONE DI SERVIZIO IS SPOLETO","brand":"Simonetti Petroli","address":"Via Guglielmo Marconi 565  06049, SPOLETO, PG","prices":[{"type":"petrol","price":1.779,"self":true,"updatedAt":"23/06/2026 23:29:53"},{"type":"diesel","price":1.859,"self":true,"updatedAt":"23/06/2026 23:29:53"},{"type":"lpg","price":0.799,"self":false,"updatedAt":"23/06/2026 23:29:53"}]},{"id":"5011","lat":42.880555570685054,"lon":12.729704976081848,"name":"CLITUNNO \"IP\" di GF SERVIZI SRL","brand":"Api-Ip","address":"3 Via Flaminia, Km. 143+412, NORD - 06039, TREVI, PG","prices":[{"type":"petrol","price":1.759,"self":true,"updatedAt":"23/06/2026 10:19:52"},{"type":"diesel","price":1.859,"self":true,"updatedAt":"23/06/2026 10:19:52"},{"type":"methane","price":1.549,"self":false,"updatedAt":"23/06/2026 10:19:52"},{"type":"lpg","price":0.789,"self":false,"updatedAt":"23/06/2026 10:19:52"}]},{"id":"48160","lat":42.86985665793781,"lon":12.719879480985629,"name":"ENERPETROLI - PV TREVI VIA NUOVA ESSO","brand":"Esso","address":"Via Nuova 14 06039, TREVI, PG","prices":[{"type":"petrol","price":1.799,"self":true,"updatedAt":"23/06/2026 12:01:41"},{"type":"diesel","price":1.899,"self":true,"updatedAt":"23/06/2026 12:01:41"}]},{"id":"43860","lat":42.9045022972514,"lon":12.730027906745931,"name":"Tamoil 8103","brand":"Tamoil","address":"via flaminia km 145+900  06039, TREVI, PG","prices":[{"type":"petrol","price":1.759,"self":true,"updatedAt":"23/06/2026 23:57:27"},{"type":"diesel","price":1.859,"self":true,"updatedAt":"23/06/2026 23:57:27"}]},{"id":"32193","lat":42.87324692651465,"lon":12.738494635581901,"name":"TREVI - BORGO TREVI","brand":"Api-Ip","address":"S.S. 3 KM. 142  06039, TREVI, PG","prices":[{"type":"petrol","price":1.807,"self":true,"updatedAt":"23/06/2026 09:04:46"},{"type":"diesel","price":1.916,"self":true,"updatedAt":"23/06/2026 09:04:46"}]}]