[{"id":"62564","lat":43.2361731455612,"lon":11.574323972595195,"name":"ALA ASCIANO","brand":"Api-Ip","address":"Via Martiri della Libertà 42A  53041, ASCIANO, SI","prices":[{"type":"petrol","price":1.829,"self":true,"updatedAt":"28/06/2026 01:27:11"},{"type":"diesel","price":1.939,"self":true,"updatedAt":"28/06/2026 01:27:11"}]},{"id":"59260","lat":43.150665092962036,"lon":11.586588940538851,"name":"Beyfin distributore di Meiattini Maggie","brand":"Beyfin","address":"TRAVERSA DEI MONTI 11 53024, MONTALCINO, SI","prices":[{"type":"petrol","price":1.959,"self":true,"updatedAt":"21/06/2026 22:29:39"},{"type":"diesel","price":2.109,"self":true,"updatedAt":"21/06/2026 22:29:39"},{"type":"lpg","price":0.819,"self":false,"updatedAt":"21/06/2026 22:29:39"}]},{"id":"36229","lat":43.07681316290833,"lon":11.546536583369516,"name":"ENI","brand":"Agip Eni","address":"CASSIA SNC 53024, MONTALCINO, SI","prices":[{"type":"petrol","price":1.819,"self":true,"updatedAt":"28/06/2026 01:08:54"},{"type":"diesel","price":1.909,"self":true,"updatedAt":"28/06/2026 01:08:54"},{"type":"lpg","price":0.762,"self":false,"updatedAt":"27/06/2026 00:41:55"}]},{"id":"27366","lat":43.05237371829216,"lon":11.504190266132355,"name":"IES/ ITALIANA ENERGIA E SERVIZI","brand":"Tamoil","address":"LOCALITA' IL PINO  53024, MONTALCINO, SI","prices":[{"type":"petrol","price":1.799,"self":true,"updatedAt":"28/06/2026 01:04:53"},{"type":"diesel","price":1.919,"self":true,"updatedAt":"28/06/2026 01:04:53"}]},{"id":"7727","lat":43.079504878616156,"lon":11.677262485027313,"name":"Eni Station Pienza","brand":"Agip Eni","address":"VIA SAN GREGORIO 10 53026, PIENZA, SI","prices":[{"type":"petrol","price":1.829,"self":true,"updatedAt":"28/06/2026 00:00:26"},{"type":"diesel","price":1.909,"self":true,"updatedAt":"28/06/2026 00:00:26"}]},{"id":"19443","lat":43.05941540360895,"lon":11.608676204994367,"name":"AQUILA","brand":"Aquila","address":"VIA S.S. CASSIA KM 184  53027, SAN QUIRICO D'ORCIA, SI","prices":[{"type":"petrol","price":1.839,"self":true,"updatedAt":"26/06/2026 09:25:51"},{"type":"diesel","price":1.939,"self":true,"updatedAt":"26/06/2026 09:25:51"}]},{"id":"63196","lat":43.054737103054414,"lon":11.609074720995892,"name":"Q8 san Quirico D'orcia","brand":"Q8","address":"DANTE ALIGHIERI 19 53027, SAN QUIRICO D'ORCIA, SI","prices":[{"type":"petrol","price":1.859,"self":true,"updatedAt":"23/06/2026 07:25:18"},{"type":"diesel","price":1.959,"self":true,"updatedAt":"23/06/2026 07:25:18"}]},{"id":"59809","lat":43.22711675606531,"lon":11.735934185723877,"name":"Aquila Drive - Sinalunga Guido Rossa","brand":"Aquila","address":"Via Guido Rossa 23  53048, SINALUNGA, SI","prices":[{"type":"petrol","price":1.789,"self":false,"updatedAt":"27/06/2026 23:24:03"},{"type":"diesel","price":1.879,"self":false,"updatedAt":"27/06/2026 23:24:03"}]},{"id":"60637","lat":43.2273319868555,"lon":11.736297855590818,"name":"Aquila Drive - Sinalunga Raccordo","brand":"Aquila","address":"Raccordo Autostradale Siena Bettolle SS 715 KM 39,800, SINALUNGA, SI","prices":[{"type":"petrol","price":1.789,"self":true,"updatedAt":"27/06/2026 23:23:53"},{"type":"diesel","price":1.869,"self":true,"updatedAt":"27/06/2026 23:23:53"}]},{"id":"60098","lat":43.21589,"lon":11.74326,"name":"PETROL TRANS S.R.L. - SINALUNGA","brand":"Pompe Bianche","address":"PIAZZA DELLA REPUBBLICA 2 53048, SINALUNGA, SI","prices":[{"type":"petrol","price":1.829,"self":true,"updatedAt":"27/06/2026 19:19:02"},{"type":"diesel","price":1.909,"self":true,"updatedAt":"27/06/2026 19:19:02"}]},{"id":"11182","lat":43.18734847278796,"lon":11.668811035606268,"name":"carburanti passe partout","brand":"Pompe Bianche","address":"VIA DELLA RIMEMBRANZA 19 53020, TREQUANDA, SI","prices":[{"type":"petrol","price":1.799,"self":true,"updatedAt":"23/06/2026 19:29:43"},{"type":"diesel","price":1.909,"self":true,"updatedAt":"23/06/2026 19:29:43"}]}]