[{"id":"7276","lat":43.18393095321763,"lon":12.013595402240753,"name":"CORTONA-SS71 KM110 330 FR TERONTOLA","brand":"Q8","address":"FZ.TERONTOLA SS. 71 KM.110+330 SN 52040, CORTONA, AR","prices":[{"type":"petrol","price":1.779,"self":true,"updatedAt":"27/06/2026 07:41:59"},{"type":"diesel","price":1.887,"self":true,"updatedAt":"27/06/2026 07:41:59"},{"type":"lpg","price":0.799,"self":false,"updatedAt":"27/06/2026 07:41:59"}]},{"id":"9991","lat":43.19670191052097,"lon":12.013226598501205,"name":"ICM - Terontola","brand":"ICM","address":"Strada Statale 71 - Loc. Terontola  52044, CORTONA, AR","prices":[{"type":"petrol","price":1.797,"self":false,"updatedAt":"27/06/2026 10:08:38"},{"type":"diesel","price":1.897,"self":false,"updatedAt":"27/06/2026 10:08:38"}]},{"id":"61571","lat":43.08378705222237,"lon":12.048315888977047,"name":"14581","brand":"Agip Eni","address":"MAGELLANO 22 06061, CASTIGLIONE DEL LAGO, PG","prices":[{"type":"petrol","price":1.824,"self":true,"updatedAt":"29/06/2026 00:05:24"},{"type":"diesel","price":1.894,"self":true,"updatedAt":"28/06/2026 19:14:17"}]},{"id":"45761","lat":43.12310736916625,"lon":12.042474611674152,"name":"8299","brand":"Tamoil","address":"UMBRO-CASENTINESE KM.101+805 SNC 06061, CASTIGLIONE DEL LAGO, PG","prices":[{"type":"petrol","price":1.819,"self":true,"updatedAt":"28/06/2026 12:00:14"},{"type":"diesel","price":1.899,"self":true,"updatedAt":"28/06/2026 12:00:14"}]},{"id":"33604","lat":43.149496723092774,"lon":12.021638005971909,"name":"BEYFIN","brand":"Beyfin","address":"ss71 umbro casentinese km 106+400  06061, CASTIGLIONE DEL LAGO, PG","prices":[{"type":"petrol","price":1.799,"self":true,"updatedAt":"25/06/2026 13:27:34"},{"type":"diesel","price":1.899,"self":true,"updatedAt":"25/06/2026 13:27:34"},{"type":"methane","price":1.499,"self":false,"updatedAt":"25/06/2026 13:27:34"},{"type":"lpg","price":0.799,"self":false,"updatedAt":"25/06/2026 13:27:34"}]},{"id":"39892","lat":43.12382721206362,"lon":12.044299319386482,"name":"ENERPETROLI - PV CASTIGLIONE DEL LAGO ESSO - PG","brand":"Esso","address":"VIA ROMA SNC 06061, CASTIGLIONE DEL LAGO, PG","prices":[{"type":"petrol","price":1.819,"self":true,"updatedAt":"25/06/2026 11:41:14"},{"type":"diesel","price":1.899,"self":true,"updatedAt":"25/06/2026 11:41:14"}]},{"id":"50592","lat":43.12506162537038,"lon":12.04617805741555,"name":"Eni station","brand":"Agip Eni","address":"71 Umbro Casentinese Romagnola, Km. 102-187, Arezzo - 06061, CASTIGLIONE DEL LAGO, PG","prices":[{"type":"petrol","price":1.829,"self":true,"updatedAt":"28/06/2026 01:21:42"},{"type":"diesel","price":1.899,"self":true,"updatedAt":"28/06/2026 21:28:02"}]},{"id":"4142","lat":43.104582339736716,"lon":12.042105942964554,"name":"FRATELLI TRENTINI","brand":"Api-Ip","address":"Statale 71 Umbro Casentinese Romagnola, Km. 100, dir. chiusi - 06061, CASTIGLIONE DEL LAGO, PG","prices":[{"type":"petrol","price":1.859,"self":true,"updatedAt":"28/06/2026 23:05:41"},{"type":"diesel","price":1.969,"self":true,"updatedAt":"28/06/2026 23:05:41"},{"type":"methane","price":1.499,"self":false,"updatedAt":"28/06/2026 23:05:41"},{"type":"lpg","price":0.819,"self":false,"updatedAt":"28/06/2026 23:05:41"}]},{"id":"51331","lat":43.12294099650741,"lon":12.049244457672103,"name":"OP PETROLI CLUB VELICO","brand":"Pompe Bianche","address":"PRESSO CLUB VELICO SNC 06061, CASTIGLIONE DEL LAGO, PG","prices":[{"type":"petrol","price":1.869,"self":true,"updatedAt":"24/06/2026 10:40:13"},{"type":"diesel","price":1.969,"self":true,"updatedAt":"24/06/2026 10:40:13"}]},{"id":"19944","lat":43.075048736176406,"lon":12.055950164794922,"name":"STAZ.SERVIZIO IP DI GIAMBINI ROBERTO","brand":"Api-Ip","address":"VIA PIEMONTE 77 FRAZ.SANFATUCCHIO - 06061 - -, CASTIGLIONE DEL LAGO, PG","prices":[{"type":"petrol","price":1.859,"self":true,"updatedAt":"25/06/2026 11:02:23"},{"type":"diesel","price":1.959,"self":true,"updatedAt":"25/06/2026 11:02:23"}]},{"id":"13493","lat":43.01157717426842,"lon":12.014509457672148,"name":"IP","brand":"Api-Ip","address":"LOCALITA' LOC.MOIANO-S.S.71 KM 87+686 SNC 06062, CITTA' DELLA PIEVE (PG)  06062, CITTÀ DELLA PIEVE, PG","prices":[{"type":"petrol","price":1.869,"self":true,"updatedAt":"26/06/2026 10:04:28"},{"type":"diesel","price":1.969,"self":true,"updatedAt":"26/06/2026 10:04:28"}]},{"id":"60730","lat":43.144253,"lon":12.216659,"name":"53966 MAGIONE","brand":"Agip Eni","address":"SS 75 BIS, MAGIONE, PG","prices":[{"type":"petrol","price":1.824,"self":true,"updatedAt":"29/06/2026 00:07:40"},{"type":"diesel","price":1.889,"self":true,"updatedAt":"29/06/2026 00:07:40"}]},{"id":"40399","lat":43.1205302339513,"lon":12.201552540063858,"name":"ENERPETROLI - PV MAGIONE ESSO - PG","brand":"Esso","address":"VIA CASE SPARSE 3A 06063, MAGIONE, PG","prices":[{"type":"petrol","price":1.799,"self":false,"updatedAt":"25/06/2026 11:42:04"},{"type":"diesel","price":1.879,"self":false,"updatedAt":"25/06/2026 11:42:04"}]},{"id":"46701","lat":43.13813450685743,"lon":12.244434356689453,"name":"IP","brand":"Api-Ip","address":"S.R. 75 BIS KM 22+700 SNC 06063, MAGIONE, PG","prices":[{"type":"petrol","price":1.799,"self":true,"updatedAt":"24/06/2026 12:18:22"},{"type":"diesel","price":1.899,"self":true,"updatedAt":"24/06/2026 12:18:22"},{"type":"methane","price":1.379,"self":false,"updatedAt":"24/06/2026 12:18:22"},{"type":"lpg","price":0.769,"self":false,"updatedAt":"24/06/2026 12:18:22"}]},{"id":"32020","lat":43.1119156645353,"lon":12.181094635581985,"name":"MAGIONE - SAN SAVINO","brand":"Api-Ip","address":"VIA CASE SPARSE 51/a 06063, MAGIONE, PG","prices":[{"type":"petrol","price":1.799,"self":true,"updatedAt":"28/06/2026 09:04:10"},{"type":"diesel","price":1.899,"self":true,"updatedAt":"28/06/2026 09:04:10"}]},{"id":"34823","lat":43.07134977547705,"lon":12.240540611560391,"name":"Rifornimenti Barzoni Mario","brand":"Pompe Bianche","address":"VIA S.PIETRO VINCIOLI  06060, MAGIONE, PG","prices":[{"type":"petrol","price":1.909,"self":true,"updatedAt":"24/06/2026 09:08:50"},{"type":"diesel","price":2.039,"self":true,"updatedAt":"24/06/2026 09:08:50"}]},{"id":"31571","lat":43.14453234921052,"lon":12.214981019496918,"name":"Stazione ENI n° 4540","brand":"Agip Eni","address":"S.S.75 BIS DEL TRASIMENO KM25+107 06063, MAGIONE, PG","prices":[{"type":"petrol","price":1.824,"self":true,"updatedAt":"29/06/2026 00:04:33"},{"type":"diesel","price":1.899,"self":true,"updatedAt":"28/06/2026 19:52:06"}]},{"id":"59390","lat":43.08893559725883,"lon":12.171027229552475,"name":"TAMOIL MAGIONE","brand":"Tamoil","address":"S.S. 599 KM 9+064 V.FRUSTA SNC 06063, MAGIONE, PG","prices":[{"type":"petrol","price":1.799,"self":true,"updatedAt":"26/06/2026 12:09:52"},{"type":"diesel","price":1.879,"self":true,"updatedAt":"26/06/2026 12:09:52"},{"type":"lpg","price":0.799,"self":false,"updatedAt":"26/06/2026 12:09:52"}]},{"id":"6216","lat":43.002847311974506,"lon":12.144988775253296,"name":"TORRONI MAURIZIO","brand":"Agip Eni","address":"VIALE DELLA LIBERTA' 7/A 06064, PANICALE, PG","prices":[{"type":"petrol","price":1.859,"self":true,"updatedAt":"29/06/2026 00:04:20"},{"type":"diesel","price":1.944,"self":true,"updatedAt":"28/06/2026 20:52:06"}]},{"id":"62477","lat":43.1925,"lon":12.12675,"name":"PV 34500 PASSIGNANO SUL TRASIMENO","brand":"Agip Eni","address":"VIA A. COSTA, 53  06065, PASSIGNANO SUL TRASIMENO, PG","prices":[{"type":"petrol","price":1.809,"self":true,"updatedAt":"29/06/2026 00:23:40"},{"type":"diesel","price":1.889,"self":true,"updatedAt":"29/06/2026 00:23:40"},{"type":"lpg","price":0.772,"self":false,"updatedAt":"29/06/2026 00:23:40"}]},{"id":"32112","lat":43.185603281439015,"lon":12.154357685388959,"name":"Vulcangas -  Passignano","brand":"Agip Eni","address":"VIA DELLE QUERCE 4 06065, PASSIGNANO SUL TRASIMENO, PG","prices":[{"type":"petrol","price":1.819,"self":true,"updatedAt":"24/06/2026 12:22:56"},{"type":"diesel","price":1.959,"self":true,"updatedAt":"24/06/2026 12:22:56"},{"type":"methane","price":1.649,"self":false,"updatedAt":"24/06/2026 12:22:56"},{"type":"lpg","price":0.799,"self":false,"updatedAt":"24/06/2026 12:22:56"}]},{"id":"11135","lat":43.03174273528316,"lon":12.214275598526001,"name":"ENERPETROLI - PV PERUGIA PIEVAIOLA ESSO","brand":"Esso","address":"Statale 220 Pievaiola, Km. 16+754, dir. PERUGIA - 06132, PERUGIA, PG","prices":[{"type":"petrol","price":1.729,"self":false,"updatedAt":"26/06/2026 12:17:29"},{"type":"diesel","price":1.819,"self":false,"updatedAt":"26/06/2026 12:17:29"},{"type":"lpg","price":0.749,"self":false,"updatedAt":"26/06/2026 12:17:29"}]},{"id":"58287","lat":43.00530673916479,"lon":12.162449441802993,"name":"DISTRIBUTORE CARBURANTI AQUILA","brand":"Aquila","address":"VOCABOLO RIOLO 22+300 KM  06066, PIEGARO, PG","prices":[{"type":"petrol","price":1.789,"self":true,"updatedAt":"26/06/2026 14:55:27"},{"type":"diesel","price":1.859,"self":true,"updatedAt":"26/06/2026 14:55:27"}]},{"id":"51623","lat":43.20358613175221,"lon":12.077176570892329,"name":"DISTRIBUTORE ALA TUORO","brand":"Ala","address":"VIA VIA CONSOLE FLAMINIO KM 29+950 71 06069, TUORO SUL TRASIMENO (PG) SNC 06069, TUORO SUL TRASIMENO, PG","prices":[{"type":"petrol","price":1.799,"self":true,"updatedAt":"29/06/2026 00:39:17"},{"type":"diesel","price":1.909,"self":true,"updatedAt":"29/06/2026 00:39:17"}]}]