[{"id":"5946","lat":43.05198735973446,"lon":10.887038597553214,"name":"MASSA MARITTIMA","brand":"Api-Ip","address":"Via Circonvallazione 2 58024, MASSA MARITTIMA, GR","prices":[{"type":"petrol","price":1.829,"self":true,"updatedAt":"25/06/2026 09:14:31"},{"type":"diesel","price":1.929,"self":true,"updatedAt":"25/06/2026 09:14:31"}]},{"id":"61206","lat":43.033244,"lon":10.884283,"name":"SHELL MASSA MARITTIMA LOC. SCHIANTAPETTO","brand":"Shell","address":"SS 439 MASSETANA SNC 58024, MASSA MARITTIMA, GR","prices":[{"type":"petrol","price":1.799,"self":true,"updatedAt":"26/06/2026 07:19:27"},{"type":"diesel","price":1.899,"self":true,"updatedAt":"26/06/2026 07:19:28"},{"type":"lpg","price":0.779,"self":false,"updatedAt":"26/06/2026 07:19:28"}]},{"id":"23662","lat":43.14708983885971,"lon":10.856137810457994,"name":"reteitalia","brand":"Retitalia","address":"piazza Mario Cheli   58025, MONTEROTONDO MARITTIMO, GR","prices":[{"type":"petrol","price":1.829,"self":true,"updatedAt":"22/06/2026 19:36:55"},{"type":"diesel","price":1.929,"self":true,"updatedAt":"22/06/2026 19:36:55"}]},{"id":"55855","lat":43.21065776496701,"lon":10.900350104365193,"name":"PV4105","brand":"Q8","address":"Via A. Gramsci snc 56041, CASTELNUOVO DI VAL DI CECINA, PI","prices":[{"type":"petrol","price":1.889,"self":true,"updatedAt":"25/06/2026 18:59:23"},{"type":"diesel","price":1.999,"self":true,"updatedAt":"25/06/2026 18:59:23"}]},{"id":"46935","lat":43.24462413240705,"lon":10.877660306180815,"name":"FRAZ. MONTECERBOLI - POMARANCE (PI)","brand":"Giap","address":"LOC. AL MADONNINO (FRAZ. MONTECERBOLI)  56045, POMARANCE, PI","prices":[{"type":"petrol","price":1.828,"self":true,"updatedAt":"26/06/2026 05:59:51"},{"type":"diesel","price":1.938,"self":true,"updatedAt":"26/06/2026 05:59:51"}]}]