[{"id":"7709","lat":43.288084404545344,"lon":12.748990058898926,"name":"stazione servizio eni","brand":"Agip Eni","address":"LOC.OSTERIA DEL GATTO  06022, FOSSATO DI VICO, PG","prices":[{"type":"petrol","price":1.809,"self":true,"updatedAt":"30/06/2026 00:17:06"},{"type":"diesel","price":1.889,"self":true,"updatedAt":"30/06/2026 08:02:21"}]},{"id":"59841","lat":43.362118,"lon":12.551441,"name":"4535  GUBBIO","brand":"Agip Eni","address":"PIAN.DIASSI SS 219, GUBBIO, PG","prices":[{"type":"petrol","price":1.809,"self":true,"updatedAt":"01/07/2026 00:06:16"},{"type":"diesel","price":1.889,"self":true,"updatedAt":"01/07/2026 00:06:16"}]},{"id":"51808","lat":43.350275942683936,"lon":12.577953597614362,"name":"CARDONI AUTO","brand":"Q8","address":"VIA CAMPO DI MARTE 8 06024, GUBBIO, PG","prices":[{"type":"petrol","price":1.719,"self":true,"updatedAt":"29/06/2026 12:37:46"},{"type":"diesel","price":1.799,"self":true,"updatedAt":"29/06/2026 12:37:46"}]},{"id":"59492","lat":43.35060458859497,"lon":12.558811529541023,"name":"CATRIA ENERGY - GUBBIO","brand":"Catria Energy","address":"Via del Bottagnone  06024, GUBBIO, PG","prices":[{"type":"petrol","price":1.769,"self":true,"updatedAt":"30/06/2026 00:19:47"},{"type":"diesel","price":1.849,"self":true,"updatedAt":"30/06/2026 00:19:47"},{"type":"methane","price":1.499,"self":false,"updatedAt":"30/06/2026 23:42:43"},{"type":"lpg","price":0.789,"self":false,"updatedAt":"30/06/2026 23:42:43"}]},{"id":"48054","lat":43.35649755201693,"lon":12.562695860118849,"name":"ENERPETROLI - PV GUBBIO DA VINCI ESSO","brand":"Esso","address":"VIA L. DA VINCI 42 06024, GUBBIO, PG","prices":[{"type":"petrol","price":1.789,"self":true,"updatedAt":"30/06/2026 12:21:00"},{"type":"diesel","price":1.859,"self":true,"updatedAt":"30/06/2026 12:21:00"}]},{"id":"53001","lat":43.34399319215389,"lon":12.575799397622632,"name":"ESSO DISTRIBUTORE VIA PERUGINA","brand":"Enerpetroli","address":"STATALE N.298 KM. 12,440  06024, GUBBIO, PG","prices":[{"type":"petrol","price":1.799,"self":true,"updatedAt":"27/06/2026 09:09:27"},{"type":"diesel","price":1.879,"self":true,"updatedAt":"27/06/2026 09:09:27"}]},{"id":"23339","lat":43.346615604333095,"lon":12.58800268220898,"name":"GUBBIO PORTA ROMANA","brand":"Api-Ip","address":"VIA DI PORTA ROMANA 81 06024, GUBBIO, PG","prices":[{"type":"petrol","price":1.769,"self":true,"updatedAt":"30/06/2026 09:05:33"},{"type":"diesel","price":1.849,"self":true,"updatedAt":"30/06/2026 09:05:33"}]},{"id":"24887","lat":43.27300593985793,"lon":12.680652737617493,"name":"IP","brand":"Api-Ip","address":"PONTE ROSSO 26 06024, GUBBIO, PG","prices":[{"type":"petrol","price":1.799,"self":true,"updatedAt":"29/06/2026 22:12:24"},{"type":"diesel","price":1.899,"self":true,"updatedAt":"29/06/2026 22:12:24"}]},{"id":"5252","lat":43.34802072719328,"lon":12.561460733413696,"name":"PREMIER SRL","brand":"Api-Ip","address":"S.S 219 VARIANTE SVINC.BALULLE  06024, GUBBIO, PG","prices":[{"type":"petrol","price":1.769,"self":true,"updatedAt":"01/07/2026 00:44:25"},{"type":"diesel","price":1.849,"self":true,"updatedAt":"01/07/2026 00:44:25"},{"type":"lpg","price":0.789,"self":false,"updatedAt":"30/06/2026 23:53:43"}]},{"id":"51788","lat":43.376129069744664,"lon":12.51158714294433,"name":"PROCACCI GIUSEPPE DI FOFI GIANNI","brand":"Api-Ip","address":"VIA DELL'ASSINO 643 06024, GUBBIO, PG","prices":[{"type":"petrol","price":1.769,"self":true,"updatedAt":"30/06/2026 06:38:50"},{"type":"diesel","price":1.859,"self":true,"updatedAt":"30/06/2026 06:38:50"},{"type":"lpg","price":0.789,"self":false,"updatedAt":"30/06/2026 06:38:50"}]},{"id":"50605","lat":43.31215325999843,"lon":12.575422391401617,"name":"q8 cipriano","brand":"Q8","address":"VIA ASSISANA 8 06024, GUBBIO, PG","prices":[{"type":"petrol","price":1.769,"self":true,"updatedAt":"29/06/2026 07:34:16"},{"type":"diesel","price":1.869,"self":true,"updatedAt":"29/06/2026 07:34:16"}]},{"id":"61204","lat":43.311241,"lon":12.632641,"name":"S.T.L.PETROLI S.R.L.","brand":"Pompe Bianche","address":"Via Sant'Anna 5 06024, GUBBIO, PG","prices":[{"type":"petrol","price":1.779,"self":true,"updatedAt":"30/06/2026 08:42:50"},{"type":"diesel","price":1.879,"self":true,"updatedAt":"30/06/2026 08:42:50"}]},{"id":"63318","lat":43.42461,"lon":12.59975,"name":"San Bartolomeo - Catria Oil","brand":"CATRIA OIL","address":"452 DELLA CONTESSA SNC 06024, GUBBIO, PG","prices":[{"type":"petrol","price":1.769,"self":true,"updatedAt":"30/06/2026 23:25:33"},{"type":"diesel","price":1.849,"self":true,"updatedAt":"30/06/2026 23:25:33"}]},{"id":"62490","lat":43.42461,"lon":12.59975,"name":"San Bartolomeo - Catria Oil","brand":"CATRIA OIL","address":"452 DELLA CONTESSA KM 8+410 SNC 06024, GUBBIO, PG","prices":[{"type":"petrol","price":1.859,"self":true,"updatedAt":"15/06/2026 23:18:50"},{"type":"diesel","price":1.949,"self":true,"updatedAt":"15/06/2026 23:18:50"}]},{"id":"41032","lat":43.3530944,"lon":12.5677826,"name":"SEP","brand":"SEP","address":"Via dell' Arboreto 17  06024, GUBBIO, PG","prices":[{"type":"petrol","price":1.769,"self":true,"updatedAt":"26/06/2026 11:56:17"},{"type":"diesel","price":1.849,"self":true,"updatedAt":"26/06/2026 11:56:17"}]},{"id":"31822","lat":43.31667784656977,"lon":12.620411194885605,"name":"Stazione di Servizio Minelli Oil","brand":"Q8","address":"Via degli Artigiani 13 06024, GUBBIO, PG","prices":[{"type":"petrol","price":1.769,"self":true,"updatedAt":"30/06/2026 08:48:41"},{"type":"diesel","price":1.879,"self":true,"updatedAt":"30/06/2026 08:48:41"}]},{"id":"51340","lat":43.36307165030464,"lon":12.54621236137694,"name":"Terradura Srl","brand":"Agip Eni","address":"219 di Gubbio e Piandassino, Km. 22,400, sx - 06024, GUBBIO, PG","prices":[{"type":"methane","price":1.499,"self":false,"updatedAt":"26/06/2026 09:00:13"}]},{"id":"35546","lat":43.32445337905983,"lon":12.747411578893661,"name":"IP di Eutizi Saverio","brand":"Api-Ip","address":"LOCALITA' CAMPOGIANNI 1 06028, SIGILLO, PG","prices":[{"type":"petrol","price":1.839,"self":true,"updatedAt":"27/06/2026 09:10:08"},{"type":"diesel","price":1.939,"self":true,"updatedAt":"27/06/2026 09:10:08"},{"type":"lpg","price":0.799,"self":false,"updatedAt":"27/06/2026 09:10:08"}]},{"id":"33547","lat":43.453565334660524,"lon":12.631302773952484,"name":"Eni","brand":"Agip Eni","address":"Statale 3 Via Flaminia, Km. 221+230, dir. sud - 61044, CANTIANO, PU","prices":[{"type":"petrol","price":1.874,"self":true,"updatedAt":"30/06/2026 00:17:32"},{"type":"diesel","price":1.964,"self":true,"updatedAt":"30/06/2026 00:17:32"},{"type":"lpg","price":0.799,"self":false,"updatedAt":"30/06/2026 23:29:14"}]}]