[{"id":"55448","lat":43.53143846751098,"lon":12.977778781069116,"name":"MARINELLI GIGLIOLA","brand":"Api-Ip","address":"ARCEVIESE 360 KM 30 265 60011, ARCEVIA, AN","prices":[{"type":"petrol","price":1.779,"self":true,"updatedAt":"01/07/2026 05:35:29"},{"type":"diesel","price":1.879,"self":true,"updatedAt":"01/07/2026 05:35:29"},{"type":"lpg","price":0.799,"self":false,"updatedAt":"01/07/2026 05:35:29"}]},{"id":"10960","lat":43.5043847269517,"lon":12.948313057422638,"name":"Tamoil Arcevia","brand":"Tamoil","address":"Via San Giovanni Battista - -, ARCEVIA, AN","prices":[{"type":"petrol","price":1.819,"self":false,"updatedAt":"27/06/2026 07:22:45"},{"type":"diesel","price":1.919,"self":false,"updatedAt":"27/06/2026 07:22:45"}]},{"id":"55089","lat":43.60877846033546,"lon":12.978022277628032,"name":"PM GREEN OIL - CASTELLEONE","brand":"PM","address":"SP.19VAL CESANO KM2+640 V.ROMA 6 60010, CASTELLEONE DI SUASA, AN","prices":[{"type":"petrol","price":1.759,"self":true,"updatedAt":"26/06/2026 19:12:08"},{"type":"diesel","price":1.849,"self":true,"updatedAt":"30/06/2026 19:48:05"}]},{"id":"45060","lat":43.740659000123,"lon":12.934071000123,"name":"ACTON 1Q - COLLI AL METAURO","brand":"Acton1Q","address":"VIA PONTE METAURO 65/69 61036, COLLI AL METAURO (PU) 65/69 61036, COLLI AL METAURO, PU","prices":[{"type":"petrol","price":1.759,"self":true,"updatedAt":"30/06/2026 23:41:56"}]},{"id":"25539","lat":43.7381019906066,"lon":12.897374568176247,"name":"Stazione di Servizio IP - Serrungarina","brand":"Api-Ip","address":"Statale 3 Via Flaminia, Km. 268+300, dir. Fossombrone -, COLLI AL METAURO, PU","prices":[{"type":"petrol","price":1.759,"self":true,"updatedAt":"30/06/2026 23:17:45"},{"type":"diesel","price":1.829,"self":true,"updatedAt":"30/06/2026 23:17:45"}]},{"id":"13188","lat":43.73237774436474,"lon":12.883870093057226,"name":"Stazione di Servizio OilOne di Barbanti Daniele","brand":"Tamoil","address":"Via Flaminia, Tavernelle di Serrungarina 44 61036, COLLI AL METAURO, PU","prices":[{"type":"petrol","price":1.797,"self":true,"updatedAt":"30/06/2026 00:32:12"},{"type":"diesel","price":1.897,"self":true,"updatedAt":"30/06/2026 00:32:12"}]},{"id":"42880","lat":43.68588352976422,"lon":12.785479911639413,"name":"6190","brand":"Tamoil","address":"CATTEDRALE 35 61034, FOSSOMBRONE, PU","prices":[{"type":"petrol","price":1.789,"self":true,"updatedAt":"01/07/2026 00:24:02"},{"type":"diesel","price":1.829,"self":true,"updatedAt":"01/07/2026 00:24:02"}]},{"id":"37690","lat":43.68249030890738,"lon":12.806587815284729,"name":"AREA SERVIZIO SASSO NORD","brand":"Agip Eni","address":"VIA SUPERSTRADA FANO-GROSSETO KM 258+771 61034, FOSSOMBRONE, PU","prices":[{"type":"petrol","price":1.829,"self":true,"updatedAt":"30/06/2026 23:31:00"},{"type":"diesel","price":1.889,"self":true,"updatedAt":"30/06/2026 18:08:03"},{"type":"lpg","price":0.799,"self":false,"updatedAt":"30/06/2026 23:31:00"}]},{"id":"44780","lat":43.68960421184338,"lon":12.825663561941838,"name":"CATRIA ENERGY - FOSSOMBRONE","brand":"Catria Energy","address":"VIA VIA  GALILEO GALILEI S.N. 61034, FOSSOMBRONE (PU) S.N. 61034, FOSSOMBRONE, PU","prices":[{"type":"petrol","price":1.759,"self":true,"updatedAt":"01/07/2026 00:32:36"},{"type":"diesel","price":1.859,"self":true,"updatedAt":"01/07/2026 00:32:36"},{"type":"methane","price":1.599,"self":false,"updatedAt":"30/06/2026 00:23:08"},{"type":"lpg","price":0.779,"self":false,"updatedAt":"30/06/2026 00:23:08"}]},{"id":"34390","lat":43.68744054865274,"lon":12.839612513780594,"name":"IMPIANTO ENI 06129","brand":"Agip Eni","address":"SUPERSTRADA FANO GROSSETO IMP.6129 61034, FOSSOMBRONE, PU","prices":[{"type":"petrol","price":1.829,"self":true,"updatedAt":"01/07/2026 00:37:46"},{"type":"diesel","price":1.889,"self":true,"updatedAt":"01/07/2026 00:37:46"},{"type":"lpg","price":0.792,"self":false,"updatedAt":"01/07/2026 00:19:09"}]},{"id":"44512","lat":43.692252000123,"lon":12.817414000123,"name":"IP","brand":"Api-Ip","address":"Viale G. Oberdan 36 61034, FOSSOMBRONE, PU","prices":[{"type":"petrol","price":1.759,"self":true,"updatedAt":"30/06/2026 18:46:00"},{"type":"diesel","price":1.859,"self":true,"updatedAt":"30/06/2026 18:46:00"}]},{"id":"15749","lat":43.69140985416203,"lon":12.814616746032698,"name":"STAZIONE DI SERVIZIO ESSO DI GELSOMINI ENZO E C.","brand":"Esso","address":"Statale 3 Via Flaminia, Km. 259+247, dir. ROMA - 61034, FOSSOMBRONE, PU","prices":[{"type":"petrol","price":1.759,"self":true,"updatedAt":"30/06/2026 07:00:16"},{"type":"diesel","price":1.849,"self":true,"updatedAt":"30/06/2026 07:00:16"}]},{"id":"48916","lat":43.68842306132402,"lon":12.830116506990132,"name":"STAZIONE FOSSOMBRONE","brand":"Pompe Bianche","address":"VIA SANTA MARIA DELLA VALLE  61034, FOSSOMBRONE, PU","prices":[{"type":"methane","price":1.599,"self":false,"updatedAt":"30/06/2026 09:02:23"}]},{"id":"34805","lat":43.6874334692635,"lon":12.855934006745883,"name":"Valentino Paradisi","brand":"Api-Ip","address":"VIA BISCUBIO 2 61034, FOSSOMBRONE, PU","prices":[{"type":"petrol","price":1.779,"self":true,"updatedAt":"30/06/2026 21:15:08"},{"type":"diesel","price":1.879,"self":true,"updatedAt":"30/06/2026 21:15:08"}]},{"id":"13655","lat":43.64879808669338,"lon":12.976275086402893,"name":"TAMOIL - Mondavio loc. Pianaccio","brand":"Tamoil","address":"S.S. 424 KM 19+234 SN  61040, MONDAVIO, PU","prices":[{"type":"petrol","price":1.788,"self":true,"updatedAt":"30/06/2026 23:28:35"},{"type":"diesel","price":1.877,"self":true,"updatedAt":"30/06/2026 23:28:34"}]},{"id":"35885","lat":43.72326985944062,"lon":12.839036680616005,"name":"TAMOIL - MONTEFELCINO","brand":"Tamoil","address":"VILLA PALOMBARA  61030, MONTEFELCINO, PU","prices":[{"type":"petrol","price":1.797,"self":true,"updatedAt":"30/06/2026 23:27:29"},{"type":"diesel","price":1.897,"self":true,"updatedAt":"30/06/2026 23:27:29"}]},{"id":"45793","lat":43.53510584482667,"lon":12.831763668211352,"name":"CATRIA ENERGY - PERGOLA","brand":"Catria Energy","address":"STRADA PROVINCIALE N 12 KM 2+776 S.N. 61045, PERGOLA (PU) 12 61045, PERGOLA, PU","prices":[{"type":"petrol","price":1.789,"self":true,"updatedAt":"30/06/2026 23:15:05"},{"type":"diesel","price":1.879,"self":true,"updatedAt":"30/06/2026 23:15:05"},{"type":"methane","price":1.599,"self":false,"updatedAt":"30/06/2026 23:15:05"},{"type":"lpg","price":0.799,"self":false,"updatedAt":"30/06/2026 23:15:05"}]},{"id":"38988","lat":43.55538770146542,"lon":12.836194642991586,"name":"Ip Pergola - Catria Energy Srl","brand":"Api-Ip","address":"VIA VIALE DANTE 11 61045, PERGOLA (PU) snc 61045, PERGOLA, PU","prices":[{"type":"petrol","price":1.849,"self":true,"updatedAt":"30/06/2026 23:56:23"},{"type":"diesel","price":1.999,"self":true,"updatedAt":"30/06/2026 23:56:23"}]},{"id":"60751","lat":43.5704982,"lon":12.8450808,"name":"PERGOLA","brand":"Pompe Bianche","address":"via Molino del Signore SNC 61045, PERGOLA, PU","prices":[{"type":"petrol","price":1.646,"self":true,"updatedAt":"30/06/2026 23:46:14"},{"type":"diesel","price":1.549,"self":true,"updatedAt":"30/06/2026 23:46:14"}]},{"id":"18372","lat":43.6382735213394,"lon":12.975479955786113,"name":"Carburanti ENI 06102 di Turchi Simone","brand":"Agip Eni","address":"Strada Provinciale 424 Km. 20+600 snc 61047, SAN LORENZO IN CAMPO, PU","prices":[{"type":"petrol","price":1.819,"self":true,"updatedAt":"30/06/2026 23:13:02"},{"type":"diesel","price":1.889,"self":true,"updatedAt":"30/06/2026 23:13:02"},{"type":"methane","price":1.512,"self":false,"updatedAt":"30/06/2026 23:13:02"},{"type":"lpg","price":0.829,"self":false,"updatedAt":"30/06/2026 23:13:02"}]},{"id":"45008","lat":43.59149838215195,"lon":12.897223695160392,"name":"Goldengas area servizio IP","brand":"Api-Ip","address":"SP 424 KM 29 + 570  61047, SAN LORENZO IN CAMPO, PU","prices":[{"type":"petrol","price":1.799,"self":true,"updatedAt":"30/06/2026 09:01:21"},{"type":"diesel","price":1.879,"self":true,"updatedAt":"30/06/2026 09:01:21"},{"type":"lpg","price":0.799,"self":false,"updatedAt":"30/06/2026 09:01:21"}]},{"id":"9172","lat":43.5967491,"lon":12.9304896,"name":"STAZIONE DI SERVIZIO SAN LORENZO","brand":"Q8","address":"Via San Severo 6  61047, SAN LORENZO IN CAMPO, PU","prices":[{"type":"petrol","price":1.799,"self":true,"updatedAt":"01/07/2026 00:20:19"},{"type":"diesel","price":1.879,"self":true,"updatedAt":"01/07/2026 00:20:19"}]},{"id":"15695","lat":43.68469378474547,"lon":12.960617691278458,"name":"ANDREOLETTI GIORGIO & C. SNC","brand":"Agip Eni","address":"VIA CONIUGI EVANGELISTI 19 61038, TERRE ROVERESCHE, PU","prices":[{"type":"petrol","price":1.825,"self":true,"updatedAt":"30/06/2026 23:53:25"},{"type":"diesel","price":1.884,"self":true,"updatedAt":"30/06/2026 23:53:25"}]},{"id":"46137","lat":43.715565744541436,"lon":12.984316349029541,"name":"San Giorgio di Pesaro","brand":"Api-Ip","address":"S.S. 73 BIS BOCCATR.103+077 KM 108 61032, TERRE ROVERESCHE, PU","prices":[{"type":"petrol","price":1.799,"self":true,"updatedAt":"29/06/2026 10:58:44"},{"type":"diesel","price":1.899,"self":true,"updatedAt":"29/06/2026 10:58:44"}]}]