[{"id":"24042","lat":43.70719904118224,"lon":12.296020443688917,"name":"TAMOIL","brand":"Tamoil","address":"P.ZZA DEL MERCATO 10 52038, SESTINO, AR","prices":[{"type":"petrol","price":1.979,"self":true,"updatedAt":"22/06/2026 09:10:47"},{"type":"diesel","price":2.099,"self":true,"updatedAt":"22/06/2026 09:10:47"}]},{"id":"43140","lat":43.57508222728745,"lon":12.444075084655765,"name":"METANO TOSCANA (APECCHIO)","brand":"Pompe Bianche","address":"LOC. PIAN DI MOLINO SNC 61042, APECCHIO, PU","prices":[{"type":"methane","price":1.448,"self":false,"updatedAt":"22/06/2026 17:36:39"}]},{"id":"30612","lat":43.55623008547643,"lon":12.42027770800405,"name":"Rivendita gasolio Marini Anna","brand":"Pompe Bianche","address":"VIA CIRCONVALLAZIONE 28 61042, APECCHIO, PU","prices":[{"type":"diesel","price":1.999,"self":true,"updatedAt":"16/06/2026 22:04:50"}]},{"id":"49787","lat":43.55925671485755,"lon":12.41356008945877,"name":"TAMOIL","brand":"Tamoil","address":"257 Apecchiese, Km. 11, citta di castello - 61042, APECCHIO, PU","prices":[{"type":"petrol","price":1.829,"self":true,"updatedAt":"23/06/2026 12:58:04"},{"type":"diesel","price":1.929,"self":true,"updatedAt":"23/06/2026 12:58:04"},{"type":"lpg","price":0.799,"self":false,"updatedAt":"23/06/2026 12:58:04"}]},{"id":"34543","lat":43.65502386394338,"lon":12.29125164449215,"name":"VALENTINI SILVANO","brand":"Pompe Bianche","address":"VIA META SNC 61040, BORGO PACE, PU","prices":[{"type":"petrol","price":1.995,"self":true,"updatedAt":"22/06/2026 08:55:51"},{"type":"diesel","price":2.054,"self":true,"updatedAt":"22/06/2026 08:55:51"}]},{"id":"43162","lat":43.73256865723927,"lon":12.44598619510657,"name":"Tamoil Lunano","brand":"Tamoil","address":"VIA CIRCONVALLAZIONE SNC 61026, LUNANO, PU","prices":[{"type":"petrol","price":1.799,"self":true,"updatedAt":"25/06/2026 14:08:08"},{"type":"diesel","price":1.899,"self":true,"updatedAt":"25/06/2026 14:08:08"}]},{"id":"59974","lat":43.6475015,"lon":12.3329902,"name":"MERCATELLO SUL METAURO","brand":"Pompe Bianche","address":"Via Nazionale snc 61040, MERCATELLO SUL METAURO, PU","prices":[{"type":"petrol","price":1.769,"self":true,"updatedAt":"25/06/2026 09:04:12"},{"type":"diesel","price":1.844,"self":true,"updatedAt":"25/06/2026 09:04:12"}]},{"id":"52141","lat":43.724867876689174,"lon":12.408406813491805,"name":"Q8 - PIANDIMELETO S.P. FOGLIENSE 3 BIS KM. 41+371","brand":"Q8","address":"FOGLIENSE KM. 41+371 SN 61026, PIANDIMELETO, PU","prices":[{"type":"petrol","price":1.789,"self":true,"updatedAt":"26/06/2026 07:47:32"},{"type":"diesel","price":1.889,"self":true,"updatedAt":"26/06/2026 07:47:32"}]},{"id":"52140","lat":43.667222000123,"lon":12.413462000123,"name":"ESSO - SANT'ANGELO IN VADO S.S. 77 BIS KM 38+885","brand":"Esso","address":"S.S. 73BIS KM 38+885 S.N. 61048, SANT'ANGELO IN VADO, PU","prices":[{"type":"petrol","price":1.779,"self":true,"updatedAt":"26/06/2026 07:42:16"},{"type":"diesel","price":1.879,"self":true,"updatedAt":"26/06/2026 07:42:16"}]},{"id":"42710","lat":43.67466476831973,"lon":12.456205654503265,"name":"METANO TOSCANA (SANT'ANGELO)","brand":"Beyfin","address":"SS73/BIS KM. 44+564 SNC 61048, SANT'ANGELO IN VADO, PU","prices":[{"type":"petrol","price":1.778,"self":true,"updatedAt":"25/06/2026 18:07:40"},{"type":"diesel","price":1.878,"self":true,"updatedAt":"25/06/2026 18:07:40"},{"type":"lpg","price":0.768,"self":false,"updatedAt":"25/06/2026 18:07:40"}]},{"id":"62258","lat":43.66512164,"lon":12.40772129,"name":"pv  6050 Sant'Angelo in Vado","brand":"Agip Eni","address":"SS73bis SNC 61048, SANT'ANGELO IN VADO, PU","prices":[{"type":"petrol","price":1.789,"self":true,"updatedAt":"25/06/2026 00:03:50"},{"type":"diesel","price":1.844,"self":true,"updatedAt":"26/06/2026 06:10:48"}]}]