[{"id":"57866","lat":43.59188,"lon":11.19977,"name":"AQUILA ENERGIE","brand":"Aquila","address":"VIA LEONARDO DA VINCI 148/150 50028, BARBERINO TAVARNELLE, FI","prices":[{"type":"petrol","price":1.789,"self":true,"updatedAt":"29/06/2026 17:14:40"},{"type":"diesel","price":1.869,"self":true,"updatedAt":"29/06/2026 17:14:40"},{"type":"methane","price":1.699,"self":false,"updatedAt":"29/06/2026 17:14:40"}]},{"id":"61257","lat":43.545925,"lon":11.227541,"name":"ENI","brand":"Agip Eni","address":"CHIANTIGIANA SNC 50028, BARBERINO TAVARNELLE, FI","prices":[{"type":"petrol","price":1.81,"self":true,"updatedAt":"30/06/2026 07:52:41"},{"type":"diesel","price":1.889,"self":true,"updatedAt":"30/06/2026 07:52:41"}]},{"id":"17650","lat":43.54305629960399,"lon":11.172899525131243,"name":"Gori Mattia","brand":"Aquila","address":"Statale 2 Via Cassia, Km. 263 + 353, dir. nord 29 50028, BARBERINO TAVARNELLE, FI","prices":[{"type":"petrol","price":1.789,"self":true,"updatedAt":"29/06/2026 08:09:12"},{"type":"diesel","price":1.869,"self":true,"updatedAt":"29/06/2026 08:09:12"}]},{"id":"13544","lat":43.578,"lon":11.0088,"name":"metano toscana srl (castelfiorentino)","brand":"Pompe Bianche","address":"Via Monte Olivo 40 50051, CASTELFIORENTINO, FI","prices":[{"type":"methane","price":1.495,"self":false,"updatedAt":"26/06/2026 17:55:58"},{"type":"lpg","price":0.718,"self":false,"updatedAt":"26/06/2026 17:55:58"}]},{"id":"62401","lat":43.52199835846075,"lon":11.081239174099057,"name":"ADS 45608 IP","brand":"Api-Ip","address":"Via delle Città 282  50052, CERTALDO, FI","prices":[{"type":"petrol","price":1.829,"self":true,"updatedAt":"29/06/2026 09:48:17"},{"type":"diesel","price":1.929,"self":true,"updatedAt":"29/06/2026 09:48:17"}]},{"id":"40093","lat":43.556068858436525,"lon":11.032640512897501,"name":"AQUILA","brand":"Aquila","address":"VIALE GIACOMO MATTEOTTI 191 50052, CERTALDO, FI","prices":[{"type":"petrol","price":1.789,"self":true,"updatedAt":"30/06/2026 07:54:46"},{"type":"diesel","price":1.879,"self":true,"updatedAt":"30/06/2026 07:54:46"}]},{"id":"57918","lat":43.566873,"lon":11.018533,"name":"CERTALDO","brand":"Tamoil","address":"VIA TOSCANA  50052, CERTALDO, FI","prices":[{"type":"petrol","price":1.799,"self":true,"updatedAt":"25/06/2026 20:07:11"},{"type":"diesel","price":1.899,"self":true,"updatedAt":"25/06/2026 20:07:03"},{"type":"methane","price":1.699,"self":false,"updatedAt":"27/06/2026 07:03:22"},{"type":"lpg","price":0.739,"self":false,"updatedAt":"27/06/2026 07:05:04"}]},{"id":"11582","lat":43.54089209214217,"lon":11.045004606151565,"name":"CERTALDO-VIA ROMANA 125","brand":"Q8","address":"VIA ROMANA 125 50052, CERTALDO, FI","prices":[{"type":"petrol","price":1.789,"self":true,"updatedAt":"30/06/2026 07:44:55"},{"type":"diesel","price":1.879,"self":true,"updatedAt":"30/06/2026 07:44:55"}]},{"id":"40092","lat":43.56785089700938,"lon":11.024151965975761,"name":"ENI","brand":"Agip Eni","address":"VIA DELLE REGIONI 106/A 50052, CERTALDO, FI","prices":[{"type":"petrol","price":1.81,"self":true,"updatedAt":"29/06/2026 23:24:15"},{"type":"diesel","price":1.899,"self":true,"updatedAt":"29/06/2026 16:50:07"}]},{"id":"45757","lat":43.73827645164292,"lon":11.244944493254025,"name":"1165","brand":"Tamoil","address":"CAVE DI MONTERIPALDI SNC 50125, FIRENZE, FI","prices":[{"type":"petrol","price":1.759,"self":true,"updatedAt":"29/06/2026 23:27:25"},{"type":"diesel","price":1.819,"self":true,"updatedAt":"29/06/2026 12:32:53"}]},{"id":"24667","lat":43.74463374754643,"lon":11.22713572883606,"name":"2063","brand":"Tamoil","address":"SENESE - LOC.I ROSSI SNC 50124, FIRENZE, FI","prices":[{"type":"petrol","price":1.739,"self":true,"updatedAt":"29/06/2026 12:32:25"},{"type":"diesel","price":1.799,"self":true,"updatedAt":"29/06/2026 12:32:25"}]},{"id":"51085","lat":43.74410829566967,"lon":11.226771289843782,"name":"AREA DI SERVIZIO FIRENZE","brand":"Api-Ip","address":"via senese, FIRENZE, FI","prices":[{"type":"petrol","price":1.789,"self":true,"updatedAt":"29/06/2026 00:14:13"},{"type":"diesel","price":1.864,"self":true,"updatedAt":"29/06/2026 00:14:13"}]},{"id":"49172","lat":43.74564707292896,"lon":11.228195975352296,"name":"beyfin","brand":"Beyfin","address":"VIA SENESE 186/A/2 50124, FIRENZE, FI","prices":[{"type":"petrol","price":1.739,"self":true,"updatedAt":"30/06/2026 07:49:00"},{"type":"diesel","price":1.799,"self":true,"updatedAt":"30/06/2026 07:49:00"},{"type":"methane","price":1.599,"self":false,"updatedAt":"30/06/2026 07:49:00"},{"type":"lpg","price":0.799,"self":false,"updatedAt":"30/06/2026 07:49:00"}]},{"id":"47007","lat":43.74881941421416,"lon":11.23417883757209,"name":"ESSO FIRENZE - V. SENESE 2 STRADE","brand":"Esso","address":"Via Senese 2 Strade 199 50124, FIRENZE, FI","prices":[{"type":"petrol","price":1.739,"self":true,"updatedAt":"30/06/2026 07:18:25"},{"type":"diesel","price":1.799,"self":true,"updatedAt":"30/06/2026 07:18:25"}]},{"id":"51632","lat":43.74511211776015,"lon":11.22759818781549,"name":"esso futura sas","brand":"Esso","address":"via senese loc galluzzo Km 296,112 snc 50125, FIRENZE, FI","prices":[{"type":"petrol","price":1.739,"self":true,"updatedAt":"29/06/2026 15:59:57"},{"type":"diesel","price":1.799,"self":true,"updatedAt":"29/06/2026 15:59:57"}]},{"id":"6589","lat":43.7481949447391,"lon":11.232985282803384,"name":"FIRENZE VIA SENESE 207/A","brand":"Q8","address":"VIA SENESE 207/A 50125, FIRENZE, FI","prices":[{"type":"petrol","price":1.749,"self":true,"updatedAt":"30/06/2026 01:13:17"},{"type":"diesel","price":1.819,"self":true,"updatedAt":"30/06/2026 01:13:17"}]},{"id":"9352","lat":43.7461807639952,"lon":11.228799819946289,"name":"ICM - Firenze","brand":"ICM","address":"VIA SENESE 184 50124, FIRENZE, FI","prices":[{"type":"petrol","price":1.747,"self":true,"updatedAt":"29/06/2026 10:20:15"},{"type":"diesel","price":1.816,"self":true,"updatedAt":"29/06/2026 10:20:15"}]},{"id":"30222","lat":43.73848661757374,"lon":11.224814057350159,"name":"PV 4740","brand":"Agip Eni","address":"VIA SENESE LO.GALLUZZO SNC 50124, FIRENZE, FI","prices":[{"type":"petrol","price":1.799,"self":true,"updatedAt":"29/06/2026 23:22:54"},{"type":"diesel","price":1.879,"self":true,"updatedAt":"29/06/2026 23:22:54"}]},{"id":"24905","lat":43.74296572085396,"lon":11.225570440292358,"name":"PV 4875","brand":"Agip Eni","address":"VIA SENESE- LOC. I ROSSI 194, 50124, FIRENZE, FI","prices":[{"type":"petrol","price":1.789,"self":true,"updatedAt":"29/06/2026 23:23:46"},{"type":"diesel","price":1.824,"self":true,"updatedAt":"29/06/2026 23:23:46"}]},{"id":"7226","lat":43.7095928217255,"lon":11.215973839811682,"name":"m&m di maionchi","brand":"Aquila","address":"VIA CASSIA 192 50023, IMPRUNETA, FI","prices":[{"type":"petrol","price":1.779,"self":true,"updatedAt":"27/06/2026 09:37:25"},{"type":"diesel","price":1.869,"self":true,"updatedAt":"27/06/2026 09:37:25"}]},{"id":"58549","lat":43.6888,"lon":11.24967,"name":"NISHAN","brand":"Agip Eni","address":"IMPRUNETANA PER TAVERNUZZE 8/B 50023, IMPRUNETA, FI","prices":[{"type":"petrol","price":1.809,"self":true,"updatedAt":"29/06/2026 23:25:51"},{"type":"diesel","price":1.909,"self":true,"updatedAt":"29/06/2026 23:25:51"}]},{"id":"9947","lat":43.70969678951952,"lon":11.06446087360382,"name":"CAR GOLD DI BANDINI DANIELE E GAGGILI STEFANO","brand":"Aquila","address":"VARIANTE STRADA PROV.N12 - -, LASTRA A SIGNA, FI","prices":[{"type":"petrol","price":1.789,"self":true,"updatedAt":"30/06/2026 08:00:26"},{"type":"diesel","price":1.869,"self":true,"updatedAt":"30/06/2026 08:00:26"},{"type":"methane","price":1.699,"self":false,"updatedAt":"30/06/2026 08:00:26"}]},{"id":"26637","lat":43.735667676319856,"lon":11.106273829936981,"name":"Lastra a Signa - S.G.C. FI-PI-LI LOC. PIANACCI","brand":"Q8","address":"S.G.C. FI-PI-LI LOC. PIANACCI  50055, LASTRA A SIGNA, FI","prices":[{"type":"petrol","price":1.819,"self":true,"updatedAt":"25/06/2026 08:11:24"},{"type":"diesel","price":1.929,"self":true,"updatedAt":"25/06/2026 08:11:24"},{"type":"methane","price":1.699,"self":false,"updatedAt":"25/06/2026 08:11:24"},{"type":"lpg","price":0.799,"self":false,"updatedAt":"25/06/2026 08:11:24"}]},{"id":"46724","lat":43.71499185870938,"lon":11.05290377546309,"name":"Metano Toscana GINESTRA F.NA","brand":"Beyfin","address":"VIA VIA VAL DI PESA SNC 50055, LASTRA A SIGNA (FI) KM 13,75 50055, LASTRA A SIGNA, FI","prices":[{"type":"petrol","price":1.798,"self":true,"updatedAt":"26/06/2026 17:56:28"},{"type":"diesel","price":1.898,"self":true,"updatedAt":"26/06/2026 17:56:28"},{"type":"methane","price":1.567,"self":false,"updatedAt":"26/06/2026 17:56:28"},{"type":"lpg","price":0.758,"self":false,"updatedAt":"26/06/2026 17:56:28"}]},{"id":"63199","lat":43.72980170793105,"lon":11.017400845885277,"name":"46575 IPlanet","brand":"Api-Ip","address":"RAFFAELLO CAVERNI 141 50056, MONTELUPO FIORENTINO, FI","prices":[{"type":"petrol","price":1.799,"self":true,"updatedAt":"30/06/2026 07:12:31"},{"type":"diesel","price":1.899,"self":true,"updatedAt":"30/06/2026 07:12:31"}]},{"id":"46048","lat":43.731095,"lon":11.018607,"name":"ESSO MONTELUPO FIORENTINO","brand":"Esso","address":"Via Caverni 34 50056, MONTELUPO FIORENTINO, FI","prices":[{"type":"petrol","price":1.799,"self":true,"updatedAt":"30/06/2026 07:19:13"},{"type":"diesel","price":1.899,"self":true,"updatedAt":"30/06/2026 07:19:13"}]},{"id":"60710","lat":43.7138243,"lon":11.042789,"name":"ESSO MONTELUPO FIORENTINO VIA DI BRAMASOLE 1 S.G.C. FI/PI/LI","brand":"Esso","address":"DI BRAMASOLE 1 50056, MONTELUPO FIORENTINO, FI","prices":[{"type":"petrol","price":1.789,"self":true,"updatedAt":"30/06/2026 07:06:21"},{"type":"diesel","price":1.879,"self":true,"updatedAt":"30/06/2026 07:06:21"}]},{"id":"24660","lat":43.727660519343374,"lon":11.020466685295105,"name":"MONTELUPO FIORENTINO - SS TOSCO ROMAGNOLA","brand":"Q8","address":"Statale 67 Tosco Romagnola, Km. 55, dir. Empoli - 50056, MONTELUPO FIORENTINO, FI","prices":[{"type":"petrol","price":1.849,"self":true,"updatedAt":"30/06/2026 07:44:58"},{"type":"diesel","price":1.929,"self":true,"updatedAt":"30/06/2026 07:44:58"},{"type":"lpg","price":0.819,"self":false,"updatedAt":"30/06/2026 07:44:58"}]},{"id":"46635","lat":43.64605,"lon":11.06513,"name":"Gozzi Maico","brand":"Agip Eni","address":"VIA TADDEINI S.N. 50025, MONTESPERTOLI (FI) SNC 50025, MONTESPERTOLI, FI","prices":[{"type":"petrol","price":1.809,"self":true,"updatedAt":"29/06/2026 23:25:17"},{"type":"diesel","price":1.889,"self":true,"updatedAt":"29/06/2026 19:46:14"}]},{"id":"59015","lat":43.6837075,"lon":11.0713938,"name":"LUPI SRL","brand":"Q8","address":"Via Virginio 180 50025, MONTESPERTOLI, FI","prices":[{"type":"petrol","price":1.799,"self":true,"updatedAt":"29/06/2026 23:34:37"},{"type":"diesel","price":1.879,"self":true,"updatedAt":"29/06/2026 23:34:37"},{"type":"lpg","price":0.719,"self":false,"updatedAt":"29/06/2026 23:34:37"}]},{"id":"19471","lat":43.672338920315646,"lon":11.103678792715073,"name":"MONTAGNANA","brand":"Tamoil","address":"VIA VOLTERRANA NORD (DISTRIBUTORE)  50025, MONTESPERTOLI, FI","prices":[{"type":"petrol","price":1.779,"self":true,"updatedAt":"29/06/2026 14:05:48"},{"type":"diesel","price":1.829,"self":true,"updatedAt":"29/06/2026 14:05:48"}]},{"id":"59007","lat":43.65743,"lon":11.18787,"name":"4841 SAN CASCIANO IN VAL DI PESA","brand":"Agip Eni","address":"VIALE  PASCOLI  SNC, SAN CASCIANO IN VAL DI PESA, FI","prices":[{"type":"petrol","price":1.814,"self":true,"updatedAt":"30/06/2026 00:22:03"},{"type":"diesel","price":1.889,"self":true,"updatedAt":"30/06/2026 00:22:03"}]},{"id":"59853","lat":43.687573,"lon":11.136364,"name":"Aquila Drive - San Casciano Cerbaia","brand":"Aquila","address":"VIA VOLTERRANA 80/P - 50026 SAN CASCIANO IN VAL DI PESA (FI) 80/P 50026, SAN CASCIANO IN VAL DI PESA, FI","prices":[{"type":"petrol","price":1.789,"self":true,"updatedAt":"29/06/2026 00:11:20"},{"type":"diesel","price":1.849,"self":true,"updatedAt":"29/06/2026 00:11:20"}]},{"id":"52253","lat":43.63688230783481,"lon":11.221677213907242,"name":"Q8","brand":"Q8","address":"Via Grevigiana 86 50026, SAN CASCIANO IN VAL DI PESA, FI","prices":[{"type":"petrol","price":1.799,"self":true,"updatedAt":"26/06/2026 13:19:44"},{"type":"diesel","price":1.889,"self":true,"updatedAt":"26/06/2026 13:19:44"}]},{"id":"6920","lat":43.66114483056827,"lon":11.182862151589953,"name":"Q8 - SAN CASCIANO","brand":"Q8","address":"Via Giuseppe di Vittorio 57/A  50026, SAN CASCIANO IN VAL DI PESA, FI","prices":[{"type":"petrol","price":1.799,"self":true,"updatedAt":"29/06/2026 11:48:03"},{"type":"diesel","price":1.889,"self":true,"updatedAt":"29/06/2026 11:48:03"}]},{"id":"50569","lat":43.61881076491031,"lon":11.187634407198951,"name":"SAN CASCIANO EST","brand":"Q8","address":"RACC. SIENA-FIRENZE KM 41+893 // 50026, SAN CASCIANO IN VAL DI PESA, FI","prices":[{"type":"petrol","price":1.819,"self":true,"updatedAt":"29/06/2026 10:06:01"},{"type":"diesel","price":1.919,"self":true,"updatedAt":"29/06/2026 10:06:01"},{"type":"methane","price":1.739,"self":false,"updatedAt":"29/06/2026 10:06:01"},{"type":"lpg","price":0.879,"self":false,"updatedAt":"29/06/2026 10:06:01"}]},{"id":"40908","lat":43.60597766594523,"lon":11.190963207340253,"name":"SAN CASCIANO OVEST","brand":"Shell","address":"RACC. SIENA-FIRENZE KM 43+600  50026, SAN CASCIANO IN VAL DI PESA, FI","prices":[{"type":"petrol","price":1.819,"self":true,"updatedAt":"29/06/2026 08:25:01"},{"type":"diesel","price":1.919,"self":true,"updatedAt":"29/06/2026 08:25:01"},{"type":"lpg","price":0.859,"self":false,"updatedAt":"29/06/2026 08:25:01"}]},{"id":"51427","lat":43.69610906585635,"lon":11.101474761962885,"name":"PV ALA SCANDICCI","brand":"Api-Ip","address":"VIA EMPOLESE 3 50018, SCANDICCI (FI) 3 50018, SCANDICCI, FI","prices":[{"type":"petrol","price":1.789,"self":true,"updatedAt":"29/06/2026 00:53:18"},{"type":"diesel","price":1.869,"self":true,"updatedAt":"29/06/2026 07:02:09"},{"type":"lpg","price":0.739,"self":false,"updatedAt":"29/06/2026 05:46:05"}]},{"id":"54410","lat":43.5618288,"lon":11.1802515,"name":"MV carburanti","brand":"Api-Ip","address":"Via del Chianti 10  50028, TAVARNELLE VAL DI PESA, FI","prices":[{"type":"petrol","price":1.819,"self":true,"updatedAt":"29/06/2026 12:52:42"},{"type":"diesel","price":1.919,"self":true,"updatedAt":"29/06/2026 12:52:42"},{"type":"lpg","price":0.739,"self":true,"updatedAt":"29/06/2026 12:52:42"}]}]