[{"id":"52645","lat":43.9643203,"lon":12.1980745,"name":"ENI AGIP","brand":"Agip Eni","address":"Viale Giacomo Matteotti  45  47025, MERCATO SARACENO, FC","prices":[{"type":"petrol","price":1.809,"self":true,"updatedAt":"01/07/2026 00:12:37"},{"type":"diesel","price":1.869,"self":true,"updatedAt":"01/07/2026 00:12:37"}]},{"id":"26403","lat":43.95056012908105,"lon":12.190656065940857,"name":"MERCATO SARACENO","brand":"Api-Ip","address":"STR.STAT. BIS TIBERINA KM.200+306  47025, MERCATO SARACENO, FC","prices":[{"type":"petrol","price":1.799,"self":true,"updatedAt":"01/07/2026 07:24:03"},{"type":"diesel","price":1.879,"self":true,"updatedAt":"27/06/2026 08:39:03"},{"type":"methane","price":1.549,"self":false,"updatedAt":"25/06/2026 10:51:03"},{"type":"lpg","price":0.749,"self":false,"updatedAt":"25/06/2026 10:51:03"}]},{"id":"53052","lat":43.9497543,"lon":12.1914835,"name":"MERCATO SARACENO EST","brand":"Agip Eni","address":"S.S. E45 KM 200+304 SNC 47025, MERCATO SARACENO, FC","prices":[{"type":"petrol","price":1.809,"self":true,"updatedAt":"01/07/2026 00:44:21"},{"type":"diesel","price":1.869,"self":true,"updatedAt":"01/07/2026 00:44:21"}]},{"id":"35431","lat":43.969999298466064,"lon":12.080012261867523,"name":"BALZANI ARMANDO","brand":"Pompe Bianche","address":"VIALE KENNEDY 15 47027, SARSINA, FC","prices":[{"type":"petrol","price":1.994,"self":true,"updatedAt":"25/06/2026 11:06:16"},{"type":"diesel","price":2.077,"self":true,"updatedAt":"25/06/2026 11:06:16"}]},{"id":"38256","lat":43.91750045170533,"lon":12.14337408542633,"name":"Sarsina SABBA GABRIELE","brand":"Pompe Bianche","address":"via giacomo matteotti  105 47027, SARSINA, FC","prices":[{"type":"petrol","price":1.799,"self":true,"updatedAt":"29/06/2026 12:23:48"},{"type":"diesel","price":1.899,"self":true,"updatedAt":"29/06/2026 12:23:48"}]},{"id":"53860","lat":43.76482,"lon":12.03671,"name":"53552 VERGHERETO","brand":"Agip Eni","address":"SUPERSTRADA E 45 LOC.PIANTREBBIO, VERGHERETO, FC","prices":[{"type":"petrol","price":1.809,"self":true,"updatedAt":"01/07/2026 00:37:00"},{"type":"diesel","price":1.869,"self":true,"updatedAt":"01/07/2026 00:37:00"},{"type":"lpg","price":0.727,"self":false,"updatedAt":"01/07/2026 00:37:00"}]},{"id":"35503","lat":43.842671316731774,"lon":12.054378390312195,"name":"Stazione di Servizio Katia Bernabini","brand":"Pompe Bianche","address":"Strada Provinciale 43 42 47028, VERGHERETO, FC","prices":[{"type":"petrol","price":1.859,"self":true,"updatedAt":"25/06/2026 12:21:06"},{"type":"diesel","price":1.966,"self":true,"updatedAt":"25/06/2026 12:21:06"}]},{"id":"50767","lat":43.79045993398554,"lon":12.160842619430603,"name":"Casteldelci Sabba Gabriele","brand":"Pompe Bianche","address":"Località Giardiniera  47861, CASTELDELCI, RN","prices":[{"type":"petrol","price":1.959,"self":true,"updatedAt":"29/06/2026 09:17:26"},{"type":"diesel","price":1.969,"self":true,"updatedAt":"29/06/2026 09:17:25"}]},{"id":"12203","lat":43.86275912882501,"lon":12.20755750074818,"name":"SABBA GABRIELE S.Agata","brand":"Pompe Bianche","address":"VIA SARSINATE 5 47866, SANT'AGATA FELTRIA, RN","prices":[{"type":"petrol","price":1.799,"self":true,"updatedAt":"29/06/2026 12:19:45"},{"type":"diesel","price":1.899,"self":true,"updatedAt":"29/06/2026 12:19:45"}]}]