[{"id":"52645","lat":43.9643203,"lon":12.1980745,"name":"ENI AGIP","brand":"Agip Eni","address":"Viale Giacomo Matteotti  45  47025, MERCATO SARACENO, FC","prices":[{"type":"petrol","price":1.809,"self":true,"updatedAt":"21/06/2026 21:52:08"},{"type":"diesel","price":1.919,"self":true,"updatedAt":"21/06/2026 21:52:08"}]},{"id":"26403","lat":43.95056012908105,"lon":12.190656065940857,"name":"MERCATO SARACENO","brand":"Api-Ip","address":"STR.STAT. BIS TIBERINA KM.200+306  47025, MERCATO SARACENO, FC","prices":[{"type":"petrol","price":1.829,"self":true,"updatedAt":"20/06/2026 07:42:03"},{"type":"diesel","price":1.949,"self":true,"updatedAt":"20/06/2026 07:42:03"},{"type":"methane","price":1.549,"self":false,"updatedAt":"18/06/2026 10:51:04"},{"type":"lpg","price":0.749,"self":false,"updatedAt":"18/06/2026 10:51:04"}]},{"id":"53052","lat":43.9497543,"lon":12.1914835,"name":"MERCATO SARACENO EST","brand":"Agip Eni","address":"S.S. E45 KM 200+304 SNC 47025, MERCATO SARACENO, FC","prices":[{"type":"petrol","price":1.829,"self":true,"updatedAt":"21/06/2026 00:51:06"},{"type":"diesel","price":1.949,"self":true,"updatedAt":"21/06/2026 00:51:06"}]},{"id":"35431","lat":43.969999298466064,"lon":12.080012261867523,"name":"BALZANI ARMANDO","brand":"Pompe Bianche","address":"VIALE KENNEDY 15 47027, SARSINA, FC","prices":[{"type":"petrol","price":1.994,"self":true,"updatedAt":"17/06/2026 17:51:54"},{"type":"diesel","price":2.077,"self":true,"updatedAt":"17/06/2026 17:51:54"}]},{"id":"38256","lat":43.91750045170533,"lon":12.14337408542633,"name":"Sarsina SABBA GABRIELE","brand":"Pompe Bianche","address":"via giacomo matteotti  105 47027, SARSINA, FC","prices":[{"type":"petrol","price":1.889,"self":true,"updatedAt":"16/06/2026 17:35:51"},{"type":"diesel","price":2.009,"self":true,"updatedAt":"16/06/2026 17:35:51"}]},{"id":"53860","lat":43.76482,"lon":12.03671,"name":"53552 VERGHERETO","brand":"Agip Eni","address":"SUPERSTRADA E 45 LOC.PIANTREBBIO, VERGHERETO, FC","prices":[{"type":"petrol","price":1.809,"self":true,"updatedAt":"22/06/2026 00:27:48"},{"type":"diesel","price":1.899,"self":true,"updatedAt":"22/06/2026 00:27:48"},{"type":"lpg","price":0.727,"self":false,"updatedAt":"22/06/2026 00:27:48"}]},{"id":"35503","lat":43.842671316731774,"lon":12.054378390312195,"name":"Stazione di Servizio Katia Bernabini","brand":"Pompe Bianche","address":"Strada Provinciale 43 42 47028, VERGHERETO, FC","prices":[{"type":"petrol","price":1.909,"self":true,"updatedAt":"18/06/2026 08:40:17"},{"type":"diesel","price":2.054,"self":true,"updatedAt":"18/06/2026 08:40:17"}]},{"id":"50767","lat":43.79045993398554,"lon":12.160842619430603,"name":"Casteldelci Sabba Gabriele","brand":"Pompe Bianche","address":"Località Giardiniera  47861, CASTELDELCI, RN","prices":[{"type":"petrol","price":1.979,"self":true,"updatedAt":"20/06/2026 08:31:51"},{"type":"diesel","price":1.999,"self":true,"updatedAt":"20/06/2026 08:31:50"}]},{"id":"12203","lat":43.86275912882501,"lon":12.20755750074818,"name":"SABBA GABRIELE S.Agata","brand":"Pompe Bianche","address":"VIA SARSINATE 5 47866, SANT'AGATA FELTRIA, RN","prices":[{"type":"petrol","price":1.889,"self":true,"updatedAt":"16/06/2026 10:45:56"},{"type":"diesel","price":2.009,"self":true,"updatedAt":"16/06/2026 10:45:56"}]}]