[{"id":"34136","lat":43.774646000392096,"lon":12.936286204027283,"name":"anonima","brand":"Pompe Bianche","address":"via flaminia  165 61030, CARTOCETO, PU","prices":[{"type":"petrol","price":1.969,"self":true,"updatedAt":"02/06/2026 06:34:58"},{"type":"diesel","price":1.999,"self":true,"updatedAt":"02/06/2026 06:34:58"}]},{"id":"63275","lat":43.7746651,"lon":12.9361994,"name":"GESIM04","brand":"Pompe Bianche","address":"Via Flaminia 165  61030, CARTOCETO, PU","prices":[{"type":"petrol","price":1.755,"self":true,"updatedAt":"29/06/2026 16:49:49"},{"type":"diesel","price":1.835,"self":true,"updatedAt":"29/06/2026 16:49:49"}]},{"id":"14638","lat":43.76391077929815,"lon":12.885240664853654,"name":"Stazione Carburanti Poderini Luisa","brand":"Tamoil","address":"VIA PESCHIERA 57 61030, CARTOCETO (PU) 57 61030, CARTOCETO, PU","prices":[{"type":"petrol","price":1.789,"self":false,"updatedAt":"27/06/2026 15:18:48"},{"type":"diesel","price":1.879,"self":false,"updatedAt":"27/06/2026 15:18:48"}]},{"id":"16343","lat":43.77591462015328,"lon":12.938160364418081,"name":"STAZIONE DI SERVIZIO IP F.LLI PERETTI CARTOCETO","brand":"Api-Ip","address":"VIA FRAZIONE LUCREZIA SS 3 KM 273+800 S.N. 61030, CARTOCETO (PU) 216 61030, CARTOCETO, PU","prices":[{"type":"petrol","price":1.829,"self":true,"updatedAt":"29/06/2026 10:19:14"},{"type":"diesel","price":1.919,"self":true,"updatedAt":"29/06/2026 10:19:14"}]},{"id":"16860","lat":43.751450952931364,"lon":12.91916012763977,"name":"Tamoil Calcinelli di Saltara","brand":"Tamoil","address":"SP 3 Flaminia Km 270+650 CALCINELLI  61036, COLLI AL METAURO, PU","prices":[{"type":"petrol","price":1.769,"self":true,"updatedAt":"30/06/2026 00:15:08"},{"type":"diesel","price":1.849,"self":true,"updatedAt":"30/06/2026 00:15:08"}]},{"id":"54385","lat":43.81350636435233,"lon":12.986419926100154,"name":"DISTRIBUTORE DI CARBURANTE DI RIDOLFI MASSIMO","brand":"Pompe Bianche","address":"S S FLAMINIA KN 279-673 3 61032, FANO, PU","prices":[{"type":"petrol","price":1.739,"self":true,"updatedAt":"29/06/2026 12:30:06"},{"type":"diesel","price":1.799,"self":true,"updatedAt":"29/06/2026 12:30:06"},{"type":"methane","price":1.599,"self":false,"updatedAt":"29/06/2026 12:30:06"},{"type":"lpg","price":0.779,"self":false,"updatedAt":"29/06/2026 12:30:06"}]},{"id":"31052","lat":43.82800810957716,"lon":12.995914220809937,"name":"Energia Fluida","brand":"Energia Fluida","address":"Statale 3 Via Flaminia, Km. 281,880, dir. Rosciano  61032, FANO, PU","prices":[{"type":"petrol","price":1.778,"self":true,"updatedAt":"27/06/2026 12:03:54"},{"type":"diesel","price":1.849,"self":false,"updatedAt":"27/06/2026 12:03:54"}]},{"id":"55007","lat":43.85628,"lon":12.99958,"name":"eni di donofrio gerardo e giuseppe e c. sas","brand":"Agip Eni","address":"ROMAGNA SS16KM.248 52 61032, FANO, PU","prices":[{"type":"petrol","price":1.719,"self":true,"updatedAt":"29/06/2026 00:39:46"},{"type":"diesel","price":1.629,"self":true,"updatedAt":"29/06/2026 00:39:46"}]},{"id":"53514","lat":43.792456,"lon":12.9459481,"name":"Metano Fano srl","brand":"Pompe Bianche","address":"Strada Provinciale 80 10 61032, FANO, PU","prices":[{"type":"methane","price":1.587,"self":false,"updatedAt":"27/06/2026 06:42:40"}]},{"id":"55302","lat":43.8750598,"lon":12.9702025,"name":"servito","brand":"Pompe Bianche","address":"S.da Nazionale Adriatica Nord 71 61032, FANO, PU","prices":[{"type":"petrol","price":1.735,"self":true,"updatedAt":"30/06/2026 07:00:25"},{"type":"diesel","price":1.805,"self":true,"updatedAt":"30/06/2026 07:00:25"},{"type":"lpg","price":0.789,"self":false,"updatedAt":"30/06/2026 07:00:25"}]},{"id":"5336","lat":43.77509133873172,"lon":12.974461913108826,"name":"Stazione di servizio IP di Zambelli Vagnini e Cavallini","brand":"Api-Ip","address":"VIA SUP.STR FANO-GROSS.   61032, FANO, PU","prices":[{"type":"petrol","price":1.777,"self":true,"updatedAt":"29/06/2026 10:57:33"},{"type":"diesel","price":1.857,"self":true,"updatedAt":"29/06/2026 10:57:33"},{"type":"lpg","price":0.799,"self":false,"updatedAt":"29/06/2026 10:57:33"}]},{"id":"10521","lat":43.841278412068526,"lon":12.968697314155634,"name":"Stazione di Servizio IP Mencoboni Nicoletta","brand":"Api-Ip","address":"VIA VIA DEL MULINO 7 61032, FANO (PU) 7 61032, FANO, PU","prices":[{"type":"petrol","price":1.819,"self":true,"updatedAt":"26/06/2026 07:10:15"},{"type":"diesel","price":1.899,"self":true,"updatedAt":"26/06/2026 07:10:15"}]},{"id":"61934","lat":43.86284059043001,"lon":12.989396452903748,"name":"TAMOIL FANO SNAN","brand":"Tamoil","address":"STRADA NAZ. ADRIATICA NORD 15/A 61032, FANO, PU","prices":[{"type":"petrol","price":1.735,"self":true,"updatedAt":"29/06/2026 12:02:12"},{"type":"diesel","price":1.805,"self":true,"updatedAt":"29/06/2026 12:02:12"}]},{"id":"8486","lat":43.80662897110283,"lon":12.985597229083282,"name":"_PV VULCANGAS-ENI- CUCCURANO","brand":"Agip Eni","address":"VIA EINSTEIN 40, 61032 40 61032, FANO, PU","prices":[{"type":"petrol","price":1.779,"self":true,"updatedAt":"29/06/2026 07:28:14"},{"type":"diesel","price":1.869,"self":true,"updatedAt":"29/06/2026 07:28:14"},{"type":"lpg","price":0.779,"self":false,"updatedAt":"29/06/2026 07:28:14"}]},{"id":"59751","lat":43.953705,"lon":12.750452,"name":"6101 GABICCE MARE","brand":"Agip Eni","address":"S.S.16 KM 223+532 LOC.TA' PONTE TAVOLLO  S.N.C, GABICCE MARE, PU","prices":[{"type":"petrol","price":1.809,"self":true,"updatedAt":"30/06/2026 00:04:34"},{"type":"diesel","price":1.869,"self":true,"updatedAt":"30/06/2026 00:04:33"},{"type":"methane","price":1.586,"self":false,"updatedAt":"30/06/2026 00:04:34"},{"type":"lpg","price":0.777,"self":false,"updatedAt":"30/06/2026 00:04:34"}]},{"id":"34225","lat":43.95774752016813,"lon":12.762107402086258,"name":"8101","brand":"Tamoil","address":"ROMAGNA 133 61011, GABICCE MARE, PU","prices":[{"type":"petrol","price":1.749,"self":true,"updatedAt":"29/06/2026 12:32:29"},{"type":"diesel","price":1.859,"self":true,"updatedAt":"29/06/2026 12:32:29"}]},{"id":"49471","lat":43.95824319865105,"lon":12.76027083396911,"name":"Energia Fluida Gabicce Mare","brand":"Energia Fluida","address":"VIA ROMAGNA 116 61011, GABICCE MARE, PU","prices":[{"type":"petrol","price":1.739,"self":true,"updatedAt":"29/06/2026 08:08:38"},{"type":"diesel","price":1.839,"self":true,"updatedAt":"29/06/2026 08:08:38"},{"type":"lpg","price":0.779,"self":false,"updatedAt":"29/06/2026 08:08:38"}]},{"id":"58249","lat":43.95026222672784,"lon":12.777864113661197,"name":"Gabicce Carburanti Discount","brand":"carburanti discount","address":"SCOLA VECCHIA 4 61011, GABICCE MARE, PU","prices":[{"type":"petrol","price":1.739,"self":true,"updatedAt":"29/06/2026 09:45:56"},{"type":"diesel","price":1.839,"self":true,"updatedAt":"29/06/2026 09:45:56"},{"type":"lpg","price":0.769,"self":false,"updatedAt":"29/06/2026 09:45:56"}]},{"id":"13274","lat":43.95936465715117,"lon":12.758197688795235,"name":"stazione di servizio erg di storari andrea & c.s.n.c.","brand":"Api-Ip","address":"VIA ROMAGNA 105 61011, GABICCE MARE, PU","prices":[{"type":"petrol","price":1.779,"self":true,"updatedAt":"25/06/2026 22:55:32"},{"type":"diesel","price":1.869,"self":true,"updatedAt":"25/06/2026 22:55:32"}]},{"id":"13246","lat":43.80393305493296,"lon":12.863743329499812,"name":"distributore ip","brand":"Api-Ip","address":"VIA VILLAGRANDE 90 61024, MOMBAROCCIO, PU","prices":[{"type":"petrol","price":1.87,"self":true,"updatedAt":"25/06/2026 14:39:02"},{"type":"diesel","price":1.965,"self":true,"updatedAt":"25/06/2026 14:39:02"}]},{"id":"24115","lat":43.853947392156954,"lon":12.803385257720947,"name":"LEONE/TAMOIL - Montelabbate","brand":"Tamoil","address":"S.P. 30 MONTELABBATESE KM 9  61025, MONTELABBATE, PU","prices":[{"type":"petrol","price":1.744,"self":true,"updatedAt":"29/06/2026 11:16:06"},{"type":"diesel","price":1.814,"self":true,"updatedAt":"29/06/2026 11:16:06"}]},{"id":"50629","lat":43.893019308069285,"lon":12.923207286571273,"name":"51492 Pesaro Flaminia","brand":"Agip Eni","address":"VIA FLAMINIA VECCHIA 370 61122, PESARO, PU","prices":[{"type":"petrol","price":1.809,"self":true,"updatedAt":"30/06/2026 00:23:04"},{"type":"diesel","price":1.889,"self":true,"updatedAt":"30/06/2026 00:23:04"}]},{"id":"59710","lat":43.91101,"lon":12.8982,"name":"53821 PESARO","brand":"Agip Eni","address":"SS 16 ADRIATICA KM 237+192, PESARO, PU","prices":[{"type":"petrol","price":1.829,"self":true,"updatedAt":"30/06/2026 00:08:09"},{"type":"diesel","price":1.889,"self":true,"updatedAt":"30/06/2026 00:08:09"}]},{"id":"26132","lat":43.901838383067435,"lon":12.8946614576721,"name":"6081 PESARO URBINO PONCHIELLI","brand":"Agip Eni","address":"VIA AMILCARE PONCHIELLI 84 61122, PESARO, PU","prices":[{"type":"petrol","price":1.784,"self":true,"updatedAt":"29/06/2026 00:37:55"},{"type":"diesel","price":1.809,"self":true,"updatedAt":"29/06/2026 23:59:49"}]},{"id":"11203","lat":43.90319911500147,"lon":12.917769915398594,"name":"AGIP SERVICE DI MASTRANGELO FLAVIO E CECCHINI ANDREA S.N.C","brand":"Agip Eni","address":"VIA FLAMINIA 14 61122, PESARO, PU","prices":[{"type":"petrol","price":1.809,"self":true,"updatedAt":"30/06/2026 00:26:48"},{"type":"diesel","price":1.889,"self":true,"updatedAt":"30/06/2026 07:14:22"}]},{"id":"61526","lat":43.89582777610967,"lon":12.911796738485716,"name":"ALA PESARO","brand":"Ala","address":"Via Antonio Fratti 137  61122, PESARO, PU","prices":[{"type":"petrol","price":1.777,"self":true,"updatedAt":"29/06/2026 00:14:17"},{"type":"diesel","price":1.837,"self":true,"updatedAt":"29/06/2026 00:14:17"}]},{"id":"53087","lat":43.92058999345247,"lon":12.90485993027687,"name":"Distributore del Porto","brand":"Pompe Bianche","address":"STRADA TRA I DUE PORTI S.N. 61121, PESARO, PU","prices":[{"type":"petrol","price":2.17,"self":false,"updatedAt":"26/06/2026 08:34:22"},{"type":"diesel","price":2.2,"self":false,"updatedAt":"26/06/2026 08:34:22"}]},{"id":"42965","lat":43.866958242853144,"lon":12.82836608139064,"name":"ENI 6128","brand":"Agip Eni","address":"Viale delle Regioni Km. 6,531 61122, PESARO, PU","prices":[{"type":"petrol","price":1.829,"self":true,"updatedAt":"30/06/2026 00:21:35"},{"type":"diesel","price":1.889,"self":true,"updatedAt":"29/06/2026 19:52:08"},{"type":"lpg","price":0.772,"self":false,"updatedAt":"29/06/2026 23:25:01"}]},{"id":"3707","lat":43.8947,"lon":12.8797,"name":"FOGLIA EST","brand":"Agip Eni","address":"Autostrada A14 BOLOGNA-BARI-TARANTO, Km. 158+900, dir. Nord - -, PESARO, PU","prices":[{"type":"petrol","price":1.979,"self":true,"updatedAt":"29/06/2026 12:46:11"},{"type":"diesel","price":2.069,"self":true,"updatedAt":"29/06/2026 12:46:11"}]},{"id":"53675","lat":43.89367500956074,"lon":12.879849672317505,"name":"FOGLIA OVEST","brand":"Api-Ip","address":"Autostrada A14 BOLOGNA-BARI-TARANTO, dir. sud, PESARO, PU","prices":[{"type":"petrol","price":1.999,"self":true,"updatedAt":"29/06/2026 09:00:07"},{"type":"diesel","price":2.099,"self":true,"updatedAt":"29/06/2026 09:00:08"},{"type":"lpg","price":0.999,"self":false,"updatedAt":"29/06/2026 09:00:08"}]},{"id":"8631","lat":43.83401754259724,"lon":12.855784893035889,"name":"FRANCESCONI GABRIELE","brand":"Esso","address":"VIA ARZILLA 22 61122, PESARO, PU","prices":[{"type":"petrol","price":1.829,"self":true,"updatedAt":"25/06/2026 14:18:41"},{"type":"diesel","price":1.969,"self":true,"updatedAt":"25/06/2026 14:18:41"},{"type":"lpg","price":0.799,"self":false,"updatedAt":"25/06/2026 14:18:41"}]},{"id":"27426","lat":43.89598940849251,"lon":12.910900679459019,"name":"Gennari Tamoil Pesaro","brand":"Tamoil","address":"VIA FRATTI 158 61122, PESARO, PU","prices":[{"type":"petrol","price":1.769,"self":false,"updatedAt":"28/06/2026 00:42:34"},{"type":"diesel","price":1.829,"self":false,"updatedAt":"28/06/2026 00:42:34"}]},{"id":"49568","lat":43.92769437158342,"lon":12.852243408344544,"name":"IP - Magico Sole S.r.l.","brand":"Api-Ip","address":"Strada Statale, Km. 232+700, nord - 61122, PESARO, PU","prices":[{"type":"petrol","price":1.799,"self":true,"updatedAt":"26/06/2026 19:02:52"},{"type":"diesel","price":1.899,"self":true,"updatedAt":"26/06/2026 19:02:52"}]},{"id":"14415","lat":43.896589967799294,"lon":12.904782876057425,"name":"MORETTI VALENTINA E STRAZZULLO GIUSEPPE & C. S.N.C.","brand":"Agip Eni","address":"VIA GIOLITTI 75 61122, PESARO, PU","prices":[{"type":"petrol","price":1.809,"self":true,"updatedAt":"29/06/2026 00:38:07"},{"type":"diesel","price":1.889,"self":true,"updatedAt":"29/06/2026 18:28:12"}]},{"id":"23000","lat":43.90079106942847,"lon":12.8960948564835,"name":"Pesaro","brand":"Api-Ip","address":"Via Ponchielli 58 61122, PESARO, PU","prices":[{"type":"petrol","price":1.749,"self":true,"updatedAt":"29/06/2026 09:15:50"},{"type":"diesel","price":1.819,"self":true,"updatedAt":"29/06/2026 09:15:50"}]},{"id":"22296","lat":43.91124589552372,"lon":12.900685830688417,"name":"PESARO - L.GO TRE MARTIRI","brand":"Api-Ip","address":"PESARO - L.GO TRE MARTIRI 6 61121, PESARO, PU","prices":[{"type":"petrol","price":1.749,"self":true,"updatedAt":"29/06/2026 09:00:32"},{"type":"diesel","price":1.819,"self":true,"updatedAt":"29/06/2026 09:00:32"}]},{"id":"30316","lat":43.880172533904506,"lon":12.819910989688083,"name":"PESARO - STRADA DI MONTEFELTRO 155","brand":"Q8","address":"STRADA DI MONTEFELTRO 155 61122, PESARO, PU","prices":[{"type":"petrol","price":1.744,"self":true,"updatedAt":"30/06/2026 07:44:37"},{"type":"diesel","price":1.814,"self":true,"updatedAt":"30/06/2026 07:44:37"}]},{"id":"25069","lat":43.90007789023714,"lon":12.841974198818207,"name":"PESARO - URBINATE","brand":"Api-Ip","address":"S.P. 423 URBINATE KM. 3,038  61100, PESARO, PU","prices":[{"type":"petrol","price":1.749,"self":true,"updatedAt":"29/06/2026 09:00:36"},{"type":"diesel","price":1.819,"self":true,"updatedAt":"29/06/2026 09:00:36"},{"type":"lpg","price":0.799,"self":false,"updatedAt":"29/06/2026 09:00:36"}]},{"id":"11784","lat":43.910802448297,"lon":12.896398901939392,"name":"PESARO S.S.16 ADRIATICA N.38 KM237","brand":"Q8","address":"S.S.16 ADRIATICA N.38 KM237  61100, PESARO, PU","prices":[{"type":"petrol","price":1.749,"self":true,"updatedAt":"29/06/2026 15:03:52"},{"type":"diesel","price":1.819,"self":true,"updatedAt":"29/06/2026 15:03:52"}]},{"id":"23238","lat":43.906625403127755,"lon":12.885281145572662,"name":"PESARO VIA J. GAGARIN 50","brand":"Q8","address":"VIA J. GAGARIN 50 61122, PESARO, PU","prices":[{"type":"petrol","price":1.779,"self":true,"updatedAt":"25/06/2026 01:41:55"},{"type":"diesel","price":1.839,"self":true,"updatedAt":"25/06/2026 01:41:55"}]},{"id":"27155","lat":43.90710887345354,"lon":12.917152586370548,"name":"PESARO VIALE CIALDINI","brand":"Q8","address":"VIALE CIALDINI  61100, PESARO, PU","prices":[{"type":"petrol","price":1.789,"self":true,"updatedAt":"25/06/2026 01:41:54"},{"type":"diesel","price":1.849,"self":true,"updatedAt":"25/06/2026 01:41:54"}]},{"id":"32591","lat":43.88228890693342,"lon":12.86494329571724,"name":"Pesaro Villa Fastiggi","brand":"Api-Ip","address":"VIA SALA LOC. VILLA FASTIGGI 2 61122, PESARO, PU","prices":[{"type":"petrol","price":1.759,"self":true,"updatedAt":"29/06/2026 09:11:43"},{"type":"diesel","price":1.829,"self":true,"updatedAt":"29/06/2026 09:11:43"}]},{"id":"24941","lat":43.89691502289466,"lon":12.904579103015976,"name":"PV 59251","brand":"Agip Eni","address":"VIA GIOLITTI 114, 61122 - -, PESARO, PU","prices":[{"type":"petrol","price":1.789,"self":true,"updatedAt":"30/06/2026 00:00:52"},{"type":"diesel","price":1.824,"self":true,"updatedAt":"30/06/2026 00:00:52"}]},{"id":"61248","lat":43.892736,"lon":12.8385024,"name":"RD SERVICE SAS","brand":"Pompe Bianche","address":"DI MONTEFELTRO 22/8 61122, PESARO, PU","prices":[{"type":"petrol","price":1.739,"self":true,"updatedAt":"30/06/2026 07:57:51"},{"type":"diesel","price":1.809,"self":true,"updatedAt":"30/06/2026 07:57:51"},{"type":"methane","price":1.599,"self":false,"updatedAt":"30/06/2026 07:57:51"},{"type":"lpg","price":0.799,"self":false,"updatedAt":"30/06/2026 07:57:51"}]},{"id":"37830","lat":43.90104588562532,"lon":12.895070788360613,"name":"Shell","brand":"Shell","address":"VIA AMILCARE PONCHIELLI 69 61122, PESARO, PU","prices":[{"type":"petrol","price":1.749,"self":true,"updatedAt":"30/06/2026 06:56:33"},{"type":"diesel","price":1.819,"self":true,"updatedAt":"30/06/2026 06:56:33"}]},{"id":"17445","lat":43.90324505933083,"lon":12.854596674442291,"name":"SPADONI PAOLO","brand":"Agip Eni","address":"VIA MONTEFELTRO SNC 61122, PESARO, PU","prices":[{"type":"petrol","price":1.829,"self":true,"updatedAt":"29/06/2026 00:37:10"},{"type":"diesel","price":1.919,"self":true,"updatedAt":"29/06/2026 00:37:10"}]},{"id":"63097","lat":43.91049126243058,"lon":12.890034318827118,"name":"Stazione di Servizio Esso","brand":"Esso","address":"STATALE ADRIATICA 141 61121, PESARO, PU","prices":[{"type":"petrol","price":1.749,"self":true,"updatedAt":"29/06/2026 18:57:31"},{"type":"diesel","price":1.819,"self":true,"updatedAt":"29/06/2026 18:57:31"}]},{"id":"31620","lat":43.92217228066515,"lon":12.856847047805786,"name":"Stazione di Servizio TOTALERG di Gulini Elena","brand":"Api-Ip","address":"STRADA DELLA ROMAGNA 125 61121, PESARO, PU","prices":[{"type":"petrol","price":1.779,"self":true,"updatedAt":"25/06/2026 13:29:32"},{"type":"diesel","price":1.879,"self":true,"updatedAt":"25/06/2026 13:29:32"},{"type":"lpg","price":0.799,"self":false,"updatedAt":"25/06/2026 13:29:32"}]},{"id":"27346","lat":43.88947191642649,"lon":12.871573872422005,"name":"STRADA DELLE REGIONI KM 2+260 - PESARO","brand":"Q8","address":"STRADA DELLE REGIONI KM 2+260  61100, PESARO, PU","prices":[{"type":"petrol","price":1.779,"self":true,"updatedAt":"26/06/2026 07:45:03"},{"type":"diesel","price":1.849,"self":true,"updatedAt":"26/06/2026 07:45:03"},{"type":"lpg","price":0.838,"self":false,"updatedAt":"26/06/2026 07:45:03"}]},{"id":"43332","lat":43.89101185476567,"lon":12.891291953372956,"name":"TAMOIL - PESARO","brand":"Tamoil","address":"VIA SANDRO PERTINI ITINERE NORD SNC 61122, PESARO (PU) SNC 61122, PESARO, PU","prices":[{"type":"petrol","price":1.779,"self":true,"updatedAt":"30/06/2026 00:17:36"},{"type":"diesel","price":1.849,"self":true,"updatedAt":"30/06/2026 00:17:36"},{"type":"methane","price":1.599,"self":false,"updatedAt":"29/06/2026 00:32:51"},{"type":"lpg","price":0.798,"self":false,"updatedAt":"29/06/2026 00:32:51"}]},{"id":"13635","lat":43.905867603956196,"lon":12.889315642960241,"name":"TAMOIL - Pesaro Gagarin 6","brand":"Tamoil","address":"VIA GAGARIN 6 61122, PESARO, PU","prices":[{"type":"petrol","price":1.779,"self":true,"updatedAt":"30/06/2026 00:17:07"},{"type":"diesel","price":1.838,"self":true,"updatedAt":"30/06/2026 00:17:07"}]},{"id":"53609","lat":43.91639991242906,"lon":12.90261501204509,"name":"TAMOIL - Pesaro Panoramica","brand":"Tamoil","address":"STRADA PANORAMICA 2 61122, PESARO, PU","prices":[{"type":"petrol","price":1.797,"self":true,"updatedAt":"29/06/2026 23:27:54"},{"type":"diesel","price":1.877,"self":true,"updatedAt":"29/06/2026 23:27:54"}]},{"id":"39577","lat":43.892692714875366,"lon":12.885766625404358,"name":"TAMOIL - VIA S.PERTINI","brand":"Tamoil","address":"VIA S.PERTINI NUOVA STR.INTERQUARTIERI DIR. NORD  61122, PESARO, PU","prices":[{"type":"petrol","price":1.779,"self":true,"updatedAt":"29/06/2026 23:32:00"},{"type":"diesel","price":1.849,"self":true,"updatedAt":"29/06/2026 23:32:00"}]},{"id":"39578","lat":43.893262919377186,"lon":12.890366613864899,"name":"TAMOIL - VIA SOLFERINO PESARO","brand":"Tamoil","address":"VIA SOLFERINO  61122, PESARO, PU","prices":[{"type":"petrol","price":1.779,"self":true,"updatedAt":"29/06/2026 00:35:18"},{"type":"diesel","price":1.849,"self":true,"updatedAt":"29/06/2026 00:35:18"},{"type":"lpg","price":0.798,"self":false,"updatedAt":"29/06/2026 00:35:18"}]},{"id":"24944","lat":43.8903967650517,"lon":12.890980839729309,"name":"TAMOIL Pesaro Interquartieri Sud","brand":"Tamoil","address":"Nuova Strada Interquartieri - Via Pertini 2502 61122, PESARO, PU","prices":[{"type":"petrol","price":1.779,"self":true,"updatedAt":"30/06/2026 00:25:51"},{"type":"diesel","price":1.849,"self":true,"updatedAt":"30/06/2026 00:25:51"},{"type":"lpg","price":0.798,"self":false,"updatedAt":"29/06/2026 00:25:58"}]},{"id":"34727","lat":43.8916231952915,"lon":12.8342160932541,"name":"TAMOIL PESARO STRADA MONTEFELTRO","brand":"Tamoil","address":"STRADA MONTEFELTRO  61122, PESARO, PU","prices":[{"type":"petrol","price":1.739,"self":true,"updatedAt":"29/06/2026 10:08:08"},{"type":"diesel","price":1.809,"self":true,"updatedAt":"29/06/2026 10:08:08"}]},{"id":"31117","lat":43.90874846834655,"lon":12.87576345529476,"name":"TAMOIL PESARO VIA GAGARIN 90","brand":"Tamoil","address":"VIA GAGARIN 90 61122, PESARO, PU","prices":[{"type":"petrol","price":1.779,"self":true,"updatedAt":"29/06/2026 23:28:25"},{"type":"diesel","price":1.838,"self":true,"updatedAt":"29/06/2026 23:28:25"}]},{"id":"42576","lat":43.753866840542585,"lon":12.921593294477475,"name":"Stazione servizion Eni di Traiani Alberto e Andrea","brand":"Agip Eni","address":"VIA FLAMINIA 81 61036, SALTARA, PU","prices":[{"type":"petrol","price":1.829,"self":true,"updatedAt":"29/06/2026 23:20:45"},{"type":"diesel","price":1.889,"self":true,"updatedAt":"29/06/2026 06:22:03"}]},{"id":"47010","lat":43.8598043205529,"lon":12.768157711639333,"name":"IP di Pazzaglia Monica","brand":"Api-Ip","address":"VIA XXI GENNAIO 158, 61020 158 61020, VALLEFOGLIA, PU","prices":[{"type":"petrol","price":1.769,"self":true,"updatedAt":"29/06/2026 09:49:07"},{"type":"diesel","price":1.859,"self":true,"updatedAt":"29/06/2026 09:49:07"}]},{"id":"13646","lat":43.85512683303845,"lon":12.782501578330994,"name":"TAMOIL - Montecchio","brand":"Tamoil","address":"VIA UMBRIA 10 61022, VALLEFOGLIA, PU","prices":[{"type":"petrol","price":1.777,"self":true,"updatedAt":"30/06/2026 00:16:11"},{"type":"diesel","price":1.857,"self":true,"updatedAt":"30/06/2026 00:16:11"},{"type":"lpg","price":0.795,"self":false,"updatedAt":"29/06/2026 23:27:28"}]},{"id":"24257","lat":43.9599922771195,"lon":12.750169737434362,"name":"CATTOLICA - GARIBALDI","brand":"Api-Ip","address":"CATTOLICA VIA GARIBALDI 174 47841, CATTOLICA, RN","prices":[{"type":"petrol","price":1.748,"self":true,"updatedAt":"29/06/2026 09:00:43"},{"type":"diesel","price":1.858,"self":true,"updatedAt":"29/06/2026 09:00:43"}]},{"id":"18702","lat":43.95977996982606,"lon":12.75184244907382,"name":"stazione di servizio agip","brand":"Agip Eni","address":"VIA G. GARIBALDI 200 47841, CATTOLICA, RN","prices":[{"type":"petrol","price":1.804,"self":true,"updatedAt":"30/06/2026 00:23:26"},{"type":"diesel","price":1.864,"self":true,"updatedAt":"30/06/2026 00:23:26"}]}]