[{"id":"60712","lat":43.912838,"lon":8.0867195,"name":"51560 DIANO MARINA","brand":"Agip Eni","address":"Via Generale Ardoino 67  18013, DIANO MARINA, IM","prices":[{"type":"petrol","price":1.829,"self":true,"updatedAt":"21/06/2026 00:17:52"},{"type":"diesel","price":1.919,"self":true,"updatedAt":"21/06/2026 00:17:52"}]},{"id":"11616","lat":43.912530916198136,"lon":8.077945597553253,"name":"DIANO MARINA-VIA C. BATTISTI 62","brand":"Q8","address":"VIA C. BATTISTI 62 18013, DIANO MARINA, IM","prices":[{"type":"petrol","price":1.829,"self":true,"updatedAt":"20/06/2026 08:10:59"},{"type":"diesel","price":1.919,"self":true,"updatedAt":"20/06/2026 08:10:59"}]},{"id":"61177","lat":43.9156736,"lon":8.1035264,"name":"Distributore IP Diano Marina","brand":"Api-Ip","address":"Via Generale Ardoino 6 18013, DIANO MARINA, IM","prices":[{"type":"petrol","price":1.829,"self":true,"updatedAt":"19/06/2026 17:05:26"},{"type":"diesel","price":1.929,"self":true,"updatedAt":"19/06/2026 17:05:26"}]},{"id":"58586","lat":43.88636,"lon":8.030756,"name":"55224  IMPERIA","brand":"Agip Eni","address":"Lungomare A. Vespucci  18100, IMPERIA, IM","prices":[{"type":"petrol","price":1.829,"self":true,"updatedAt":"21/06/2026 00:32:08"},{"type":"diesel","price":1.919,"self":true,"updatedAt":"21/06/2026 00:32:08"}]},{"id":"7930","lat":43.896113473411226,"lon":8.038800358772278,"name":"eni ramoino a e c snc","brand":"Agip Eni","address":"VIA XXV APRILE 136 18100, IMPERIA, IM","prices":[{"type":"petrol","price":1.874,"self":true,"updatedAt":"21/06/2026 00:17:40"},{"type":"diesel","price":1.984,"self":true,"updatedAt":"21/06/2026 00:17:40"}]},{"id":"57750","lat":43.8890594,"lon":8.0326199,"name":"EUROPAM - IMPERIA","brand":"Europam","address":"Viale Giacomo Matteotti 165  18100, IMPERIA, IM","prices":[{"type":"petrol","price":1.847,"self":true,"updatedAt":"19/06/2026 13:32:52"},{"type":"diesel","price":1.947,"self":true,"updatedAt":"19/06/2026 13:32:52"}]},{"id":"17681","lat":43.892567140539995,"lon":8.039629504299228,"name":"IM GARESSIO","brand":"Api-Ip","address":"VIA GARESSIO 1/A 18100, IMPERIA, IM","prices":[{"type":"petrol","price":1.824,"self":true,"updatedAt":"20/06/2026 09:02:34"},{"type":"diesel","price":1.914,"self":true,"updatedAt":"20/06/2026 09:02:34"}]},{"id":"29312","lat":43.87560550260221,"lon":8.017614930868149,"name":"Imperia","brand":"Api-Ip","address":"Corso Garibaldi   18100, IMPERIA, IM","prices":[{"type":"petrol","price":1.824,"self":true,"updatedAt":"20/06/2026 09:16:32"},{"type":"diesel","price":1.914,"self":true,"updatedAt":"20/06/2026 09:16:32"}]},{"id":"31330","lat":43.8899030220822,"lon":8.033465261376932,"name":"imperia-on","brand":"Esso","address":"VIALE MATTEOTTI 177 18100, IMPERIA, IM","prices":[{"type":"petrol","price":1.919,"self":true,"updatedAt":"12/06/2026 07:58:27"},{"type":"diesel","price":2.05,"self":true,"updatedAt":"12/06/2026 07:58:27"}]},{"id":"48225","lat":43.89001016772009,"lon":8.034036755561829,"name":"ionescu patricia e c. sas","brand":"Agip Eni","address":"VIALE  G. MATTEOTTI 134 18100, IMPERIA, IM","prices":[{"type":"petrol","price":1.849,"self":true,"updatedAt":"21/06/2026 00:54:03"},{"type":"diesel","price":1.949,"self":true,"updatedAt":"21/06/2026 00:54:03"}]},{"id":"50853","lat":43.92118379396702,"lon":8.024941429739894,"name":"Pv 54151","brand":"Agip Eni","address":"28 del Colle di Nava, Km. 136+500, Imperia - 18100, IMPERIA, IM","prices":[{"type":"petrol","price":1.864,"self":true,"updatedAt":"21/06/2026 00:18:56"},{"type":"diesel","price":1.979,"self":true,"updatedAt":"21/06/2026 00:18:56"},{"type":"methane","price":1.61,"self":false,"updatedAt":"21/06/2026 00:56:15"},{"type":"lpg","price":0.859,"self":false,"updatedAt":"21/06/2026 00:56:15"}]},{"id":"48384","lat":43.87134296019265,"lon":8.008275450375612,"name":"Stazione di servizio di Marasco Franco","brand":"Agip Eni","address":"1 Via Aurelia, Km. 650, 020 - 18100, IMPERIA, IM","prices":[{"type":"petrol","price":1.844,"self":true,"updatedAt":"21/06/2026 00:55:41"},{"type":"diesel","price":1.949,"self":true,"updatedAt":"21/06/2026 00:55:41"}]},{"id":"51601","lat":43.87162854245802,"lon":8.001477760639302,"name":"STAZIONE di SERVIZIO TAMOIL","brand":"Tamoil","address":"VIA LITTARDI 56 18100, IMPERIA, IM","prices":[{"type":"petrol","price":1.849,"self":true,"updatedAt":"20/06/2026 23:27:54"},{"type":"diesel","price":1.959,"self":true,"updatedAt":"20/06/2026 19:42:09"}]},{"id":"59661","lat":43.92858,"lon":8.017933,"name":"1213  PONTEDASSIO","brand":"Agip Eni","address":"VIA NAZIONALE REGIONE ARIBAGA  SNC, PONTEDASSIO, IM","prices":[{"type":"petrol","price":1.844,"self":true,"updatedAt":"21/06/2026 00:17:03"},{"type":"diesel","price":1.949,"self":true,"updatedAt":"21/06/2026 00:17:03"}]},{"id":"57196","lat":43.92043598523773,"lon":8.102885250401183,"name":"EUROPAM","brand":"Europam","address":"AURELIA 27 18016, SAN BARTOLOMEO AL MARE, IM","prices":[{"type":"petrol","price":1.887,"self":true,"updatedAt":"17/06/2026 07:32:55"},{"type":"diesel","price":1.967,"self":true,"updatedAt":"17/06/2026 07:32:55"}]},{"id":"43073","lat":43.920333076670154,"lon":8.098214475452894,"name":"REGIS P38","brand":"Pompe Bianche","address":"1 Via Aurelia, Km. 153, IMPERIA - 18016, SAN BARTOLOMEO AL MARE, IM","prices":[{"type":"petrol","price":1.88,"self":true,"updatedAt":"20/06/2026 11:15:36"},{"type":"diesel","price":1.96,"self":true,"updatedAt":"20/06/2026 11:15:36"}]},{"id":"8282","lat":43.92165644800558,"lon":8.103269934654236,"name":"riviera ponente services","brand":"Agip Eni","address":"AURELIA 43 18016, SAN BARTOLOMEO AL MARE, IM","prices":[{"type":"petrol","price":1.849,"self":true,"updatedAt":"21/06/2026 00:16:48"},{"type":"diesel","price":1.949,"self":true,"updatedAt":"21/06/2026 00:16:48"}]},{"id":"62718","lat":43.94273818372841,"lon":8.113061338663101,"name":"VALLE CHIAPPA SUD","brand":"Esso","address":"Autostrada A10 SAVONA-VENTIMIGLIA, Km. 97+706, dir. SUD - 18016, SAN BARTOLOMEO AL MARE, IM","prices":[{"type":"diesel","price":1.959,"self":true,"updatedAt":"19/06/2026 10:05:40"}]},{"id":"37348","lat":43.94273818372841,"lon":8.113061338663101,"name":"VALLE CHIAPPA SUD","brand":"Esso","address":"Autostrada A10 SAVONA-VENTIMIGLIA, Km. 97+706, dir. SUD - 18016, SAN BARTOLOMEO AL MARE, IM","prices":[{"type":"petrol","price":1.899,"self":true,"updatedAt":"19/06/2026 10:05:16"},{"type":"diesel","price":2.058,"self":true,"updatedAt":"19/06/2026 10:05:16"}]},{"id":"62233","lat":43.99917746105419,"lon":8.165337097264796,"name":"Alassio - V.L.Da Vinci/C.so Europa","brand":"Api-Ip","address":"DA VINCI ANG. C.SO EUROPA 257 17021, ALASSIO, SV","prices":[{"type":"petrol","price":1.849,"self":true,"updatedAt":"20/06/2026 09:11:58"},{"type":"diesel","price":1.939,"self":true,"updatedAt":"20/06/2026 09:11:58"}]},{"id":"58282","lat":43.950085,"lon":8.145614,"name":"51612 ANDORA","brand":"Agip Eni","address":"VIA AURELIA KM 632+558  178, ANDORA, SV","prices":[{"type":"petrol","price":1.849,"self":true,"updatedAt":"21/06/2026 00:21:43"},{"type":"diesel","price":1.954,"self":true,"updatedAt":"21/06/2026 00:21:43"}]},{"id":"47824","lat":43.96454684055129,"lon":8.138452470302582,"name":"beltrame e mander","brand":"Tamoil","address":"via s. caterina 12 17051, ANDORA, SV","prices":[{"type":"petrol","price":1.849,"self":true,"updatedAt":"21/06/2026 01:08:46"},{"type":"diesel","price":1.969,"self":true,"updatedAt":"21/06/2026 01:08:46"},{"type":"lpg","price":0.839,"self":true,"updatedAt":"11/06/2026 15:06:57"}]},{"id":"47511","lat":43.95834552974849,"lon":8.134235441684723,"name":"RINOVO NORD","brand":"Tamoil","address":"A10 SAVONA-VENTIMIGLIA, Km. 95, Ovest - 17051, ANDORA, SV","prices":[{"type":"petrol","price":1.969,"self":true,"updatedAt":"19/06/2026 16:42:01"},{"type":"diesel","price":2.066,"self":true,"updatedAt":"19/06/2026 16:42:01"}]},{"id":"38694","lat":43.963303538959465,"lon":8.136099502444267,"name":"S.G. di Ghiozzi e Volpi","brand":"Esso","address":"VIA MERULA 9 17051, ANDORA, SV","prices":[{"type":"petrol","price":1.969,"self":true,"updatedAt":"20/06/2026 10:48:18"},{"type":"diesel","price":1.979,"self":true,"updatedAt":"20/06/2026 10:48:18"}]},{"id":"57271","lat":43.9764,"lon":8.15816,"name":"Europam","brand":"Europam","address":"Via Roma 81 17053, LAIGUEGLIA, SV","prices":[{"type":"petrol","price":1.954,"self":true,"updatedAt":"19/06/2026 11:52:32"},{"type":"diesel","price":2.054,"self":true,"updatedAt":"19/06/2026 11:52:32"}]}]