[{"id":"61533","lat":43.783367286480406,"lon":10.831622723493943,"name":"ALA STABBIA","brand":"Ala","address":"SR 436 KM.1+943 - LOC. STABBIA  50050, CERRETO GUIDI, FI","prices":[{"type":"petrol","price":1.769,"self":true,"updatedAt":"30/06/2026 12:46:14"},{"type":"diesel","price":1.859,"self":true,"updatedAt":"30/06/2026 23:47:12"}]},{"id":"18567","lat":43.77869392224317,"lon":10.858638081020331,"name":"self pingua","brand":"Quattro Petroli","address":"VIA SUL VINCIO 2C 50050, CERRETO GUIDI, FI","prices":[{"type":"petrol","price":1.799,"self":true,"updatedAt":"27/06/2026 21:30:04"},{"type":"diesel","price":1.899,"self":true,"updatedAt":"27/06/2026 21:30:04"},{"type":"lpg","price":0.739,"self":false,"updatedAt":"27/06/2026 21:30:04"}]},{"id":"19977","lat":43.78862521582311,"lon":10.773982272578223,"name":"Quattropetroli","brand":"Quattro Petroli","address":"via Delle Cerbaie Massarella 53 50050, FUCECCHIO, FI","prices":[{"type":"petrol","price":1.779,"self":true,"updatedAt":"29/06/2026 11:41:07"},{"type":"diesel","price":1.889,"self":true,"updatedAt":"29/06/2026 11:41:07"}]},{"id":"62213","lat":43.7710908312997,"lon":10.917812898147572,"name":"Eni Vinci","brand":"Agip Eni","address":"PROVINCIALE DI MERCATALE SNC 50059, VINCI, FI","prices":[{"type":"petrol","price":1.819,"self":true,"updatedAt":"30/06/2026 00:15:14"},{"type":"diesel","price":1.889,"self":true,"updatedAt":"30/06/2026 08:10:12"}]},{"id":"44717","lat":43.906797777763934,"lon":10.993752479553223,"name":"DISTRIBUTORE ESSO AGLIANA SETTOLA","brand":"Esso","address":"NUOVA PRATESE SNC 51031, AGLIANA, PT","prices":[{"type":"petrol","price":1.839,"self":true,"updatedAt":"01/07/2026 07:40:07"},{"type":"diesel","price":1.929,"self":true,"updatedAt":"01/07/2026 07:40:07"},{"type":"lpg","price":0.779,"self":false,"updatedAt":"30/06/2026 07:40:05"}]},{"id":"16744","lat":43.80361994974964,"lon":10.852542892098427,"name":"4 quattropetroli","brand":"Quattro Petroli","address":"VIA CERBAIA 428 51035, LAMPORECCHIO, PT","prices":[{"type":"petrol","price":1.799,"self":true,"updatedAt":"23/06/2026 12:18:45"},{"type":"diesel","price":1.899,"self":true,"updatedAt":"23/06/2026 12:18:45"}]},{"id":"46846","lat":43.806531324688194,"lon":10.885963290929794,"name":"ADS LAMPORECCHIO","brand":"Ala","address":"VIA FIRENZE 171 51035, LAMPORECCHIO (PT) 171 51035, LAMPORECCHIO, PT","prices":[{"type":"petrol","price":1.819,"self":true,"updatedAt":"01/07/2026 00:40:10"},{"type":"diesel","price":1.899,"self":true,"updatedAt":"01/07/2026 00:40:09"}]},{"id":"36924","lat":43.81378007093612,"lon":10.893055647611618,"name":"totalerg lamporecchio","brand":"Api-Ip","address":"via verdi 69 51035, LAMPORECCHIO, PT","prices":[{"type":"petrol","price":2.032,"self":true,"updatedAt":"30/06/2026 07:18:31"},{"type":"diesel","price":2.129,"self":true,"updatedAt":"30/06/2026 07:18:31"}]},{"id":"46207","lat":43.808941000123,"lon":10.895069000123,"name":"VIA LEONARDO DA VINCI - LAMPORECCHIO","brand":"Agip Eni","address":"VIA LEONARDO DA VINCI  51035, LAMPORECCHIO, PT","prices":[{"type":"petrol","price":1.819,"self":true,"updatedAt":"01/07/2026 05:59:57"},{"type":"diesel","price":1.899,"self":true,"updatedAt":"01/07/2026 05:59:57"}]},{"id":"31346","lat":43.818396363672605,"lon":10.88615844047547,"name":"4 PETROLI","brand":"Quattro Petroli","address":"VIA GUGLIELMO MARCONI 963 51036, LARCIANO, PT","prices":[{"type":"petrol","price":1.799,"self":true,"updatedAt":"30/06/2026 07:18:24"},{"type":"diesel","price":1.899,"self":true,"updatedAt":"30/06/2026 07:18:24"}]},{"id":"50382","lat":43.80402755536763,"lon":10.847786258421568,"name":"LARCIANO","brand":"Agip Eni","address":"SR FRANCESCA SUD  51036, LARCIANO, PT","prices":[{"type":"petrol","price":1.789,"self":true,"updatedAt":"29/06/2026 09:15:33"},{"type":"diesel","price":1.834,"self":true,"updatedAt":"27/06/2026 07:51:23"},{"type":"lpg","price":0.782,"self":false,"updatedAt":"27/06/2026 07:04:58"}]},{"id":"51895","lat":43.95126688060275,"lon":10.829168781638145,"name":"montagnana","brand":"Ala","address":"VIA GIAMPIERONE-FORRA DELLA DOCCIA  51010, MARLIANA, PT","prices":[{"type":"petrol","price":1.839,"self":true,"updatedAt":"27/06/2026 14:56:19"},{"type":"diesel","price":1.929,"self":true,"updatedAt":"27/06/2026 14:56:19"}]},{"id":"11225","lat":43.869921824483164,"lon":10.7555719067459,"name":"4 QUATTROPETROLI","brand":"Quattro Petroli","address":"VIA ANTONIO GRAMSCI 4 51010, MASSA E COZZILE, PT","prices":[{"type":"petrol","price":1.779,"self":false,"updatedAt":"29/06/2026 09:07:34"},{"type":"diesel","price":1.889,"self":false,"updatedAt":"29/06/2026 09:07:34"}]},{"id":"47472","lat":43.88568293223449,"lon":10.76274452392519,"name":"8480","brand":"Tamoil","address":"VIA LUCCHESE 27 51016, MASSA E COZZILE, PT","prices":[{"type":"petrol","price":1.729,"self":true,"updatedAt":"01/07/2026 00:05:10"},{"type":"diesel","price":1.799,"self":true,"updatedAt":"01/07/2026 00:05:10"}]},{"id":"43773","lat":43.85971956180349,"lon":10.761667066384234,"name":"MASSA E COZZILE","brand":"Economy","address":"VIA PINO  51010, MASSA E COZZILE, PT","prices":[{"type":"petrol","price":1.839,"self":true,"updatedAt":"30/06/2026 10:25:01"},{"type":"diesel","price":1.899,"self":true,"updatedAt":"30/06/2026 10:24:57"},{"type":"methane","price":1.699,"self":false,"updatedAt":"27/06/2026 07:03:35"},{"type":"lpg","price":0.749,"self":false,"updatedAt":"27/06/2026 07:06:03"}]},{"id":"51864","lat":43.866773025990554,"lon":10.810571299794889,"name":"55416 – MONSUMMANO TERME","brand":"Agip Eni","address":"VIA DELLA COSTITUZIONE, 138  51015, MONSUMMANO TERME, PT","prices":[{"type":"petrol","price":1.829,"self":true,"updatedAt":"30/06/2026 00:27:37"},{"type":"diesel","price":1.899,"self":true,"updatedAt":"30/06/2026 00:27:37"}]},{"id":"45443","lat":43.865297527342356,"lon":10.815675258636475,"name":"ACI - Monsummano T.me (PT)","brand":"ACI_PT","address":"Via della Repubblica 167 51015, MONSUMMANO TERME, PT","prices":[{"type":"petrol","price":1.799,"self":true,"updatedAt":"29/06/2026 17:14:04"},{"type":"diesel","price":1.899,"self":true,"updatedAt":"29/06/2026 17:14:04"}]},{"id":"40040","lat":43.85037043730513,"lon":10.82452118396759,"name":"Eni","brand":"Agip Eni","address":"FRANCESCA VIOLI 463 51015, MONSUMMANO TERME, PT","prices":[{"type":"petrol","price":1.824,"self":true,"updatedAt":"30/06/2026 00:27:27"},{"type":"diesel","price":1.894,"self":true,"updatedAt":"30/06/2026 00:27:27"}]},{"id":"48184","lat":43.845692211131464,"lon":10.81419944763183,"name":"MONSUMMANO B.FUEL","brand":"Pompe Bianche","address":"S.R. 436 VARIANTE FRANCESCA SNC 51015, MONSUMMANO TERME, PT","prices":[{"type":"petrol","price":1.799,"self":true,"updatedAt":"30/06/2026 13:17:00"},{"type":"diesel","price":1.879,"self":true,"updatedAt":"30/06/2026 13:17:01"},{"type":"lpg","price":0.739,"self":false,"updatedAt":"30/06/2026 21:16:43"}]},{"id":"28697","lat":43.83958837226079,"lon":10.827979892492294,"name":"MONSUMMANO CINTOLESE","brand":"Economy","address":"VIA FRANCESCA SUD  51015, MONSUMMANO TERME, PT","prices":[{"type":"petrol","price":1.839,"self":true,"updatedAt":"30/06/2026 10:24:55"},{"type":"diesel","price":1.899,"self":true,"updatedAt":"30/06/2026 10:24:53"}]},{"id":"23293","lat":43.85984397656378,"lon":10.801725089550018,"name":"MONSUMMANO P.TERZO","brand":"Agip Eni","address":"S.P. PORRIONE DEL TERZO  51015, MONSUMMANO TERME, PT","prices":[{"type":"petrol","price":1.829,"self":true,"updatedAt":"30/06/2026 09:36:48"},{"type":"diesel","price":1.899,"self":true,"updatedAt":"30/06/2026 10:48:52"},{"type":"methane","price":1.699,"self":false,"updatedAt":"27/06/2026 07:03:39"}]},{"id":"28669","lat":43.86252072674141,"lon":10.818273648619652,"name":"MONSUMMANO TERME","brand":"Agip Eni","address":"S.P. FRANCESCA SUD  52015, MONSUMMANO TERME, PT","prices":[{"type":"petrol","price":1.739,"self":true,"updatedAt":"30/06/2026 10:21:52"},{"type":"diesel","price":1.899,"self":true,"updatedAt":"30/06/2026 10:21:43"}]},{"id":"59796","lat":43.878177581639164,"lon":10.781323020654309,"name":"COIL MONTECATINI TERME","brand":"COIL","address":"Viale Ugo Foscolo 40 51016, MONTECATINI-TERME, PT","prices":[{"type":"petrol","price":1.689,"self":true,"updatedAt":"01/07/2026 00:18:20"},{"type":"diesel","price":1.789,"self":true,"updatedAt":"01/07/2026 00:18:20"}]},{"id":"56920","lat":43.88609,"lon":10.76158,"name":"ENI STATION","brand":"Agip Eni","address":"PROVINCIALE LUCCHESE 22 51016, MONTECATINI-TERME, PT","prices":[{"type":"petrol","price":1.824,"self":true,"updatedAt":"30/06/2026 23:17:01"},{"type":"diesel","price":1.894,"self":true,"updatedAt":"30/06/2026 23:17:01"}]},{"id":"55246","lat":43.880279,"lon":10.778724,"name":"ESSO MONTECATINI TERME C.SO MATTEOTTI, 200","brand":"Esso","address":"MATTEOTTI 200 51016, MONTECATINI-TERME, PT","prices":[{"type":"petrol","price":1.719,"self":true,"updatedAt":"01/07/2026 07:12:53"},{"type":"diesel","price":1.869,"self":true,"updatedAt":"01/07/2026 07:12:53"}]},{"id":"34014","lat":43.87898573174195,"lon":10.785524093254105,"name":"IP","brand":"Api-Ip","address":"PISTOIESE 36 51016, MONTECATINI-TERME, PT","prices":[{"type":"petrol","price":1.716,"self":true,"updatedAt":"27/06/2026 08:01:30"},{"type":"diesel","price":1.846,"self":true,"updatedAt":"27/06/2026 08:01:30"}]},{"id":"25071","lat":43.880271000372275,"lon":10.779962449073764,"name":"MONTECATINI TERME - MATTEOTTI","brand":"Api-Ip","address":"CORSO MATTEOTTI  51016, MONTECATINI-TERME, PT","prices":[{"type":"petrol","price":1.694,"self":true,"updatedAt":"30/06/2026 13:01:18"},{"type":"diesel","price":1.794,"self":true,"updatedAt":"30/06/2026 13:01:18"}]},{"id":"22330","lat":43.87446373153224,"lon":10.772646431282737,"name":"MONTECATINI TERME E TET VIA DEL SALSERO 184","brand":"Q8","address":"VIA DEL SALSERO 184 51016, MONTECATINI-TERME, PT","prices":[{"type":"petrol","price":1.719,"self":true,"updatedAt":"01/07/2026 01:41:44"},{"type":"diesel","price":1.819,"self":true,"updatedAt":"01/07/2026 01:41:44"}]},{"id":"47482","lat":43.8624675220994,"lon":10.769055841427049,"name":"QUATTRO PETROLI FULL SERVICE","brand":"Quattro Petroli","address":"VIA CAMPORCIONI 22 51016, MONTECATINI-TERME, PT","prices":[{"type":"petrol","price":1.779,"self":true,"updatedAt":"01/07/2026 07:13:41"},{"type":"diesel","price":1.879,"self":true,"updatedAt":"01/07/2026 07:13:41"},{"type":"lpg","price":0.739,"self":false,"updatedAt":"01/07/2026 07:13:41"}]},{"id":"58279","lat":43.878414,"lon":10.78783,"name":"5350 PIEVE A NIEVOLE","brand":"Agip Eni","address":"Via Mezzomiglio 1  51018, PIEVE A NIEVOLE, PT","prices":[{"type":"petrol","price":1.829,"self":true,"updatedAt":"30/06/2026 23:53:59"},{"type":"diesel","price":1.899,"self":true,"updatedAt":"30/06/2026 23:53:59"}]},{"id":"62956","lat":43.888946335257565,"lon":10.814275980148315,"name":"Pistoia - Pieve a Nievole","brand":"Beyfin","address":"AMENDOLA S.S. 435 60 51018, PIEVE A NIEVOLE, PT","prices":[{"type":"petrol","price":1.719,"self":true,"updatedAt":"30/06/2026 23:33:58"},{"type":"diesel","price":1.829,"self":true,"updatedAt":"30/06/2026 23:33:58"},{"type":"methane","price":1.599,"self":false,"updatedAt":"30/06/2026 23:33:58"},{"type":"lpg","price":0.739,"self":false,"updatedAt":"30/06/2026 23:33:58"}]},{"id":"10890","lat":43.861436128308206,"lon":10.786589288360574,"name":"quattropetroli","brand":"Quattro Petroli","address":"VIA GUGLIELMO MARCONI 212/B 51018, PIEVE A NIEVOLE, PT","prices":[{"type":"petrol","price":1.779,"self":true,"updatedAt":"01/07/2026 05:43:27"},{"type":"diesel","price":1.879,"self":true,"updatedAt":"01/07/2026 05:43:27"}]},{"id":"62090","lat":43.927715,"lon":10.899796,"name":"5349 PISTOIA","brand":"Agip Eni","address":"Viale Macallè  51100, PISTOIA, PT","prices":[{"type":"petrol","price":1.829,"self":true,"updatedAt":"01/07/2026 00:37:11"},{"type":"diesel","price":1.899,"self":true,"updatedAt":"01/07/2026 00:37:11"}]},{"id":"45442","lat":43.92326768547303,"lon":10.918586254119873,"name":"ACI - Pistoia (PT)","brand":"ACI_PT","address":"Via Bonellina 17/19 51100, PISTOIA, PT","prices":[{"type":"petrol","price":1.799,"self":true,"updatedAt":"29/06/2026 17:12:56"},{"type":"diesel","price":1.889,"self":true,"updatedAt":"29/06/2026 17:12:56"}]},{"id":"45072","lat":43.9224107669142,"lon":10.921048521995544,"name":"ADS PISTOIA GUICCIARDINI","brand":"Esso","address":"VIA GUICCIARDINI 1 51100, PISTOIA (PT) 1 51100, PISTOIA, PT","prices":[{"type":"petrol","price":1.827,"self":true,"updatedAt":"01/07/2026 07:40:11"},{"type":"diesel","price":1.897,"self":true,"updatedAt":"01/07/2026 07:40:11"}]},{"id":"30460","lat":43.91858237930583,"lon":10.886490941047668,"name":"ADS PISTOIA LA FORTEZZA","brand":"Ala","address":"VIA VARIANTE LUCCHESE snc 51100, PISTOIA (PT) NCM 51100, PISTOIA, PT","prices":[{"type":"petrol","price":1.799,"self":true,"updatedAt":"01/07/2026 06:48:03"},{"type":"diesel","price":1.879,"self":true,"updatedAt":"01/07/2026 06:48:03"},{"type":"lpg","price":0.779,"self":false,"updatedAt":"01/07/2026 07:10:14"}]},{"id":"58668","lat":43.94028489791312,"lon":10.92697159630129,"name":"ALA VIA SESTINI","brand":"Esso","address":"BARTOLOMEO SESTINI SNC 51100, PISTOIA, PT","prices":[{"type":"petrol","price":1.829,"self":true,"updatedAt":"01/07/2026 07:02:13"},{"type":"diesel","price":1.919,"self":true,"updatedAt":"01/07/2026 07:02:13"}]},{"id":"49503","lat":43.943141,"lon":10.9010304,"name":"Area di Servizio - IP","brand":"Api-Ip","address":"Viale Adua 240  51100, PISTOIA, PT","prices":[{"type":"petrol","price":1.796,"self":true,"updatedAt":"27/06/2026 11:23:27"},{"type":"diesel","price":1.85,"self":true,"updatedAt":"27/06/2026 11:23:27"}]},{"id":"13786","lat":43.92164640187811,"lon":10.91565191745758,"name":"CAPECCHI MASSIMILIANO ENI","brand":"Agip Eni","address":"VIA RACCORDO AUTOSTRADALE, 51100 - -, PISTOIA, PT","prices":[{"type":"petrol","price":1.829,"self":true,"updatedAt":"01/07/2026 00:07:47"},{"type":"diesel","price":1.899,"self":true,"updatedAt":"01/07/2026 00:07:47"}]},{"id":"48349","lat":43.91670539797134,"lon":10.938181877136225,"name":"DISTRIBUTORE PISTOIA CANAPALE","brand":"Ala","address":"STRADA STRADA PROVINCIALE 47 SNC 51100, PISTOIA (PT) SNC 51100, PISTOIA, PT","prices":[{"type":"petrol","price":1.817,"self":true,"updatedAt":"01/07/2026 07:02:12"},{"type":"diesel","price":1.897,"self":true,"updatedAt":"01/07/2026 07:02:12"},{"type":"lpg","price":0.799,"self":false,"updatedAt":"30/06/2026 23:35:56"}]},{"id":"51070","lat":43.92203307338393,"lon":10.920927226543421,"name":"DISTRIBUTORE PISTOIA GUICC.","brand":"Esso","address":"VIA GUICCIARDINI 2 51100, PISTOIA (PT) 2 51100, PISTOIA, PT","prices":[{"type":"petrol","price":1.797,"self":true,"updatedAt":"30/06/2026 23:36:03"},{"type":"diesel","price":1.877,"self":true,"updatedAt":"30/06/2026 23:36:03"}]},{"id":"48353","lat":43.91852929728274,"lon":10.949420332908625,"name":"DISTRIBUTORE PISTOIA NESPOLO","brand":"Esso","address":"VIA TOSCANA 110 51100, PISTOIA (PT) 110 51100, PISTOIA, PT","prices":[{"type":"petrol","price":1.829,"self":true,"updatedAt":"01/07/2026 07:46:03"},{"type":"diesel","price":1.899,"self":true,"updatedAt":"01/07/2026 07:46:03"}]},{"id":"58852","lat":43.88927,"lon":10.96295,"name":"Distrtibutore Conad Bottegone","brand":"CONAD","address":"Strada Statale Fiorentina 744 51100, PISTOIA, PT","prices":[{"type":"petrol","price":1.748,"self":true,"updatedAt":"30/06/2026 10:25:58"},{"type":"diesel","price":1.838,"self":true,"updatedAt":"30/06/2026 10:25:58"}]},{"id":"62400","lat":43.92129350134273,"lon":10.915342968261713,"name":"IP FM PETROL RACCORDO","brand":"Api-Ip","address":"raccordo autostradale pistoia, PISTOIA, PT","prices":[{"type":"petrol","price":1.759,"self":true,"updatedAt":"30/06/2026 12:59:43"},{"type":"diesel","price":1.829,"self":true,"updatedAt":"30/06/2026 12:59:43"}]},{"id":"13364","lat":43.952680358565736,"lon":10.940770134329796,"name":"IP PUCCIANTI FABRIZIO","brand":"Api-Ip","address":"VIALE P. ANTONELLI 506 51100, PISTOIA, PT","prices":[{"type":"petrol","price":1.761,"self":true,"updatedAt":"30/06/2026 18:18:15"},{"type":"diesel","price":1.831,"self":true,"updatedAt":"30/06/2026 18:18:15"}]},{"id":"37879","lat":43.9177329,"lon":10.9183987,"name":"IP via bonellina","brand":"Api-Ip","address":"Via Bonellina 38/a 51100, PISTOIA, PT","prices":[{"type":"petrol","price":1.769,"self":true,"updatedAt":"01/07/2026 07:44:50"},{"type":"diesel","price":1.839,"self":true,"updatedAt":"01/07/2026 07:44:50"}]},{"id":"40295","lat":43.94460182129231,"lon":10.886554072422086,"name":"METANO AUTO","brand":"Pompe Bianche","address":"VIA GORA E BARBATOLE 260 51100, PISTOIA, PT","prices":[{"type":"methane","price":1.549,"self":false,"updatedAt":"01/07/2026 06:58:40"}]},{"id":"5285","lat":43.94996290335519,"lon":10.89699582431058,"name":"Pistoia - Raccordo Abetone","brand":"Beyfin","address":"STRADA STATALE 64 E 66 CON E74 AL KM0,555   51100, PISTOIA, PT","prices":[{"type":"petrol","price":1.759,"self":true,"updatedAt":"01/07/2026 00:30:05"},{"type":"diesel","price":1.834,"self":true,"updatedAt":"01/07/2026 00:30:05"},{"type":"methane","price":1.699,"self":false,"updatedAt":"01/07/2026 00:30:05"},{"type":"lpg","price":0.759,"self":false,"updatedAt":"01/07/2026 00:30:05"}]},{"id":"28642","lat":43.921658148860196,"lon":10.944004207849503,"name":"PISTOIA NESPOLO","brand":"Tamoil","address":"S.P. PRATESE  51100, PISTOIA, PT","prices":[{"type":"petrol","price":1.839,"self":true,"updatedAt":"30/06/2026 10:21:37"},{"type":"diesel","price":1.899,"self":true,"updatedAt":"30/06/2026 10:21:34"}]},{"id":"26055","lat":43.93133944416669,"lon":10.939298272132874,"name":"PISTOIA PALAZZETTO","brand":"Agip Eni","address":"Via fermi 91 51100, PISTOIA, PT","prices":[{"type":"petrol","price":1.869,"self":true,"updatedAt":"27/06/2026 07:06:24"},{"type":"diesel","price":1.949,"self":true,"updatedAt":"27/06/2026 07:06:22"},{"type":"methane","price":1.699,"self":false,"updatedAt":"27/06/2026 07:03:46"}]},{"id":"50379","lat":43.938358295329735,"lon":10.936408373295281,"name":"PISTOIA VIA CHIRICI","brand":"Agip Eni","address":"VIA G. CHIRICI 291 51100, PISTOIA, PT","prices":[{"type":"petrol","price":1.789,"self":true,"updatedAt":"29/06/2026 09:15:35"},{"type":"diesel","price":1.834,"self":true,"updatedAt":"27/06/2026 07:51:27"}]},{"id":"8327","lat":43.93216372321065,"lon":10.92462111971281,"name":"PISTOIA VIA E. FERMI 2/B","brand":"Q8","address":"VIA E. FERMI 2/B 51100, PISTOIA, PT","prices":[{"type":"petrol","price":1.819,"self":true,"updatedAt":"30/06/2026 01:13:12"},{"type":"diesel","price":1.889,"self":true,"updatedAt":"30/06/2026 01:13:12"}]},{"id":"14639","lat":43.93091138867068,"lon":10.947200059890747,"name":"PISTOIA VIA FERMI","brand":"Tamoil","address":"VIA ENRICO FERMI 91 51100, PISTOIA, PT","prices":[{"type":"petrol","price":1.839,"self":true,"updatedAt":"30/06/2026 10:24:43"},{"type":"diesel","price":1.899,"self":true,"updatedAt":"30/06/2026 10:24:41"}]},{"id":"14651","lat":43.93373232539221,"lon":10.89644193649292,"name":"PISTOIA VIA SALVO D'ACQUISTO","brand":"Tamoil","address":"VIA SALVO D'ACQUISTO 24 51100, PISTOIA, PT","prices":[{"type":"petrol","price":1.839,"self":true,"updatedAt":"30/06/2026 10:24:37"},{"type":"diesel","price":1.899,"self":true,"updatedAt":"30/06/2026 10:24:33"},{"type":"methane","price":1.699,"self":false,"updatedAt":"27/06/2026 07:03:49"},{"type":"lpg","price":0.769,"self":false,"updatedAt":"30/06/2026 10:28:40"}]},{"id":"14647","lat":43.94385213606133,"lon":10.92263638973236,"name":"PISTOIA VIA TASSELLI","brand":"Tamoil","address":"VIA MARIA TASSELLI 187 233 51100, PISTOIA, PT","prices":[{"type":"petrol","price":1.839,"self":true,"updatedAt":"30/06/2026 10:24:49"},{"type":"diesel","price":1.899,"self":true,"updatedAt":"30/06/2026 10:24:45"},{"type":"lpg","price":0.769,"self":false,"updatedAt":"30/06/2026 10:25:05"}]},{"id":"25764","lat":43.94318546670196,"lon":10.907945930957794,"name":"PV 5348","brand":"Agip Eni","address":"VIA DALMAZIA 242 51100, PISTOIA, PT","prices":[{"type":"petrol","price":1.789,"self":true,"updatedAt":"30/06/2026 23:12:56"},{"type":"diesel","price":1.824,"self":true,"updatedAt":"30/06/2026 23:12:56"}]},{"id":"29791","lat":43.963945337100746,"lon":10.897462478504167,"name":"PV PISTOIA CAPOSTRADA","brand":"Api-Ip","address":"VIA VIA MODENESE 289 51100, PISTOIA (PT) 289 51100, PISTOIA, PT","prices":[{"type":"petrol","price":1.749,"self":true,"updatedAt":"01/07/2026 00:35:36"},{"type":"diesel","price":1.829,"self":true,"updatedAt":"01/07/2026 00:35:36"}]},{"id":"38122","lat":43.94779174464979,"lon":10.895642638206482,"name":"Raccordo Pistoia Ovest","brand":"Api-Ip","address":"RACCORDO PISTOIA OVEST KM. 0-824 snc 51100, PISTOIA, PT","prices":[{"type":"petrol","price":1.754,"self":true,"updatedAt":"30/06/2026 13:07:56"},{"type":"diesel","price":1.824,"self":true,"updatedAt":"30/06/2026 13:07:56"},{"type":"lpg","price":0.769,"self":false,"updatedAt":"30/06/2026 09:11:19"}]},{"id":"57694","lat":43.95261,"lon":10.90093,"name":"SHELL PISTOIA VIALE ADUA 465","brand":"Shell","address":"ADUA - LOC. CAPOSTRADA 463 51100, PISTOIA, PT","prices":[{"type":"petrol","price":1.759,"self":true,"updatedAt":"01/07/2026 07:12:44"},{"type":"diesel","price":1.829,"self":true,"updatedAt":"01/07/2026 07:12:44"}]},{"id":"11440","lat":43.90296266666561,"lon":10.920669037850985,"name":"SOMMARIVA","brand":"Q8","address":"VIA MONTALBANO 251 51100, PISTOIA (PT) 251-255 51100, PISTOIA, PT","prices":[{"type":"petrol","price":1.859,"self":true,"updatedAt":"01/07/2026 07:30:11"},{"type":"diesel","price":1.929,"self":true,"updatedAt":"01/07/2026 07:30:11"},{"type":"lpg","price":0.779,"self":false,"updatedAt":"01/07/2026 07:30:11"}]},{"id":"50652","lat":43.948989688601955,"lon":10.90459747965732,"name":"stazione di servizio q8","brand":"Q8","address":"DALMAZIA 344 51100, PISTOIA, PT","prices":[{"type":"petrol","price":1.769,"self":true,"updatedAt":"30/06/2026 06:26:18"},{"type":"diesel","price":1.849,"self":true,"updatedAt":"30/06/2026 06:26:18"}]},{"id":"63266","lat":43.9234505,"lon":10.9304501,"name":"Stazione di servizio Q8 4424","brand":"Q8","address":"Via Toscana 20  51100, PISTOIA, PT","prices":[{"type":"petrol","price":1.786,"self":true,"updatedAt":"30/06/2026 20:16:20"},{"type":"diesel","price":1.839,"self":true,"updatedAt":"30/06/2026 20:16:20"}]},{"id":"21733","lat":43.8556757351077,"lon":10.756197273731232,"name":"PONTE BUGGIANESE","brand":"Api-Ip","address":"Via Nuova Camporcioni   51019, PONTE BUGGIANESE, PT","prices":[{"type":"petrol","price":1.738,"self":true,"updatedAt":"30/06/2026 09:15:58"},{"type":"diesel","price":1.818,"self":true,"updatedAt":"30/06/2026 09:15:58"}]},{"id":"54314","lat":43.88051841621892,"lon":10.97409725189209,"name":"2P CARBURANTI","brand":"Pompe Bianche","address":"STATALE FIORENTINA 113 51039, QUARRATA, PT","prices":[{"type":"petrol","price":1.769,"self":true,"updatedAt":"26/06/2026 17:11:01"},{"type":"diesel","price":1.849,"self":true,"updatedAt":"26/06/2026 17:11:01"}]},{"id":"45440","lat":43.85358724990407,"lon":10.980344116687775,"name":"ACI - Quarrata (PT)","brand":"ACI_PT","address":"Via Marco Polo 101 51039, QUARRATA, PT","prices":[{"type":"petrol","price":1.829,"self":true,"updatedAt":"29/06/2026 17:11:52"},{"type":"diesel","price":1.909,"self":true,"updatedAt":"29/06/2026 17:11:52"}]},{"id":"42460","lat":43.86267030607757,"lon":10.943744635581993,"name":"BARZAGLI PATRIK E C. SNC","brand":"Esso","address":"EUROPA 346/A 51039, QUARRATA, PT","prices":[{"type":"petrol","price":1.837,"self":true,"updatedAt":"29/06/2026 18:44:30"},{"type":"diesel","price":1.897,"self":true,"updatedAt":"29/06/2026 18:44:30"}]},{"id":"55995","lat":43.92233649599976,"lon":10.93738317489624,"name":"DISTRIBUTORE PISTOIA VIA TOSCANA 69","brand":"Api-Ip","address":"STATALE 833 51039, QUARRATA, PT","prices":[{"type":"petrol","price":1.927,"self":true,"updatedAt":"01/07/2026 00:16:18"},{"type":"diesel","price":1.997,"self":true,"updatedAt":"01/07/2026 00:16:18"}]},{"id":"34442","lat":43.86765527388261,"lon":10.965132824996317,"name":"DISTRIBUTORE VALENZATICO","brand":"Ala","address":"VIA VECCHIA FIORENTINA SNC 51039, QUARRATA (PT) SNC 51039, QUARRATA, PT","prices":[{"type":"petrol","price":1.849,"self":true,"updatedAt":"30/06/2026 00:24:53"},{"type":"diesel","price":1.929,"self":true,"updatedAt":"30/06/2026 00:24:53"}]},{"id":"11436","lat":43.86065381768657,"lon":10.986513619643347,"name":"SOMMARIVA","brand":"Esso","address":"VIA MONTALBANO SNC 51039, QUARRATA (PT) 388 51039, QUARRATA, PT","prices":[{"type":"petrol","price":1.827,"self":true,"updatedAt":"01/07/2026 07:12:07"},{"type":"diesel","price":1.907,"self":true,"updatedAt":"01/07/2026 07:12:07"}]},{"id":"57282","lat":43.8791656,"lon":10.9753207,"name":"SOPETI QUARRATA","brand":"Api-Ip","address":"VIA STATALE  116 51039, QUARRATA, PT","prices":[{"type":"petrol","price":1.789,"self":true,"updatedAt":"30/06/2026 23:32:51"},{"type":"diesel","price":1.879,"self":true,"updatedAt":"30/06/2026 23:32:51"}]},{"id":"60698","lat":43.877236,"lon":10.915058,"name":"CHEEMASERRAVALLEPT","brand":"Api-Ip","address":"PROVINCIALE MONTALBANO 137 51034, SERRAVALLE PISTOIESE, PT","prices":[{"type":"petrol","price":1.794,"self":true,"updatedAt":"30/06/2026 16:20:43"},{"type":"diesel","price":1.864,"self":true,"updatedAt":"30/06/2026 16:20:43"}]},{"id":"49271","lat":43.908143530281826,"lon":10.844017565250391,"name":"DISTRIBUTORE SERRAVALLE P. SE","brand":"Ala","address":"VIA S.S.435 LUCCHESE KM.34 + 0,65 SNC 51034, SERRAVALLE PISTOIESE (PT) SNC 51034, SERRAVALLE PISTOIESE, PT","prices":[{"type":"petrol","price":1.799,"self":true,"updatedAt":"01/07/2026 00:17:35"},{"type":"diesel","price":1.879,"self":true,"updatedAt":"01/07/2026 00:17:35"},{"type":"lpg","price":0.779,"self":false,"updatedAt":"01/07/2026 00:17:35"}]},{"id":"3554","lat":43.891260827593925,"lon":10.824363965606722,"name":"SERRAVALLE NORD","brand":"Q8","address":"Autostrada A11 FIRENZE-PISA N., Km. 35+500, dir. Ovest - 51030, SERRAVALLE PISTOIESE, PT","prices":[{"type":"petrol","price":1.829,"self":true,"updatedAt":"30/06/2026 14:30:09"},{"type":"diesel","price":1.914,"self":true,"updatedAt":"30/06/2026 14:30:22"}]}]