[{"id":"40359","lat":43.77883063826046,"lon":11.363694816827774,"name":"Bagno a Ripoli","brand":"Api-Ip","address":"via di Rosano Loc. Vallina snc 50011, BAGNO A RIPOLI, FI","prices":[{"type":"petrol","price":1.794,"self":true,"updatedAt":"24/06/2026 11:02:57"},{"type":"diesel","price":1.894,"self":true,"updatedAt":"24/06/2026 11:02:57"}]},{"id":"54313","lat":43.95465685414099,"lon":11.38332724571228,"name":"2P CARBURANTI","brand":"Pompe Bianche","address":"VIA VIALE GIOVANNI XXIII 22 50032, BORGO SAN LORENZO (FI) 22 50032, BORGO SAN LORENZO, FI","prices":[{"type":"petrol","price":1.788,"self":true,"updatedAt":"22/06/2026 16:41:30"},{"type":"diesel","price":1.863,"self":true,"updatedAt":"22/06/2026 16:41:30"}]},{"id":"6586","lat":43.955241315735115,"lon":11.39335431412087,"name":"BORGO SAN LORENZO VIALE PECORI GIRALDI 3","brand":"Q8","address":"VIALE PECORI GIRALDI 3 50032, BORGO SAN LORENZO, FI","prices":[{"type":"petrol","price":1.789,"self":true,"updatedAt":"25/06/2026 01:42:05"},{"type":"diesel","price":1.849,"self":true,"updatedAt":"25/06/2026 01:42:05"}]},{"id":"54916","lat":43.95803936848097,"lon":11.368781479037455,"name":"PIERI LUCA E C SAS 2","brand":"Agip Eni","address":"VIALE GIOVANNI XXIII, SNC  50032, BORGO SAN LORENZO, FI","prices":[{"type":"petrol","price":1.789,"self":true,"updatedAt":"24/06/2026 23:47:49"},{"type":"diesel","price":1.864,"self":true,"updatedAt":"24/06/2026 23:47:49"}]},{"id":"17490","lat":43.95716271502194,"lon":11.3740374147892,"name":"Pieri Mauro & C. Snc","brand":"Agip Eni","address":"Viale della Resistenza  50032, BORGO SAN LORENZO, FI","prices":[{"type":"petrol","price":1.829,"self":true,"updatedAt":"24/06/2026 23:46:49"},{"type":"diesel","price":1.919,"self":true,"updatedAt":"24/06/2026 23:46:49"}]},{"id":"17850","lat":43.83116691277085,"lon":11.307609476584275,"name":"BALLONI S.N.C. DI BALLONI ALBERTO & C.","brand":"Q8","address":"Via Faentina - CALDINE 177/A 50014, FIESOLE, FI","prices":[{"type":"petrol","price":1.799,"self":false,"updatedAt":"22/06/2026 07:19:33"},{"type":"diesel","price":1.899,"self":false,"updatedAt":"22/06/2026 07:19:33"}]},{"id":"52399","lat":43.756536941736,"lon":11.299966578434764,"name":"2018 SAS DI ROBERTO SERAVELLI E C.","brand":"Agip Eni","address":"VIALE EUROPA  200 50126, FIRENZE, FI","prices":[{"type":"petrol","price":1.799,"self":true,"updatedAt":"24/06/2026 23:45:34"},{"type":"diesel","price":1.904,"self":true,"updatedAt":"24/06/2026 23:45:34"}]},{"id":"5493","lat":43.7662243307795,"lon":11.298588901452831,"name":"34710 FIRENZE","brand":"Agip Eni","address":"Lungarno De Nicola SNC 50136, FIRENZE, FI","prices":[{"type":"petrol","price":1.814,"self":true,"updatedAt":"25/06/2026 01:24:22"},{"type":"diesel","price":1.899,"self":true,"updatedAt":"25/06/2026 01:24:22"}]},{"id":"60455","lat":43.7640278,"lon":11.2705833,"name":"40725","brand":"Api-Ip","address":"P.za Francesco Ferrucci 10 NERO 50129, FIRENZE, FI","prices":[{"type":"petrol","price":1.799,"self":true,"updatedAt":"24/06/2026 19:13:26"},{"type":"diesel","price":1.849,"self":true,"updatedAt":"24/06/2026 19:13:26"}]},{"id":"59821","lat":43.767483,"lon":11.302016,"name":"53614 FIRENZE","brand":"Agip Eni","address":"Via Aretina, FIRENZE, FI","prices":[{"type":"petrol","price":1.814,"self":true,"updatedAt":"24/06/2026 01:02:35"},{"type":"diesel","price":1.899,"self":true,"updatedAt":"24/06/2026 07:56:16"}]},{"id":"24794","lat":43.76611164942626,"lon":11.301458179950714,"name":"54221 Firenze De Nicola","brand":"Agip Eni","address":"VIA ENRICO DE NICOLA 16 50136, FIRENZE, FI","prices":[{"type":"petrol","price":1.814,"self":true,"updatedAt":"24/06/2026 23:47:31"},{"type":"diesel","price":1.899,"self":true,"updatedAt":"24/06/2026 08:04:18"}]},{"id":"63346","lat":43.77525481876458,"lon":11.29221065222322,"name":"ALA RONDINELLA","brand":"Ala","address":"Via della Rondinella snc 50135, FIRENZE, FI","prices":[{"type":"petrol","price":1.819,"self":true,"updatedAt":"25/06/2026 01:15:51"},{"type":"diesel","price":1.909,"self":true,"updatedAt":"25/06/2026 01:15:51"}]},{"id":"37866","lat":43.76871030105542,"lon":11.316774710985555,"name":"BEYFIN","brand":"Beyfin","address":"VIA ROCCA TEDALDA 451 50136, FIRENZE, FI","prices":[{"type":"petrol","price":1.839,"self":true,"updatedAt":"17/06/2026 09:53:42"},{"type":"diesel","price":1.959,"self":true,"updatedAt":"17/06/2026 09:53:42"},{"type":"methane","price":1.599,"self":false,"updatedAt":"17/06/2026 09:53:42"},{"type":"lpg","price":0.819,"self":false,"updatedAt":"17/06/2026 09:53:42"}]},{"id":"62608","lat":43.76969379213061,"lon":11.281129276582321,"name":"DS FUEL FIRENZE","brand":"Pompe Bianche","address":"Piazza Alberti SNC 50136, FIRENZE, FI","prices":[{"type":"petrol","price":1.81,"self":false,"updatedAt":"22/06/2026 11:13:34"},{"type":"diesel","price":1.9,"self":false,"updatedAt":"22/06/2026 11:13:35"}]},{"id":"47442","lat":43.78918642132511,"lon":11.267257332801819,"name":"EDRA ENERGIA - BORGHINI","brand":"Edra Energia","address":"Via Borghini  50133, FIRENZE, FI","prices":[{"type":"petrol","price":1.838,"self":true,"updatedAt":"23/06/2026 02:22:34"},{"type":"diesel","price":1.941,"self":true,"updatedAt":"23/06/2026 02:22:34"}]},{"id":"47441","lat":43.775752541793516,"lon":11.445022821426386,"name":"EDRA ENERGIA - PELAGO","brand":"Edra Energia","address":"Via Forlivese 3 50060, FIRENZE, FI","prices":[{"type":"petrol","price":1.838,"self":true,"updatedAt":"22/06/2026 11:22:29"},{"type":"diesel","price":1.999,"self":true,"updatedAt":"22/06/2026 11:22:29"}]},{"id":"52373","lat":43.769785576477965,"lon":11.281087143171817,"name":"ENI","brand":"Agip Eni","address":"PIAZZA L.B.ALBERTI, 1 5 50136, FIRENZE, FI","prices":[{"type":"petrol","price":1.859,"self":true,"updatedAt":"25/06/2026 01:10:43"},{"type":"diesel","price":1.964,"self":true,"updatedAt":"25/06/2026 01:10:43"}]},{"id":"52368","lat":43.806398742818324,"lon":11.274831542327872,"name":"ENI","brand":"Agip Eni","address":"Via Bolognese 168 50100, FIRENZE, FI","prices":[{"type":"petrol","price":1.819,"self":true,"updatedAt":"25/06/2026 01:22:27"},{"type":"diesel","price":1.909,"self":true,"updatedAt":"25/06/2026 01:22:27"}]},{"id":"43670","lat":43.774186179513116,"lon":11.286364376057463,"name":"ENI DI OMAZI SERVICE SNC","brand":"Agip Eni","address":"VIALE EDOMONDO DE AMICIS 4729 50100, FIRENZE, FI","prices":[{"type":"petrol","price":1.819,"self":true,"updatedAt":"24/06/2026 23:45:17"},{"type":"diesel","price":1.909,"self":true,"updatedAt":"24/06/2026 23:45:17"}]},{"id":"45243","lat":43.778213697210624,"lon":11.268246215938575,"name":"ESSO FIRENZE - P.ZZA DONATELLO","brand":"Esso","address":"Piazza Donatello  50132, FIRENZE, FI","prices":[{"type":"petrol","price":1.859,"self":true,"updatedAt":"25/06/2026 07:12:11"},{"type":"diesel","price":1.959,"self":true,"updatedAt":"25/06/2026 07:12:11"}]},{"id":"47499","lat":43.75714368740046,"lon":11.298335546723518,"name":"ESSO FIRENZE V.le Europa 203","brand":"Esso","address":"V.LE EUROPA 203  50122, FIRENZE, FI","prices":[{"type":"petrol","price":1.789,"self":true,"updatedAt":"25/06/2026 07:20:31"},{"type":"diesel","price":1.879,"self":true,"updatedAt":"25/06/2026 07:20:31"}]},{"id":"56908","lat":43.7682327,"lon":11.2970142,"name":"ESSO FIRENZE VIA ARETINA 267/H","brand":"Esso","address":"ARETINA - LOC. VARLUNGO 267/H 50136, FIRENZE, FI","prices":[{"type":"petrol","price":1.819,"self":true,"updatedAt":"25/06/2026 07:12:21"},{"type":"diesel","price":1.919,"self":true,"updatedAt":"25/06/2026 07:12:21"}]},{"id":"38214","lat":43.77745152737205,"lon":11.269018913801915,"name":"F.lli Campigli snc distributore Eni 04732","brand":"Agip Eni","address":"Piazzale Donatello  50132, FIRENZE, FI","prices":[{"type":"petrol","price":1.859,"self":true,"updatedAt":"25/06/2026 00:31:51"},{"type":"diesel","price":1.964,"self":true,"updatedAt":"25/06/2026 00:31:51"}]},{"id":"25344","lat":43.75728934487764,"lon":11.287302682208974,"name":"FIRENZE - GIANNOTTI","brand":"Api-Ip","address":"VIALE  GIANNOTTI  50126, FIRENZE, FI","prices":[{"type":"petrol","price":1.789,"self":true,"updatedAt":"24/06/2026 09:12:48"},{"type":"diesel","price":1.839,"self":true,"updatedAt":"24/06/2026 09:12:48"}]},{"id":"6591","lat":43.76748218883609,"lon":11.304911703041057,"name":"FIRENZE VIA ARETINA 371","brand":"Q8","address":"VIA ARETINA 371 50136, FIRENZE, FI","prices":[{"type":"petrol","price":1.824,"self":true,"updatedAt":"25/06/2026 01:42:08"},{"type":"diesel","price":1.924,"self":true,"updatedAt":"25/06/2026 01:42:08"}]},{"id":"48844","lat":43.775496921530944,"lon":11.290233181597333,"name":"FIRENZE VIA D'ANNUNZIO/ARCOLAIO","brand":"Q8","address":"VIA D'ANNUNZIO/ARCOLAIO  50135, FIRENZE, FI","prices":[{"type":"petrol","price":1.819,"self":true,"updatedAt":"24/06/2026 07:50:11"},{"type":"diesel","price":1.909,"self":true,"updatedAt":"24/06/2026 07:50:11"}]},{"id":"6579","lat":43.75601480262551,"lon":11.304206044180319,"name":"FIRENZE VIALE EUROPA","brand":"Q8","address":"VIALE EUROPA SNC 50126, FIRENZE, FI","prices":[{"type":"petrol","price":1.799,"self":true,"updatedAt":"23/06/2026 07:40:08"},{"type":"diesel","price":1.899,"self":true,"updatedAt":"23/06/2026 07:40:08"},{"type":"methane","price":1.699,"self":false,"updatedAt":"23/06/2026 07:40:08"},{"type":"lpg","price":0.819,"self":false,"updatedAt":"23/06/2026 07:40:08"}]},{"id":"19230","lat":43.76019842655871,"lon":11.28452219999997,"name":"Impianto ENI","brand":"Agip Eni","address":"DONATO GIANNOTTI 26/28 50126, FIRENZE, FI","prices":[{"type":"petrol","price":1.799,"self":true,"updatedAt":"25/06/2026 00:06:35"},{"type":"diesel","price":1.904,"self":true,"updatedAt":"25/06/2026 00:06:35"}]},{"id":"28102","lat":43.7828816,"lon":11.2936456,"name":"lingui leonardo 59178","brand":"Agip Eni","address":"Viale U. Ojetti  50137, FIRENZE, FI","prices":[{"type":"petrol","price":1.765,"self":true,"updatedAt":"24/06/2026 23:48:22"},{"type":"diesel","price":2.039,"self":true,"updatedAt":"24/06/2026 23:48:22"}]},{"id":"32714","lat":43.80047226922806,"lon":11.277049445438365,"name":"M&Z snc di Marucelli Franca e Zanieri Jacopo","brand":"Aquila","address":"VIA FAENTINA 380/A 50133, FIRENZE, FI","prices":[{"type":"petrol","price":1.804,"self":true,"updatedAt":"22/06/2026 08:44:16"},{"type":"diesel","price":1.904,"self":true,"updatedAt":"22/06/2026 08:44:16"},{"type":"methane","price":1.699,"self":false,"updatedAt":"22/06/2026 08:44:17"}]},{"id":"52423","lat":43.79386566395113,"lon":11.261473894119257,"name":"newframar","brand":"Api-Ip","address":"via Bolognese  96 50139, FIRENZE, FI","prices":[{"type":"petrol","price":1.816,"self":true,"updatedAt":"19/06/2026 17:30:05"},{"type":"diesel","price":1.866,"self":true,"updatedAt":"19/06/2026 17:30:05"}]},{"id":"55220","lat":43.77,"lon":11.2601,"name":"ovest bisenzio di fusi e c snc","brand":"Agip Eni","address":"SENESE SNC 50124, FIRENZE, FI","prices":[{"type":"petrol","price":1.799,"self":true,"updatedAt":"24/06/2026 23:47:16"},{"type":"diesel","price":1.909,"self":true,"updatedAt":"24/06/2026 23:47:16"}]},{"id":"13623","lat":43.78041060340574,"lon":11.279211394442768,"name":"PINI E SETTESOLDI SNC","brand":"Agip Eni","address":"VIALE DEI MILLE 7 50131, FIRENZE, FI","prices":[{"type":"petrol","price":1.819,"self":true,"updatedAt":"25/06/2026 01:20:43"},{"type":"diesel","price":1.909,"self":true,"updatedAt":"25/06/2026 01:20:43"}]},{"id":"42776","lat":43.75661987751152,"lon":11.29338368646036,"name":"SHELL FIRENZE - V.LE EUROPA (ANG. VIA ALBANIA)","brand":"Shell","address":"Viale Europa  50126, FIRENZE, FI","prices":[{"type":"petrol","price":1.789,"self":true,"updatedAt":"25/06/2026 07:21:28"},{"type":"diesel","price":1.849,"self":true,"updatedAt":"25/06/2026 07:21:28"}]},{"id":"35582","lat":43.77480418140975,"lon":11.286990587388573,"name":"Stazione Carburante Ludoil s.p.a.","brand":"Pompe Bianche","address":"VIA VIA LUNGO L'AFFRICO SNC 50137, FIRENZE (FI) SNC 50137, FIRENZE, FI","prices":[{"type":"petrol","price":1.864,"self":true,"updatedAt":"23/06/2026 15:24:26"},{"type":"diesel","price":1.974,"self":true,"updatedAt":"23/06/2026 15:24:26"}]},{"id":"11019","lat":43.75661573034039,"lon":11.2928504694504,"name":"tamoil","brand":"Tamoil","address":"VIALE EUROPA 46 50126, FIRENZE, FI","prices":[{"type":"petrol","price":1.789,"self":true,"updatedAt":"23/06/2026 14:02:24"},{"type":"diesel","price":1.869,"self":true,"updatedAt":"23/06/2026 14:02:24"}]},{"id":"7755","lat":43.95923366810547,"lon":11.365043967962265,"name":"TAMOIL","brand":"Tamoil","address":"SENESE LOC. I ROSSI SNC 50124, FIRENZE, FI","prices":[{"type":"petrol","price":1.799,"self":true,"updatedAt":"22/06/2026 15:17:40"},{"type":"diesel","price":1.879,"self":true,"updatedAt":"22/06/2026 15:17:40"}]},{"id":"42919","lat":43.77899563614063,"lon":11.282336711883545,"name":"TIBER FIRENZE","brand":"TIBER","address":"VIALE PAOLI 15 50137, FIRENZE, FI","prices":[{"type":"petrol","price":1.849,"self":true,"updatedAt":"25/06/2026 00:34:21"},{"type":"diesel","price":1.919,"self":true,"updatedAt":"25/06/2026 00:34:21"}]},{"id":"28290","lat":43.77527697291198,"lon":11.292230039834976,"name":"TotalErg","brand":"Api-Ip","address":"VIA RONDINELLA SNC 50135, FIRENZE, FI","prices":[{"type":"petrol","price":1.899,"self":true,"updatedAt":"16/06/2026 12:27:54"},{"type":"diesel","price":1.999,"self":true,"updatedAt":"16/06/2026 12:27:54"}]},{"id":"4662","lat":43.770983804704066,"lon":11.429502815008163,"name":"distibutore q8","brand":"Q8","address":"Statale 67 Tosco Romagnola, Km. 1+600, dir. firenze  50065, PONTASSIEVE, FI","prices":[{"type":"petrol","price":1.829,"self":true,"updatedAt":"24/06/2026 06:52:00"},{"type":"diesel","price":1.919,"self":true,"updatedAt":"24/06/2026 06:52:00"},{"type":"lpg","price":0.879,"self":false,"updatedAt":"24/06/2026 06:52:00"}]},{"id":"8179","lat":43.771144175787164,"lon":11.426060199737549,"name":"ENI - PONTASSIEVE","brand":"Agip Eni","address":"Variante SS67 Tosco-Romagnola Km 1,335  50065, PONTASSIEVE, FI","prices":[{"type":"petrol","price":1.83,"self":true,"updatedAt":"24/06/2026 00:59:24"},{"type":"diesel","price":1.919,"self":true,"updatedAt":"24/06/2026 00:59:24"},{"type":"methane","price":1.699,"self":false,"updatedAt":"24/06/2026 23:37:07"}]},{"id":"45939","lat":43.77611294972306,"lon":11.427404953372957,"name":"ENI OMAZI SERVICE","brand":"Agip Eni","address":"via Aretina 64 50065, PONTASSIEVE, FI","prices":[{"type":"petrol","price":1.829,"self":true,"updatedAt":"25/06/2026 00:39:40"},{"type":"diesel","price":1.919,"self":true,"updatedAt":"25/06/2026 00:39:40"}]},{"id":"46789","lat":43.78470120413844,"lon":11.401348239635135,"name":"ESSO PONTASSIEVE - LOC. LE SIECI","brand":"Esso","address":"Loc. Le Sieci - V. Aretina 29, PONTASSIEVE, FI","prices":[{"type":"petrol","price":1.829,"self":true,"updatedAt":"25/06/2026 07:12:58"},{"type":"diesel","price":1.919,"self":true,"updatedAt":"25/06/2026 07:12:58"}]},{"id":"13829","lat":43.771477800890196,"lon":11.426837692590327,"name":"IP - PONTASSIEVE","brand":"Api-Ip","address":"Viale Hanoi 1 50065, PONTASSIEVE, FI","prices":[{"type":"petrol","price":1.852,"self":true,"updatedAt":"20/06/2026 14:54:23"},{"type":"diesel","price":1.954,"self":true,"updatedAt":"20/06/2026 14:54:23"}]},{"id":"51693","lat":43.82605277651483,"lon":11.487259170602144,"name":"4704 – Rufina","brand":"Agip Eni","address":"VIA DUCA DELLA VITTORIA, 10  50068, RUFINA, FI","prices":[{"type":"petrol","price":1.829,"self":true,"updatedAt":"25/06/2026 01:17:33"},{"type":"diesel","price":1.909,"self":true,"updatedAt":"25/06/2026 01:17:33"}]},{"id":"8000","lat":43.81896824720896,"lon":11.48401066660881,"name":"carlo misuri","brand":"Api-Ip","address":"Statale 67 Tosco Romagnola, Km. 106+625, dir. firenze  50068, RUFINA, FI","prices":[{"type":"petrol","price":1.827,"self":true,"updatedAt":"23/06/2026 07:05:09"},{"type":"diesel","price":1.922,"self":true,"updatedAt":"23/06/2026 07:05:09"}]},{"id":"59622","lat":43.961933,"lon":11.306058,"name":"34724 SAN PIERO A SIEVE","brand":"Agip Eni","address":"S.P. DI MASSARONDINAIA, SCARPERIA E SAN PIERO, FI","prices":[{"type":"petrol","price":1.824,"self":true,"updatedAt":"25/06/2026 00:03:37"},{"type":"diesel","price":1.904,"self":true,"updatedAt":"25/06/2026 00:03:37"},{"type":"methane","price":1.541,"self":false,"updatedAt":"25/06/2026 00:03:37"},{"type":"lpg","price":0.752,"self":false,"updatedAt":"25/06/2026 00:03:37"}]},{"id":"62524","lat":43.94853212551004,"lon":11.31135463453218,"name":"QUATTROPETROLI - SAN PIERO","brand":"Quattro Petroli","address":"Località Casenuove Taiuti 24 50037, SCARPERIA E SAN PIERO, FI","prices":[{"type":"petrol","price":1.785,"self":true,"updatedAt":"25/06/2026 00:44:14"},{"type":"diesel","price":1.865,"self":true,"updatedAt":"25/06/2026 00:44:14"}]},{"id":"52786","lat":43.9924496,"lon":11.3542353,"name":"SCARPERIA VIA GIACOMO MATTEOTTI 47","brand":"Q8","address":"MATTEOTTI 47 50038, SCARPERIA E SAN PIERO, FI","prices":[{"type":"petrol","price":1.819,"self":true,"updatedAt":"23/06/2026 07:40:16"},{"type":"diesel","price":1.909,"self":true,"updatedAt":"23/06/2026 07:40:16"}]},{"id":"53026","lat":43.95014376867223,"lon":11.311659761844636,"name":"SOPETI SAN PIERO","brand":"Pompe Bianche","address":"STATALE 65 KM24+250 50038, SCARPERIA E SAN PIERO, FI","prices":[{"type":"petrol","price":1.785,"self":true,"updatedAt":"24/06/2026 23:35:26"},{"type":"diesel","price":1.865,"self":true,"updatedAt":"24/06/2026 14:20:08"}]},{"id":"53231","lat":43.94412520394003,"lon":11.309368837241136,"name":"STAZIONE DI SERVIZIO \" OIL ITALIA \"","brand":"Oil Italia","address":"LOC. CASE NUOVE TAIUTI SNC 50038, SCARPERIA E SAN PIERO, FI","prices":[{"type":"petrol","price":1.784,"self":true,"updatedAt":"23/06/2026 13:11:48"},{"type":"diesel","price":1.885,"self":true,"updatedAt":"23/06/2026 13:11:48"}]},{"id":"27356","lat":43.97884602604943,"lon":11.33737564086914,"name":"Stazione Rifornimento AQUILA di Galeotti Daniele,Mugelli Gabriele e c. snc","brand":"Aquila","address":"VIALE KENNEDY 115 50038, SCARPERIA E SAN PIERO, FI","prices":[{"type":"petrol","price":1.799,"self":true,"updatedAt":"23/06/2026 15:20:39"},{"type":"diesel","price":1.889,"self":true,"updatedAt":"23/06/2026 15:20:39"}]},{"id":"59510","lat":43.9633332,"lon":11.3388211,"name":"stazione romgnoli srl beyfin","brand":"Beyfin","address":"via la torre petrona  33 50038, SCARPERIA E SAN PIERO, FI","prices":[{"type":"petrol","price":1.8,"self":false,"updatedAt":"23/06/2026 13:13:03"},{"type":"diesel","price":1.899,"self":false,"updatedAt":"23/06/2026 13:13:03"},{"type":"methane","price":1.599,"self":false,"updatedAt":"23/06/2026 13:13:03"},{"type":"lpg","price":0.799,"self":false,"updatedAt":"23/06/2026 13:13:03"}]},{"id":"51319","lat":43.84536694260526,"lon":11.290465713517117,"name":"DISTRIBUTORE IP - VAGLIA","brand":"Api-Ip","address":"VIA FIORENTINA / 50036, VAGLIA, FI","prices":[{"type":"petrol","price":1.786,"self":true,"updatedAt":"24/06/2026 20:15:40"},{"type":"diesel","price":1.866,"self":true,"updatedAt":"24/06/2026 20:15:40"}]},{"id":"5084","lat":43.93790803372079,"lon":11.44159020370489,"name":"Chioscar snc","brand":"Agip Eni","address":"VIA BARDUCCI, RENZE 21 50039, VICCHIO, FI","prices":[{"type":"petrol","price":1.83,"self":true,"updatedAt":"25/06/2026 00:07:17"},{"type":"diesel","price":1.919,"self":true,"updatedAt":"25/06/2026 00:07:17"},{"type":"lpg","price":0.789,"self":false,"updatedAt":"25/06/2026 00:07:17"}]},{"id":"7673","lat":43.93402513288584,"lon":11.458285568122847,"name":"STAZIONE DI RIFORNIMENTO SHELL","brand":"Shell","address":"VIA VIA MARTIRI DI CAMPO DI MARTE 10 50039, VICCHIO (FI) 10 50039, VICCHIO, FI","prices":[{"type":"petrol","price":1.869,"self":true,"updatedAt":"24/06/2026 08:11:27"},{"type":"diesel","price":1.979,"self":true,"updatedAt":"24/06/2026 08:11:27"}]}]