[{"id":"13989","lat":44.04289137902435,"lon":10.482128804041395,"name":"BENASSI MARIANGELA - DISTRIBUTORE 4 PETROLI","brand":"Quattro Petroli","address":"VIA SR445 PONTE ALL'ANIA, - -, BARGA, LU","prices":[{"type":"petrol","price":1.799,"self":true,"updatedAt":"19/06/2026 18:49:17"},{"type":"diesel","price":1.889,"self":true,"updatedAt":"19/06/2026 18:49:17"}]},{"id":"46743","lat":44.0903939060389,"lon":10.46613127699947,"name":"IL CIOCCO","brand":"Q8","address":"LOCALITA' IL CIOCCO-FRAZ. CASTELVECCHIO P. SNC 55051, BARGA, LU","prices":[{"type":"petrol","price":2.1,"self":true,"updatedAt":"19/06/2026 08:27:01"},{"type":"diesel","price":1.95,"self":true,"updatedAt":"19/06/2026 08:27:01"}]},{"id":"59078","lat":44.0458361,"lon":10.478899,"name":"Maufer","brand":"Agip Eni","address":"Via Della Repubblica 52 55051, BARGA, LU","prices":[{"type":"petrol","price":1.784,"self":true,"updatedAt":"21/06/2026 23:51:43"},{"type":"diesel","price":1.859,"self":true,"updatedAt":"21/06/2026 23:51:43"}]},{"id":"46844","lat":44.075211849801285,"lon":10.481336033695243,"name":"VIA ROMA, 12 - BARGA","brand":"Giap","address":"VIA ROMA 12 55051, BARGA, LU","prices":[{"type":"petrol","price":1.808,"self":true,"updatedAt":"20/06/2026 05:59:23"},{"type":"diesel","price":1.898,"self":true,"updatedAt":"20/06/2026 05:59:23"}]},{"id":"58981","lat":44.16305700187768,"lon":10.329437796095258,"name":"ESTEGAS","brand":"Pompe Bianche","address":"Via Giuseppe Garibaldi 71 55031, CAMPORGIANO, LU","prices":[{"type":"petrol","price":1.899,"self":true,"updatedAt":"21/06/2026 23:52:41"},{"type":"diesel","price":1.999,"self":true,"updatedAt":"21/06/2026 23:52:41"},{"type":"lpg","price":0.739,"self":false,"updatedAt":"21/06/2026 23:52:41"}]},{"id":"11634","lat":44.105038710953586,"lon":10.408546775579453,"name":"CASTELNUOVO DI GARFAGNANA-VIA NICOLA FABRIZI 64","brand":"Q8","address":"VIA NICOLA FABRIZI 64 55032, CASTELNUOVO DI GARFAGNANA, LU","prices":[{"type":"petrol","price":1.849,"self":true,"updatedAt":"20/06/2026 08:14:44"},{"type":"diesel","price":1.979,"self":true,"updatedAt":"20/06/2026 08:14:44"}]},{"id":"14757","lat":44.106322569070734,"lon":10.407473891973495,"name":"CASTELNUOVO GARFAGNANA","brand":"Tamoil","address":"S.P.  F. AZZI  55032, CASTELNUOVO DI GARFAGNANA, LU","prices":[{"type":"petrol","price":1.899,"self":true,"updatedAt":"20/06/2026 08:52:20"},{"type":"diesel","price":1.979,"self":true,"updatedAt":"19/06/2026 12:01:41"}]},{"id":"54668","lat":44.10623627693607,"lon":10.409392839471439,"name":"ENI Station Castelnuovo G.","brand":"Agip Eni","address":"NICOLA FABRIZI 45/A 55032, CASTELNUOVO DI GARFAGNANA, LU","prices":[{"type":"petrol","price":1.809,"self":true,"updatedAt":"21/06/2026 22:10:05"},{"type":"diesel","price":1.919,"self":true,"updatedAt":"21/06/2026 22:10:04"}]},{"id":"46390","lat":44.11200080531083,"lon":10.4128312725544,"name":"VIA ROMA - CASTELNUOVO DI GARFAGNANA","brand":"Giap","address":"VIA ROMA 40 55032, CASTELNUOVO DI GARFAGNANA, LU","prices":[{"type":"petrol","price":1.838,"self":true,"updatedAt":"20/06/2026 05:59:16"},{"type":"diesel","price":1.948,"self":true,"updatedAt":"20/06/2026 05:59:16"}]},{"id":"58749","lat":44.033295,"lon":10.499866,"name":"5146  COREGLIA ANTELMINELLI","brand":"Agip Eni","address":"LOC. PIANO DI CORELGIA S.S. 445 AL KM6+860  SNC, COREGLIA ANTELMINELLI, LU","prices":[{"type":"petrol","price":1.819,"self":true,"updatedAt":"21/06/2026 01:09:48"},{"type":"diesel","price":1.919,"self":true,"updatedAt":"21/06/2026 01:09:48"}]},{"id":"55550","lat":44.064386,"lon":10.441959,"name":"CONAD SUPERSTORE GALLICANO","brand":"CONAD","address":"DI FONDOVALLE SNC 55027, GALLICANO, LU","prices":[{"type":"petrol","price":1.798,"self":true,"updatedAt":"21/06/2026 09:24:10"},{"type":"diesel","price":1.898,"self":true,"updatedAt":"21/06/2026 09:24:10"}]},{"id":"28630","lat":44.067933841266736,"lon":10.440678298473358,"name":"GALLICANO","brand":"Api-Ip","address":"Strada Provinciale Fondo Valle  55027, GALLICANO, LU","prices":[{"type":"petrol","price":1.798,"self":true,"updatedAt":"21/06/2026 09:14:05"},{"type":"diesel","price":1.898,"self":true,"updatedAt":"21/06/2026 09:14:05"}]},{"id":"41795","lat":44.049235610626944,"lon":10.45530840754509,"name":"Torregas Srl - Gallicano","brand":"MacMarchettiCarburanti","address":"VIA ROMA SNC 55027, GALLICANO, LU","prices":[{"type":"petrol","price":1.879,"self":true,"updatedAt":"22/06/2026 00:27:56"},{"type":"diesel","price":2.029,"self":true,"updatedAt":"22/06/2026 00:27:55"},{"type":"methane","price":1.699,"self":false,"updatedAt":"22/06/2026 00:27:55"},{"type":"lpg","price":0.739,"self":false,"updatedAt":"22/06/2026 00:27:55"}]},{"id":"41857","lat":44.08130233519528,"lon":10.44330799485931,"name":"PV MOLAZZANA","brand":"Esso","address":"VIA LOC. VIZZANO STRADA PROV.LE FONDOVALLE SNC 55020, MOLAZZANA (LU) SNC 55020, MOLAZZANA, LU","prices":[{"type":"petrol","price":1.799,"self":true,"updatedAt":"21/06/2026 23:33:49"},{"type":"diesel","price":1.899,"self":true,"updatedAt":"21/06/2026 23:33:48"}]},{"id":"15093","lat":44.196012960997145,"lon":10.304296016693115,"name":"Brega Daniele","brand":"Quattro Petroli","address":"Via Provinciale per Sillano  55035, PIAZZA AL SERCHIO, LU","prices":[{"type":"petrol","price":1.809,"self":true,"updatedAt":"17/06/2026 06:44:53"},{"type":"diesel","price":1.919,"self":true,"updatedAt":"17/06/2026 06:44:53"}]},{"id":"46208","lat":44.184155000123,"lon":10.299297000123,"name":"VIA ROMA - PIAZZA AL SERCHIO","brand":"Giap","address":"VIA ROMA 52 55035, PIAZZA AL SERCHIO, LU","prices":[{"type":"petrol","price":1.809,"self":true,"updatedAt":"20/06/2026 05:59:19"},{"type":"diesel","price":1.919,"self":true,"updatedAt":"20/06/2026 05:59:19"}]},{"id":"15861","lat":44.12936698784068,"lon":10.411606505513191,"name":"angelini fabrizio","brand":"Agip Eni","address":"VIA NAZIONALE SNC 55036, PIEVE FOSCIANA, LU","prices":[{"type":"petrol","price":1.809,"self":true,"updatedAt":"21/06/2026 00:38:17"},{"type":"diesel","price":1.919,"self":true,"updatedAt":"21/06/2026 00:38:17"}]},{"id":"56147","lat":44.12958068552634,"lon":10.410734117031097,"name":"AQUILA","brand":"Aquila","address":"SAN GIOVANNI 2 55036, PIEVE FOSCIANA, LU","prices":[{"type":"petrol","price":1.799,"self":true,"updatedAt":"19/06/2026 07:57:39"},{"type":"diesel","price":1.899,"self":true,"updatedAt":"19/06/2026 07:57:39"}]},{"id":"49607","lat":44.12635800383486,"lon":10.40507197380066,"name":"CASTELNUOVO B.FUEL","brand":"Pompe Bianche","address":"Via Pietro Togneri 1 55036, PIEVE FOSCIANA, LU","prices":[{"type":"petrol","price":1.899,"self":true,"updatedAt":"21/06/2026 17:16:58"},{"type":"diesel","price":1.999,"self":true,"updatedAt":"21/06/2026 16:26:56"},{"type":"lpg","price":0.739,"self":false,"updatedAt":"21/06/2026 09:56:43"}]},{"id":"58319","lat":44.1355436,"lon":10.386743,"name":"PIEVE FOSCIANA  LOC.LUNI FZ. PONTECOSI","brand":"Q8","address":"LOC.LUNI FZ. PONTECOSI, PIEVE FOSCIANA, LU","prices":[{"type":"petrol","price":1.819,"self":true,"updatedAt":"20/06/2026 08:14:46"},{"type":"diesel","price":1.919,"self":true,"updatedAt":"20/06/2026 08:14:46"}]},{"id":"9198","lat":44.16152460169303,"lon":10.39411649107933,"name":"Cecchi Danilo","brand":"Api-Ip","address":"VIA PIANE 3 55030, VILLA COLLEMANDINA, LU","prices":[{"type":"petrol","price":1.799,"self":true,"updatedAt":"20/06/2026 07:22:06"},{"type":"diesel","price":1.899,"self":true,"updatedAt":"20/06/2026 07:22:06"}]},{"id":"55404","lat":44.199101558985824,"lon":10.482781606286617,"name":"A.F. PETROLI S.P.A.  - MONTECRETO","brand":"AF Petroli","address":"DELLE RADICI KM 47+178 SNC 41025, MONTECRETO, MO","prices":[{"type":"petrol","price":2.059,"self":true,"updatedAt":"17/06/2026 15:09:06"},{"type":"diesel","price":2.159,"self":true,"updatedAt":"17/06/2026 15:09:06"}]}]