[{"id":"53032","lat":44.2270182,"lon":12.1747188,"name":"BEVANO EST","brand":"Agip Eni","address":"Autostrada A14 BOLOGNA-BARI-TARANTO,  Km. 89,500, dir. BOLOGNA 47032, BERTINORO, FC","prices":[{"type":"petrol","price":1.879,"self":true,"updatedAt":"29/06/2026 00:16:14"},{"type":"diesel","price":1.959,"self":true,"updatedAt":"29/06/2026 11:34:09"},{"type":"methane","price":1.595,"self":false,"updatedAt":"29/06/2026 00:16:14"},{"type":"lpg","price":0.829,"self":false,"updatedAt":"29/06/2026 11:34:09"}]},{"id":"3587","lat":44.21638492107197,"lon":12.177193933868466,"name":"BEVANO OVEST","brand":"Esso","address":"Autostrada A14 BOLOGNA-BARI-TARANTO, Km. 89+500, dir. Sud - 47032, BERTINORO, FC","prices":[{"type":"petrol","price":1.909,"self":true,"updatedAt":"29/06/2026 07:30:13"},{"type":"diesel","price":2.029,"self":true,"updatedAt":"29/06/2026 07:30:13"},{"type":"lpg","price":0.839,"self":false,"updatedAt":"29/06/2026 07:30:11"}]},{"id":"31062","lat":44.18772702017967,"lon":12.174116382942202,"name":"EGO Bertinoro","brand":"Ego","address":"VIA SANTA CROCE 2107 47032, BERTINORO, FC","prices":[{"type":"petrol","price":1.758,"self":true,"updatedAt":"29/06/2026 00:01:32"},{"type":"diesel","price":1.828,"self":true,"updatedAt":"29/06/2026 00:01:32"}]},{"id":"48031","lat":44.15616840237129,"lon":12.222239580803608,"name":"ACTON 1Q - CESENA LA MALFA","brand":"Acton1Q","address":"VIA UGO LA MALFA 3101 47522, CESENA (FC) 3101 47521, CESENA, FC","prices":[{"type":"petrol","price":1.789,"self":true,"updatedAt":"29/06/2026 00:52:53"},{"type":"diesel","price":1.849,"self":true,"updatedAt":"29/06/2026 00:52:53"},{"type":"methane","price":1.549,"self":true,"updatedAt":"29/06/2026 00:52:53"},{"type":"lpg","price":0.739,"self":false,"updatedAt":"29/06/2026 00:18:50"}]},{"id":"55702","lat":44.17270269583786,"lon":12.226860786897879,"name":"ACTON 1Q - CESENA VIA TORINO","brand":"Acton1Q","address":"VIA TORINO FR. PIEVESESTINA 1689 47522, CESENA (FC) 1689 47522, CESENA, FC","prices":[{"type":"petrol","price":1.759,"self":true,"updatedAt":"29/06/2026 00:12:12"},{"type":"diesel","price":1.849,"self":true,"updatedAt":"29/06/2026 09:22:19"},{"type":"methane","price":1.549,"self":false,"updatedAt":"29/06/2026 00:12:12"},{"type":"lpg","price":0.759,"self":false,"updatedAt":"29/06/2026 00:12:12"}]},{"id":"55703","lat":44.1408871702488,"lon":12.235932071879736,"name":"ACTON 1Q - CESENA VIA ZUCCHERIFICIO","brand":"Acton1Q","address":"VIA ZUCCHERIFICIO 178 47522, CESENA (FC) 178 47521, CESENA, FC","prices":[{"type":"petrol","price":1.729,"self":true,"updatedAt":"29/06/2026 00:10:50"},{"type":"diesel","price":1.799,"self":true,"updatedAt":"29/06/2026 00:10:50"}]},{"id":"14543","lat":44.051044424391236,"lon":12.17627851839893,"name":"Borello","brand":"Pompe Bianche","address":"VIA BORELLO 806 47522, CESENA, FC","prices":[{"type":"petrol","price":1.895,"self":true,"updatedAt":"17/06/2026 11:12:09"},{"type":"diesel","price":1.995,"self":true,"updatedAt":"17/06/2026 11:12:09"}]},{"id":"32567","lat":44.133503868929154,"lon":12.230384900501122,"name":"CESENA - BRENZAGLIA","brand":"Api-Ip","address":"VIA BRENZAGLIA 193 47023, CESENA, FC","prices":[{"type":"petrol","price":1.789,"self":true,"updatedAt":"29/06/2026 09:00:45"},{"type":"diesel","price":1.869,"self":true,"updatedAt":"29/06/2026 09:00:45"}]},{"id":"63027","lat":44.0602752,"lon":12.1808315,"name":"COIL BORELLO","brand":"COIL","address":"Via Gallo 628  47522, CESENA, FC","prices":[{"type":"petrol","price":1.768,"self":true,"updatedAt":"30/06/2026 00:03:49"},{"type":"diesel","price":1.857,"self":true,"updatedAt":"30/06/2026 00:03:49"}]},{"id":"9131","lat":44.157558583627576,"lon":12.193772792816162,"name":"diegaro","brand":"Tamoil","address":"SS. 9 EMILIA  47023, CESENA, FC","prices":[{"type":"petrol","price":1.778,"self":true,"updatedAt":"27/06/2026 06:00:30"},{"type":"diesel","price":1.848,"self":true,"updatedAt":"30/06/2026 06:00:33"},{"type":"methane","price":1.548,"self":false,"updatedAt":"24/06/2026 06:00:12"},{"type":"lpg","price":0.758,"self":false,"updatedAt":"23/06/2026 17:30:06"}]},{"id":"27520","lat":44.14370446621185,"lon":12.223295278573573,"name":"EGO Cattaneo","brand":"Ego","address":"VIALE CARLO CATTANEO 359 47522, CESENA, FC","prices":[{"type":"petrol","price":1.738,"self":true,"updatedAt":"29/06/2026 00:01:22"},{"type":"diesel","price":1.828,"self":true,"updatedAt":"29/06/2026 00:01:22"}]},{"id":"10075","lat":44.14051659443896,"lon":12.23166074484402,"name":"EGO Matteotti","brand":"Ego","address":"VIALE MATTEOTTI 210 47522, CESENA, FC","prices":[{"type":"petrol","price":1.738,"self":true,"updatedAt":"29/06/2026 00:29:38"},{"type":"diesel","price":1.828,"self":true,"updatedAt":"29/06/2026 00:29:38"}]},{"id":"48614","lat":44.1738741613259,"lon":12.224968402446738,"name":"Enercoop Cesena","brand":"Enercoop","address":"VIA TORINO 1904 47522, CESENA, FC","prices":[{"type":"petrol","price":1.739,"self":true,"updatedAt":"24/06/2026 09:20:52"},{"type":"diesel","price":1.809,"self":true,"updatedAt":"24/06/2026 09:20:52"},{"type":"methane","price":1.549,"self":false,"updatedAt":"11/06/2026 10:08:27"},{"type":"lpg","price":0.749,"self":false,"updatedAt":"25/06/2026 08:20:48"}]},{"id":"57204","lat":44.1409409,"lon":12.2293274,"name":"ESSO 3B LAVAGGIO CESENATE DI SELMAN MELISA & C. S.N.C.","brand":"Esso","address":"GIACOMO MATTEOTTI 450 47522, CESENA, FC","prices":[{"type":"petrol","price":1.779,"self":true,"updatedAt":"26/06/2026 08:13:03"},{"type":"diesel","price":1.849,"self":true,"updatedAt":"26/06/2026 08:13:03"}]},{"id":"35495","lat":44.150109191844564,"lon":12.23896935582161,"name":"IP","brand":"Api-Ip","address":"VIA PALMIRO TOGLIATTI 45 47521, CESENA, FC","prices":[{"type":"petrol","price":1.806,"self":true,"updatedAt":"26/06/2026 18:37:59"},{"type":"diesel","price":1.896,"self":true,"updatedAt":"26/06/2026 18:37:59"}]},{"id":"13672","lat":44.14377303510056,"lon":12.218599490737915,"name":"Leone- Cesena","brand":"LEONE","address":"VIA ROMEA 110 47023, CESENA, FC","prices":[{"type":"petrol","price":1.787,"self":true,"updatedAt":"30/06/2026 00:19:00"},{"type":"diesel","price":1.847,"self":true,"updatedAt":"30/06/2026 00:19:00"}]},{"id":"25158","lat":44.1708634722676,"lon":12.24268128226231,"name":"Martorano","brand":"Pompe Bianche","address":"VIA RAVENNATE 2621 47522, CESENA, FC","prices":[{"type":"petrol","price":1.748,"self":true,"updatedAt":"29/06/2026 00:29:28"},{"type":"diesel","price":1.828,"self":true,"updatedAt":"29/06/2026 00:29:28"}]},{"id":"15853","lat":44.16004157736681,"lon":12.221008117463043,"name":"Metanauto del Savio s.n.c. \"Pievesestina\"","brand":"Pompe Bianche","address":"VIA VIGNE DI PIEVESESTINA 225 47522, CESENA, FC","prices":[{"type":"methane","price":1.549,"self":false,"updatedAt":"28/06/2026 09:29:28"}]},{"id":"59040","lat":44.140757,"lon":12.23074373,"name":"PV  5948 CESENA","brand":"Agip Eni","address":"M. MATTEOTTI 288 47522, CESENA, FC","prices":[{"type":"petrol","price":1.789,"self":true,"updatedAt":"29/06/2026 00:33:34"},{"type":"diesel","price":1.834,"self":true,"updatedAt":"29/06/2026 00:33:34"}]},{"id":"57800","lat":44.12909781466501,"lon":12.242768166458147,"name":"Q8 CESENA  PONTE ABBADESSE","brand":"Q8","address":"PONTE ABBADESSE 110 47521, CESENA, FC","prices":[{"type":"petrol","price":1.748,"self":true,"updatedAt":"29/06/2026 19:28:04"},{"type":"diesel","price":1.858,"self":true,"updatedAt":"29/06/2026 19:28:04"}]},{"id":"9128","lat":44.119322525445796,"lon":12.208075816532869,"name":"romea 3000","brand":"Tamoil","address":"VIA ROMEA 3000 47023, CESENA, FC","prices":[{"type":"petrol","price":1.778,"self":true,"updatedAt":"27/06/2026 07:33:06"},{"type":"diesel","price":1.848,"self":true,"updatedAt":"30/06/2026 07:03:06"}]},{"id":"9129","lat":44.13775240539169,"lon":12.217333316802979,"name":"romea 863","brand":"Tamoil","address":"VIA ROMEA 863 47023, CESENA, FC","prices":[{"type":"petrol","price":1.778,"self":false,"updatedAt":"29/06/2026 15:21:04"},{"type":"diesel","price":1.848,"self":false,"updatedAt":"30/06/2026 07:03:07"}]},{"id":"35383","lat":44.152572907454605,"lon":12.246512489165411,"name":"sab srl","brand":"Pompe Bianche","address":"VIA ROMAGNA 237 47521, CESENA, FC","prices":[{"type":"diesel","price":1.95,"self":true,"updatedAt":"29/06/2026 11:27:40"}]},{"id":"9130","lat":44.13427779637063,"lon":12.213594317436218,"name":"san mauro","brand":"Tamoil","address":"VIA S. MAURO 1315, 47522, CESENA, FC","prices":[{"type":"petrol","price":1.778,"self":true,"updatedAt":"27/06/2026 07:03:04"},{"type":"diesel","price":1.848,"self":true,"updatedAt":"30/06/2026 07:03:05"},{"type":"lpg","price":0.758,"self":false,"updatedAt":"23/06/2026 18:06:05"}]},{"id":"4822","lat":44.11146407796549,"lon":12.204226702451706,"name":"san vittore 1","brand":"Tamoil","address":"3 bis Tiberina, Km. 219+398, roma  47522, CESENA, FC","prices":[{"type":"petrol","price":1.778,"self":true,"updatedAt":"27/06/2026 06:03:28"},{"type":"diesel","price":1.848,"self":true,"updatedAt":"30/06/2026 06:03:12"},{"type":"methane","price":1.548,"self":false,"updatedAt":"24/06/2026 06:03:11"},{"type":"lpg","price":0.758,"self":false,"updatedAt":"23/06/2026 17:27:06"}]},{"id":"4827","lat":44.11128883069606,"lon":12.204948216676712,"name":"san vittore 2","brand":"Tamoil","address":"3 bis Tiberina, Km. 219+398, ravenna  47023, CESENA, FC","prices":[{"type":"petrol","price":1.778,"self":true,"updatedAt":"27/06/2026 06:00:30"},{"type":"diesel","price":1.848,"self":true,"updatedAt":"30/06/2026 06:00:32"},{"type":"methane","price":1.548,"self":false,"updatedAt":"25/06/2026 09:24:04"},{"type":"lpg","price":0.758,"self":false,"updatedAt":"25/06/2026 09:24:04"}]},{"id":"61060","lat":44.15164,"lon":12.24678,"name":"Stazione di Servizio Cesena di Zannoni Srl","brand":"Zannoni","address":"MADONNA DELLO SCHIOPPO 367 47521, CESENA, FC","prices":[{"type":"petrol","price":1.749,"self":true,"updatedAt":"26/06/2026 11:25:23"},{"type":"diesel","price":1.819,"self":true,"updatedAt":"26/06/2026 11:25:23"}]},{"id":"60017","lat":44.17492520705285,"lon":12.220729393955994,"name":"Stazione di Servizio Cesena Via Torino","brand":"Pompe Bianche","address":"Via Torino 1999 47522, CESENA, FC","prices":[{"type":"petrol","price":1.839,"self":true,"updatedAt":"30/06/2026 00:00:20"},{"type":"diesel","price":1.989,"self":true,"updatedAt":"30/06/2026 00:00:20"}]},{"id":"52954","lat":44.13150800682566,"lon":12.214278642462943,"name":"via romea cesena","brand":"Agip Eni","address":"ROMEA 1498 47522, CESENA, FC","prices":[{"type":"petrol","price":1.829,"self":true,"updatedAt":"29/06/2026 23:50:27"},{"type":"diesel","price":1.889,"self":true,"updatedAt":"29/06/2026 18:56:06"},{"type":"lpg","price":0.747,"self":false,"updatedAt":"29/06/2026 23:50:27"}]},{"id":"14573","lat":44.06376148751114,"lon":12.183947220901473,"name":"Zignani Lino Piero srl","brand":"Api-Ip","address":"Statale 3 bis Tiberina, Km. 213+750, dir. Orte-Ravenna - 47023, CESENA, FC","prices":[{"type":"petrol","price":1.775,"self":true,"updatedAt":"27/06/2026 09:53:54"},{"type":"diesel","price":1.865,"self":true,"updatedAt":"27/06/2026 09:53:55"}]},{"id":"29491","lat":44.06391431737848,"lon":12.183320224285126,"name":"Zignani Lino Piero srl lato sx","brand":"Pompe Bianche","address":"Statale 3 bis Tiberina, Km. 213+750, dir. sud - 47023, CESENA, FC","prices":[{"type":"petrol","price":1.795,"self":true,"updatedAt":"24/06/2026 10:16:22"},{"type":"diesel","price":1.875,"self":true,"updatedAt":"24/06/2026 10:16:22"}]},{"id":"61779","lat":44.050156115279066,"lon":12.014635098995038,"name":"Retitalia","brand":"Retitalia","address":"Via Andrea Costa 102  47012, CIVITELLA DI ROMAGNA, FC","prices":[{"type":"petrol","price":1.759,"self":true,"updatedAt":"26/06/2026 17:49:01"},{"type":"diesel","price":1.859,"self":true,"updatedAt":"26/06/2026 17:49:01"},{"type":"lpg","price":0.669,"self":false,"updatedAt":"26/06/2026 17:49:01"}]},{"id":"45947","lat":44.205800518283816,"lon":12.084758142327928,"name":"EGO Ronco","brand":"Ego","address":"VIA ZANGHERI 16 47122, FORLÌ, FC","prices":[{"type":"petrol","price":1.758,"self":true,"updatedAt":"29/06/2026 00:27:54"},{"type":"diesel","price":1.828,"self":true,"updatedAt":"29/06/2026 00:27:54"}]},{"id":"58054","lat":44.228695,"lon":12.06646,"name":"05941 FORLI'","brand":"Agip Eni","address":"Via E.Bertini 151  47122, FORLÌ, FC","prices":[{"type":"petrol","price":1.819,"self":true,"updatedAt":"30/06/2026 00:25:36"},{"type":"diesel","price":1.889,"self":true,"updatedAt":"30/06/2026 00:25:36"}]},{"id":"42350","lat":44.229273599187344,"lon":12.022748440504074,"name":"area 3.0","brand":"Agip Eni","address":"Viale Bologna 13 47121, FORLÌ, FC","prices":[{"type":"petrol","price":1.789,"self":true,"updatedAt":"29/06/2026 23:24:12"},{"type":"diesel","price":1.834,"self":true,"updatedAt":"29/06/2026 23:24:12"}]},{"id":"13862","lat":44.18877234697211,"lon":12.03445494567859,"name":"AREA DI SERVIZIO","brand":"Pompe Bianche","address":"VIALE APPENNINO 545 47121, FORLÌ, FC","prices":[{"type":"petrol","price":1.788,"self":true,"updatedAt":"23/06/2026 12:01:06"},{"type":"diesel","price":1.878,"self":true,"updatedAt":"23/06/2026 12:01:06"}]},{"id":"58230","lat":44.24666,"lon":12.08052,"name":"AVIA - FORLì","brand":"AVIA","address":"Via Punta di Ferro 4d  47122, FORLÌ, FC","prices":[{"type":"petrol","price":1.819,"self":true,"updatedAt":"26/06/2026 15:58:15"},{"type":"diesel","price":1.899,"self":true,"updatedAt":"26/06/2026 15:58:15"}]},{"id":"61179","lat":44.22402,"lon":12.07665,"name":"B&G04","brand":"Pompe Bianche","address":"BALZELLA 48 47122, FORLÌ, FC","prices":[{"type":"petrol","price":1.798,"self":true,"updatedAt":"29/06/2026 00:38:32"},{"type":"diesel","price":1.87,"self":true,"updatedAt":"29/06/2026 00:38:32"}]},{"id":"48891","lat":44.19763213355912,"lon":12.09867775440216,"name":"BERTI & RUFFILLI SNC DI BERTI VANNI & CORZANI MONICA","brand":"Agip Eni","address":"BERTI & RUFFILLI SNC VIALE ROMA 400/B  47121 FORLI' 400/B 47121, FORLÌ, FC","prices":[{"type":"petrol","price":1.809,"self":true,"updatedAt":"29/06/2026 00:34:12"},{"type":"diesel","price":1.889,"self":true,"updatedAt":"29/06/2026 19:06:18"},{"type":"methane","price":1.599,"self":false,"updatedAt":"29/06/2026 00:34:12"},{"type":"lpg","price":0.759,"self":false,"updatedAt":"29/06/2026 00:34:12"}]},{"id":"11060","lat":44.240641210556646,"lon":12.087991833686829,"name":"BMB CARBURANTI","brand":"Agip Eni","address":"VIA CERVESE 174 47122, FORLI' (FC) 174 47122, FORLÌ, FC","prices":[{"type":"petrol","price":1.809,"self":true,"updatedAt":"29/06/2026 00:35:21"},{"type":"diesel","price":1.899,"self":true,"updatedAt":"29/06/2026 00:35:21"},{"type":"lpg","price":0.759,"self":false,"updatedAt":"29/06/2026 00:35:21"}]},{"id":"47519","lat":44.240532064951516,"lon":12.068824768066406,"name":"BONDI CARBURANTI","brand":"Pompe Bianche","address":"RAVEGNANA 357 47122, FORLÌ, FC","prices":[{"type":"petrol","price":1.889,"self":true,"updatedAt":"13/05/2026 11:13:35"},{"type":"diesel","price":1.899,"self":true,"updatedAt":"13/05/2026 11:13:35"}]},{"id":"10867","lat":44.236879074499555,"lon":12.01255738735199,"name":"CAPRI 9","brand":"Tamoil","address":"VIALE TRICOLORE  3 47122, FORLÌ, FC","prices":[{"type":"petrol","price":1.738,"self":true,"updatedAt":"29/06/2026 23:45:26"},{"type":"diesel","price":1.798,"self":true,"updatedAt":"29/06/2026 23:45:26"}]},{"id":"26399","lat":44.23404214440792,"lon":12.081286311149597,"name":"COSTANZO II","brand":"Api-Ip","address":"VIA COSTANZO II 17 47122, FORLÌ, FC","prices":[{"type":"petrol","price":1.799,"self":true,"updatedAt":"29/06/2026 09:21:04"},{"type":"diesel","price":1.879,"self":true,"updatedAt":"29/06/2026 09:21:04"},{"type":"methane","price":1.499,"self":false,"updatedAt":"29/06/2026 09:21:04"}]},{"id":"11075","lat":44.23545426074237,"lon":12.007693201303482,"name":"Donori Loris - Retitalia","brand":"Retitalia","address":"VIALE BOLOGNA 162 47122, FORLÌ, FC","prices":[{"type":"petrol","price":1.699,"self":false,"updatedAt":"29/06/2026 17:19:18"},{"type":"diesel","price":1.789,"self":false,"updatedAt":"29/06/2026 17:19:18"}]},{"id":"48491","lat":44.24052615683818,"lon":12.15691409325407,"name":"Easy Service Forlì","brand":"Energas","address":"Vie Cervese Località Pievequinta S.P. Bagnolo  259 47122, FORLÌ, FC","prices":[{"type":"petrol","price":1.749,"self":true,"updatedAt":"29/06/2026 00:08:46"},{"type":"diesel","price":1.819,"self":true,"updatedAt":"29/06/2026 00:08:46"},{"type":"lpg","price":0.719,"self":false,"updatedAt":"29/06/2026 10:46:09"}]},{"id":"61254","lat":44.20767,"lon":12.075,"name":"ESSO","brand":"Esso","address":"V.le Roma 286/B 47121, FORLÌ, FC","prices":[{"type":"petrol","price":1.749,"self":true,"updatedAt":"26/06/2026 14:56:26"},{"type":"diesel","price":1.849,"self":true,"updatedAt":"26/06/2026 14:56:26"}]},{"id":"62414","lat":44.2145097,"lon":12.0582604,"name":"Flash Car Wash 5920","brand":"Agip Eni","address":"V.le Roma 128  47121, FORLÌ, FC","prices":[{"type":"petrol","price":1.954,"self":true,"updatedAt":"29/06/2026 00:32:54"},{"type":"diesel","price":2.018,"self":true,"updatedAt":"29/06/2026 00:32:54"}]},{"id":"17668","lat":44.20743078422442,"lon":12.030353644180309,"name":"FO APPENNINO","brand":"Api-Ip","address":"VIALE DELL APPENNINO 130 47121, FORLÌ, FC","prices":[{"type":"petrol","price":1.788,"self":true,"updatedAt":"29/06/2026 09:00:37"},{"type":"diesel","price":1.878,"self":true,"updatedAt":"29/06/2026 09:00:37"}]},{"id":"17666","lat":44.22330768857352,"lon":12.026850379133293,"name":"FO FIRENZE","brand":"Api-Ip","address":"VIA FIRENZE 56 47100, FORLÌ, FC","prices":[{"type":"petrol","price":1.798,"self":true,"updatedAt":"29/06/2026 09:00:38"},{"type":"diesel","price":1.888,"self":true,"updatedAt":"29/06/2026 09:00:38"}]},{"id":"6596","lat":44.2144053657037,"lon":12.058682196400923,"name":"FORLI VIALE ROMA 130","brand":"Q8","address":"VIALE ROMA 130 47100, FORLÌ, FC","prices":[{"type":"petrol","price":1.749,"self":true,"updatedAt":"27/06/2026 01:41:06"},{"type":"diesel","price":1.799,"self":true,"updatedAt":"27/06/2026 01:41:06"}]},{"id":"30954","lat":44.24190192153608,"lon":12.071751720237671,"name":"FORLI' - RAVEGNANA","brand":"Api-Ip","address":"VIA RAVEGNANA  47100, FORLÌ, FC","prices":[{"type":"petrol","price":1.789,"self":true,"updatedAt":"29/06/2026 09:00:40"},{"type":"diesel","price":1.839,"self":true,"updatedAt":"29/06/2026 09:00:40"}]},{"id":"46023","lat":44.21312099838275,"lon":12.061793922090146,"name":"FORLI' V.LE ROMA 152","brand":"Q8","address":"V.LE ROMA 152 47122, FORLÌ, FC","prices":[{"type":"petrol","price":1.759,"self":true,"updatedAt":"27/06/2026 07:42:00"},{"type":"diesel","price":1.819,"self":true,"updatedAt":"27/06/2026 07:42:00"}]},{"id":"4309","lat":44.17771103552166,"lon":12.077011866453518,"name":"GEP CELLI GIULIANO SRL PV FORLI'","brand":"Gep carburanti","address":"VIA DECIO RAGGI 404 47100, FORLÌ, FC","prices":[{"type":"petrol","price":1.729,"self":true,"updatedAt":"24/06/2026 15:45:02"},{"type":"diesel","price":1.829,"self":true,"updatedAt":"24/06/2026 15:45:02"},{"type":"lpg","price":0.679,"self":false,"updatedAt":"24/06/2026 15:45:02"}]},{"id":"13469","lat":44.2301807517776,"lon":12.020719349384308,"name":"LAMBRUSCHI ROMANO & C. SNC","brand":"Tamoil","address":"VIA VIALE BOLOGNA 82 47122, FORLI' (FC) 82 47122, FORLÌ, FC","prices":[{"type":"petrol","price":1.739,"self":true,"updatedAt":"29/06/2026 09:58:03"},{"type":"diesel","price":1.829,"self":true,"updatedAt":"29/06/2026 09:58:03"}]},{"id":"26402","lat":44.215624645341286,"lon":12.082048058509827,"name":"MATTEI","brand":"Api-Ip","address":"VIA MATTEI 4 47122, FORLÌ, FC","prices":[{"type":"petrol","price":1.799,"self":true,"updatedAt":"26/06/2026 16:48:03"},{"type":"diesel","price":1.879,"self":true,"updatedAt":"26/06/2026 16:48:03"},{"type":"methane","price":1.599,"self":false,"updatedAt":"26/06/2026 16:48:03"},{"type":"lpg","price":0.759,"self":false,"updatedAt":"26/06/2026 16:48:03"}]},{"id":"11128","lat":44.235391035256384,"lon":12.020542994141579,"name":"METANO SCHIAVONIA SNC","brand":"Pompe Bianche","address":"VIA PADULLI 19 47122, FORLI' (FC) 19 47122, FORLÌ, FC","prices":[{"type":"methane","price":1.449,"self":false,"updatedAt":"29/06/2026 09:15:10"}]},{"id":"61679","lat":44.2287272,"lon":12.033161,"name":"Petrol Fuel S.P.A.-  Q8-  Viale Italia","brand":"Q8","address":"ITALIA 105/B 47122, FORLÌ, FC","prices":[{"type":"petrol","price":1.729,"self":true,"updatedAt":"25/06/2026 09:48:05"},{"type":"diesel","price":1.819,"self":true,"updatedAt":"25/06/2026 09:48:05"}]},{"id":"61040","lat":44.245099,"lon":12.089703,"name":"Petrol Fuel SPA - Q8- Gordini","brand":"Q8","address":"ANTONIETTA GORDINI 1H 47121, FORLÌ, FC","prices":[{"type":"petrol","price":1.749,"self":true,"updatedAt":"25/06/2026 12:51:04"},{"type":"diesel","price":1.829,"self":true,"updatedAt":"25/06/2026 07:54:05"}]},{"id":"25927","lat":44.20795686962027,"lon":12.050848603248596,"name":"PV 15916","brand":"Agip Eni","address":"VIA CAMPO DI MARTE 39 47100, FORLÌ, FC","prices":[{"type":"petrol","price":1.789,"self":true,"updatedAt":"29/06/2026 23:20:37"},{"type":"diesel","price":1.824,"self":true,"updatedAt":"29/06/2026 23:20:37"}]},{"id":"25929","lat":44.238456956376886,"lon":12.065954726983591,"name":"PV 5964","brand":"Agip Eni","address":"VIA RAVEGNANA 412 47100, FORLÌ, FC","prices":[{"type":"petrol","price":1.789,"self":true,"updatedAt":"29/06/2026 00:33:46"},{"type":"diesel","price":1.824,"self":true,"updatedAt":"29/06/2026 00:33:46"}]},{"id":"62278","lat":44.2316473,"lon":12.0174547,"name":"Q8 Forlì","brand":"Q8","address":"Viale Bologna 104  47122, FORLÌ, FC","prices":[{"type":"petrol","price":1.725,"self":true,"updatedAt":"29/06/2026 22:01:49"},{"type":"diesel","price":1.845,"self":true,"updatedAt":"29/06/2026 22:01:49"},{"type":"methane","price":1.449,"self":false,"updatedAt":"29/06/2026 22:01:47"}]},{"id":"4217","lat":44.2081081,"lon":12.0399881,"name":"Q8 Risorgimento","brand":"Q8","address":"Viale Risorgimento 56  47121, FORLÌ, FC","prices":[{"type":"petrol","price":1.799,"self":true,"updatedAt":"26/06/2026 17:06:38"},{"type":"diesel","price":1.899,"self":true,"updatedAt":"26/06/2026 17:06:38"}]},{"id":"62205","lat":44.213123746910654,"lon":12.018607623704426,"name":"RETITALIA FORLI'","brand":"Retitalia","address":"Via Firenze  47121, FORLÌ, FC","prices":[{"type":"petrol","price":1.699,"self":true,"updatedAt":"29/06/2026 11:22:20"},{"type":"diesel","price":1.789,"self":true,"updatedAt":"29/06/2026 11:22:20"}]},{"id":"61142","lat":44.21418933549829,"lon":12.059777202535633,"name":"RETITALIA FORLI'","brand":"Retitalia","address":"V.le Roma 79  47122, FORLÌ, FC","prices":[{"type":"petrol","price":1.695,"self":true,"updatedAt":"29/06/2026 11:22:19"},{"type":"diesel","price":1.785,"self":true,"updatedAt":"29/06/2026 23:29:41"}]},{"id":"26405","lat":44.22969248626791,"lon":12.039509564638138,"name":"S.CHIARA","brand":"Api-Ip","address":"LARGO S. CHIARA 2 47122, FORLÌ, FC","prices":[{"type":"petrol","price":1.799,"self":true,"updatedAt":"29/06/2026 17:18:03"},{"type":"diesel","price":1.879,"self":true,"updatedAt":"29/06/2026 17:18:03"}]},{"id":"14332","lat":44.21622865837178,"lon":12.040991102039698,"name":"STAZIONE AGIP","brand":"Agip Eni","address":"VIA 2 GIUGNO 4 47121, FORLÌ, FC","prices":[{"type":"petrol","price":1.829,"self":true,"updatedAt":"29/06/2026 23:22:13"},{"type":"diesel","price":1.899,"self":true,"updatedAt":"29/06/2026 08:04:22"}]},{"id":"10836","lat":44.16490506045403,"lon":12.074587494134903,"name":"STAZIONE DI SERVIZIO BIDENTE DI ZANNONI SRL","brand":"Zannoni","address":"VIA BIDENTE 210/P 47121, FORLI' (FC) 210/P 47121, FORLÌ, FC","prices":[{"type":"petrol","price":1.729,"self":true,"updatedAt":"26/06/2026 17:16:45"},{"type":"diesel","price":1.829,"self":true,"updatedAt":"26/06/2026 17:16:45"},{"type":"methane","price":1.499,"self":false,"updatedAt":"26/06/2026 17:16:45"},{"type":"lpg","price":0.699,"self":false,"updatedAt":"26/06/2026 17:16:45"}]},{"id":"15590","lat":44.197836038222775,"lon":12.02067391408616,"name":"STAZIONE DI SERVIZIO ENI AGIP","brand":"Agip Eni","address":"VIA CASTEL LATINO 5/B 47121, FORLÌ, FC","prices":[{"type":"petrol","price":1.805,"self":true,"updatedAt":"30/06/2026 00:24:40"},{"type":"diesel","price":1.884,"self":true,"updatedAt":"29/06/2026 19:06:10"}]},{"id":"56542","lat":44.2074,"lon":12.08044,"name":"STAZIONE DI SERVIZIO ENI DI KRBECKOVA ILONA","brand":"Agip Eni","address":"DON G. POLLINI 15 47122, FORLÌ, FC","prices":[{"type":"petrol","price":1.823,"self":true,"updatedAt":"30/06/2026 00:26:00"},{"type":"diesel","price":1.884,"self":true,"updatedAt":"30/06/2026 00:26:00"},{"type":"lpg","price":0.759,"self":false,"updatedAt":"30/06/2026 00:26:00"}]},{"id":"53497","lat":44.23425820933614,"lon":12.032463456244669,"name":"Stazione di Servizio Isonzo di Zannoni srl","brand":"Agip Eni","address":"ISONZO 104 47122, FORLÌ, FC","prices":[{"type":"petrol","price":1.805,"self":true,"updatedAt":"29/06/2026 00:34:00"},{"type":"diesel","price":1.884,"self":true,"updatedAt":"29/06/2026 09:26:02"}]},{"id":"37326","lat":44.22819369503766,"lon":12.02997567175828,"name":"Stazione di Servizio Piave di Zannoni Srl","brand":"Agip Eni","address":"VIA PIAVE 1 47122, FORLI' (FC) 1 47122, FORLÌ, FC","prices":[{"type":"petrol","price":1.805,"self":true,"updatedAt":"29/06/2026 00:35:35"},{"type":"diesel","price":1.884,"self":true,"updatedAt":"29/06/2026 11:38:09"},{"type":"lpg","price":0.759,"self":false,"updatedAt":"29/06/2026 00:35:35"}]},{"id":"39769","lat":44.2446615892329,"lon":12.076604515314102,"name":"Stazione di Servizio Ravegnana di Zannoni Srl","brand":"Agip Eni","address":"VIA RAVEGNANA 474 47122, FORLI' (FC) 474 47122, FORLÌ, FC","prices":[{"type":"petrol","price":1.805,"self":true,"updatedAt":"30/06/2026 00:25:46"},{"type":"diesel","price":1.884,"self":true,"updatedAt":"30/06/2026 00:25:46"},{"type":"lpg","price":0.759,"self":false,"updatedAt":"29/06/2026 00:34:25"}]},{"id":"51125","lat":44.23029529802542,"lon":12.056369259953499,"name":"Stazione servizio Q8","brand":"Q8","address":"VIA RAVEGNANA 252 47122, FORLÌ, FC","prices":[{"type":"petrol","price":1.789,"self":true,"updatedAt":"27/06/2026 07:45:03"},{"type":"diesel","price":1.849,"self":true,"updatedAt":"27/06/2026 07:45:03"}]},{"id":"13625","lat":44.18602107092285,"lon":12.126549173016429,"name":"EGO Forlimpopoli","brand":"Ego","address":"MAZZINI 8 47034, FORLIMPOPOLI, FC","prices":[{"type":"petrol","price":1.758,"self":true,"updatedAt":"29/06/2026 00:07:34"},{"type":"diesel","price":1.828,"self":true,"updatedAt":"29/06/2026 00:07:34"}]},{"id":"25928","lat":44.18705885643521,"lon":12.123131457672116,"name":"PV 5914","brand":"Agip Eni","address":"VIA CIRCONVALLAZIONE 3 47034, FORLIMPOPOLI, FC","prices":[{"type":"petrol","price":1.789,"self":true,"updatedAt":"29/06/2026 00:32:28"},{"type":"diesel","price":1.824,"self":true,"updatedAt":"29/06/2026 00:32:28"}]},{"id":"11289","lat":44.183019124946284,"lon":12.134690433740616,"name":"Stazione di servizio ESSO","brand":"Esso","address":"VIA EMILIA 116 47034, FORLIMPOPOLI, FC","prices":[{"type":"petrol","price":1.789,"self":true,"updatedAt":"26/06/2026 10:22:11"},{"type":"diesel","price":1.859,"self":true,"updatedAt":"26/06/2026 10:22:11"}]},{"id":"11274","lat":44.18958546929261,"lon":12.119256103435532,"name":"Stazione di Servizio IP Maurizio e Angela","brand":"Api-Ip","address":"EMILIA PER FORLI' 280 47034, FORLIMPOPOLI, FC","prices":[{"type":"petrol","price":1.769,"self":true,"updatedAt":"29/06/2026 08:35:59"},{"type":"diesel","price":1.849,"self":true,"updatedAt":"29/06/2026 08:35:59"}]},{"id":"5297","lat":44.17617467862354,"lon":12.151914238929749,"name":"TOTALERG di LEONI snc","brand":"Api-Ip","address":"Statale 9 Via Emilia, Km. 37+257, dir. CESENA 1837 47034, FORLIMPOPOLI, FC","prices":[{"type":"petrol","price":1.837,"self":true,"updatedAt":"29/06/2026 07:41:47"},{"type":"diesel","price":1.899,"self":true,"updatedAt":"29/06/2026 07:41:47"},{"type":"lpg","price":0.699,"self":false,"updatedAt":"29/06/2026 07:41:47"}]},{"id":"52486","lat":44.134313047924635,"lon":12.061878374930748,"name":"CONAD SUPERMERCATO MELDOLA","brand":"CONAD","address":"strada provinciale n°4 del Bidente km79+800  47014, MELDOLA, FC","prices":[{"type":"petrol","price":1.729,"self":true,"updatedAt":"29/06/2026 07:02:14"},{"type":"diesel","price":1.799,"self":true,"updatedAt":"29/06/2026 07:02:14"},{"type":"lpg","price":0.649,"self":false,"updatedAt":"29/06/2026 07:02:14"}]},{"id":"45946","lat":44.13040612517404,"lon":12.059552882209005,"name":"EGO Meldola","brand":"Ego","address":"VIA I MAGGIO 28/B 47014, MELDOLA, FC","prices":[{"type":"petrol","price":1.758,"self":true,"updatedAt":"29/06/2026 00:06:00"},{"type":"diesel","price":1.828,"self":true,"updatedAt":"29/06/2026 00:06:00"}]},{"id":"26401","lat":44.12244651007528,"lon":12.061533036991023,"name":"MELDOLA","brand":"Api-Ip","address":"VIA GIORDANO BRUNO 59 47014, MELDOLA, FC","prices":[{"type":"petrol","price":1.769,"self":true,"updatedAt":"29/06/2026 09:30:03"},{"type":"diesel","price":1.879,"self":true,"updatedAt":"29/06/2026 09:30:03"}]},{"id":"63051","lat":44.12943880331666,"lon":12.062494239881145,"name":"RETITALIA MELDOLA","brand":"Retitalia","address":"Via Giuseppe Mazzini 37  47014, MELDOLA, FC","prices":[{"type":"petrol","price":1.739,"self":true,"updatedAt":"29/06/2026 10:48:10"},{"type":"diesel","price":1.819,"self":true,"updatedAt":"29/06/2026 10:48:10"}]},{"id":"60366","lat":44.13390545723433,"lon":12.061511271164473,"name":"RETITALIA MELDOLA VIA ROMA","brand":"Retitalia","address":"Via Roma 182  47014, MELDOLA, FC","prices":[{"type":"petrol","price":1.727,"self":true,"updatedAt":"29/06/2026 11:14:09"},{"type":"diesel","price":1.797,"self":true,"updatedAt":"29/06/2026 23:31:20"}]},{"id":"45948","lat":44.233243474552545,"lon":12.220391055819732,"name":"Q8 Mensa","brand":"Q8","address":"SS E45 KM 233+538  86 47521, RAVENNA, RA","prices":[{"type":"petrol","price":1.758,"self":true,"updatedAt":"29/06/2026 00:16:49"},{"type":"diesel","price":1.848,"self":true,"updatedAt":"29/06/2026 00:16:49"}]}]