[{"id":"60788","lat":44.43280971059391,"lon":10.403011106020134,"name":"106878 CASTELNOVO NE' MONTI","brand":"Esso","address":"BAGNOLI 37/A 42035, CASTELNOVO NE' MONTI, RE","prices":[{"type":"petrol","price":1.849,"self":true,"updatedAt":"30/06/2026 00:04:42"},{"type":"diesel","price":1.949,"self":true,"updatedAt":"30/06/2026 00:04:42"}]},{"id":"62382","lat":44.43782291026552,"lon":10.398267879098517,"name":"CIS NORD - CASTELNOVO NE' MONTI","brand":"Ego","address":"MONZANI 38 42035, CASTELNOVO NE' MONTI, RE","prices":[{"type":"petrol","price":1.849,"self":true,"updatedAt":"29/06/2026 22:03:03"},{"type":"diesel","price":1.949,"self":true,"updatedAt":"29/06/2026 22:03:03"}]},{"id":"14442","lat":44.4105577066164,"lon":10.462954044342041,"name":"CIS NORD - GATTA","brand":"Ego","address":"VIA PROVINCIALE, LOC. GATTA 56 42035, CASTELNOVO NE' MONTI, RE","prices":[{"type":"petrol","price":1.849,"self":true,"updatedAt":"29/06/2026 22:02:39"},{"type":"diesel","price":1.949,"self":true,"updatedAt":"29/06/2026 22:02:39"}]},{"id":"58638","lat":44.456129622069554,"lon":10.45842663047916,"name":"Ego","brand":"Ego","address":"Via Risorgimento 2 42035, CASTELNOVO NE' MONTI, RE","prices":[{"type":"petrol","price":1.839,"self":true,"updatedAt":"30/06/2026 07:37:12"},{"type":"diesel","price":1.939,"self":true,"updatedAt":"30/06/2026 07:37:12"},{"type":"methane","price":1.699,"self":false,"updatedAt":"30/06/2026 07:37:12"},{"type":"lpg","price":0.785,"self":false,"updatedAt":"30/06/2026 07:37:12"}]},{"id":"47301","lat":44.432133000123,"lon":10.411772000123,"name":"ENI","brand":"Agip Eni","address":"VIA G. MICHELI 3/C-D-E 42035, CASTELNOVO NE' MONTI, RE","prices":[{"type":"petrol","price":1.865,"self":true,"updatedAt":"29/06/2026 00:14:09"},{"type":"diesel","price":1.944,"self":true,"updatedAt":"29/06/2026 00:14:09"}]},{"id":"9920","lat":44.43415312914468,"lon":10.4057164155995,"name":"FONTANA MARCO STAZIONE SERVIZIO RETITALIA","brand":"Retitalia","address":"Statale 63 del Valico del Cerreto, Km. 65,800, dir. LA SPEZIA - 42035, CASTELNOVO NE' MONTI, RE","prices":[{"type":"petrol","price":1.849,"self":true,"updatedAt":"27/06/2026 08:09:36"},{"type":"diesel","price":1.949,"self":true,"updatedAt":"27/06/2026 08:09:36"}]},{"id":"7902","lat":44.395602031288895,"lon":10.328838229179382,"name":"CIS NORD - CERVAREZZA","brand":"Ego","address":"Statale 63 del Valico del Cerreto, Km. 55+542, dir. REGGIO EMILIA  42032, VENTASSO, RE","prices":[{"type":"petrol","price":1.849,"self":true,"updatedAt":"29/06/2026 22:02:51"},{"type":"diesel","price":1.949,"self":true,"updatedAt":"29/06/2026 22:02:51"}]},{"id":"55307","lat":44.30914,"lon":10.33335,"name":"CIS NORD - LIGONCHIO","brand":"Ego","address":"SAN ROCCO 49 42020, VENTASSO, RE","prices":[{"type":"petrol","price":1.949,"self":true,"updatedAt":"29/06/2026 22:03:00"},{"type":"diesel","price":1.999,"self":true,"updatedAt":"29/06/2026 22:03:01"}]},{"id":"19610","lat":44.411615722828515,"lon":10.276673287153244,"name":"distributore EGO di Tur Alina","brand":"Ego","address":"VIA CAMPOGRANDE 38 42032, VENTASSO (RE) 42 42030, VENTASSO, RE","prices":[{"type":"petrol","price":1.909,"self":true,"updatedAt":"27/06/2026 19:52:06"},{"type":"diesel","price":1.979,"self":true,"updatedAt":"27/06/2026 19:52:06"}]},{"id":"54942","lat":44.342946746572224,"lon":10.265952983891701,"name":"TAMOIL COLLAGNA","brand":"Tamoil","address":"Via Roma SNC 42032, VENTASSO, RE","prices":[{"type":"petrol","price":1.919,"self":true,"updatedAt":"29/06/2026 20:26:54"},{"type":"diesel","price":2.049,"self":true,"updatedAt":"29/06/2026 20:26:55"}]},{"id":"12485","lat":44.48301646637511,"lon":10.339957997202873,"name":"DISTRIBUTORE EGO","brand":"Ego","address":"VIA VAL D'ENZA 33 42020, VETTO (RE) 33 42020, VETTO, RE","prices":[{"type":"petrol","price":1.849,"self":true,"updatedAt":"29/06/2026 09:12:17"},{"type":"diesel","price":1.979,"self":true,"updatedAt":"29/06/2026 09:12:17"}]},{"id":"44079","lat":44.36643633014427,"lon":10.465934247850441,"name":"CORIANI ALESSANDRO","brand":"Api-Ip","address":"VIA DEL POGGIO 12 42030, VILLA MINOZZO, RE","prices":[{"type":"petrol","price":1.879,"self":true,"updatedAt":"29/06/2026 18:18:57"},{"type":"diesel","price":1.969,"self":true,"updatedAt":"29/06/2026 18:18:57"},{"type":"lpg","price":0.799,"self":false,"updatedAt":"29/06/2026 18:18:57"}]},{"id":"16039","lat":44.29716582001071,"lon":10.456299911361725,"name":"STAZIONE DI SERVIZIO TAMOIL DI RIOTTI TEODOLINDA","brand":"Tamoil","address":"VIA VAL D'ASTA 21/A-B 42030, VILLA MINOZZO, RE","prices":[{"type":"petrol","price":1.869,"self":true,"updatedAt":"26/06/2026 15:52:56"},{"type":"diesel","price":1.969,"self":true,"updatedAt":"26/06/2026 15:52:56"}]}]