[{"id":"40018","lat":44.397320731420436,"lon":7.4819885194301605,"name":"PV. SAN ROCCO DI BERNEZZO","brand":"SACED","address":"VIA FRAZIONE SAN ROCCO VIA VALLE GRANA 16 12010, BERNEZZO (CN) 16 12010, BERNEZZO, CN","prices":[{"type":"petrol","price":1.788,"self":true,"updatedAt":"20/06/2026 07:49:20"},{"type":"diesel","price":1.898,"self":true,"updatedAt":"20/06/2026 07:49:20"},{"type":"lpg","price":0.718,"self":false,"updatedAt":"20/06/2026 07:49:20"}]},{"id":"58148","lat":44.385712,"lon":7.4416126,"name":"S.A.L.C.A. BERNEZZO","brand":"Api-Ip","address":"CUNEO 30 12010, BERNEZZO, CN","prices":[{"type":"petrol","price":1.839,"self":true,"updatedAt":"24/06/2026 15:09:38"},{"type":"diesel","price":1.949,"self":true,"updatedAt":"24/06/2026 15:09:38"}]},{"id":"60283","lat":44.33300099017218,"lon":7.490110978565965,"name":"ENI","brand":"Agip Eni","address":"Corso Barale 32 12011, BORGO SAN DALMAZZO, CN","prices":[{"type":"petrol","price":1.824,"self":true,"updatedAt":"25/06/2026 00:09:29"},{"type":"diesel","price":1.914,"self":true,"updatedAt":"25/06/2026 00:09:29"}]},{"id":"57107","lat":44.32587862420849,"lon":7.48394052410588,"name":"EUROPAM - BORGO SAN DALMAZZO","brand":"Europam","address":"VIA NIZZA  42 12011, BORGO SAN DALMAZZO, CN","prices":[{"type":"petrol","price":1.797,"self":true,"updatedAt":"24/06/2026 21:30:34"},{"type":"diesel","price":1.887,"self":true,"updatedAt":"24/06/2026 21:30:34"}]},{"id":"20705","lat":44.326639560129124,"lon":7.489856779575348,"name":"PEDONA PETROLI SAS","brand":"Pompe Bianche","address":"VIA ROCCHIUSO 4 12011, BORGO SAN DALMAZZO, CN","prices":[{"type":"petrol","price":1.785,"self":true,"updatedAt":"22/06/2026 15:51:06"},{"type":"diesel","price":1.885,"self":true,"updatedAt":"22/06/2026 15:51:06"}]},{"id":"41069","lat":44.326433129854834,"lon":7.485368740683725,"name":"Stazione di Servizio ENI - Bianco Alberto","brand":"Agip Eni","address":"Via Nizza 20 12011, BORGO SAN DALMAZZO, CN","prices":[{"type":"petrol","price":1.824,"self":true,"updatedAt":"24/06/2026 00:51:30"},{"type":"diesel","price":1.914,"self":true,"updatedAt":"24/06/2026 00:51:30"}]},{"id":"55088","lat":44.3149332,"lon":7.4781618,"name":"Stazione di servizio Esso di Domenico Repaci","brand":"Esso","address":"Via Giacomo Matteotti 5 12011, BORGO SAN DALMAZZO, CN","prices":[{"type":"petrol","price":1.836,"self":true,"updatedAt":"23/06/2026 08:48:48"},{"type":"diesel","price":1.916,"self":true,"updatedAt":"23/06/2026 08:48:48"}]},{"id":"37186","lat":44.42478395155908,"lon":7.44167223572731,"name":"area di servizio mercurio","brand":"DIS-CAR","address":"via centallo  19 12023, CARAGLIO, CN","prices":[{"type":"petrol","price":1.849,"self":true,"updatedAt":"24/06/2026 23:49:14"},{"type":"diesel","price":1.979,"self":true,"updatedAt":"24/06/2026 23:49:14"},{"type":"lpg","price":0.769,"self":false,"updatedAt":"24/06/2026 23:49:14"}]},{"id":"17541","lat":44.40861866301707,"lon":7.442344129085541,"name":"BERGIA ALDO","brand":"Api-Ip","address":"VIA DIVISIONE CUNEESE  12023, CARAGLIO, CN","prices":[{"type":"petrol","price":1.869,"self":true,"updatedAt":"18/06/2026 10:59:19"},{"type":"diesel","price":2.009,"self":true,"updatedAt":"18/06/2026 10:59:19"}]},{"id":"11547","lat":44.414988504756714,"lon":7.436464373016406,"name":"CARAGLIO-VIA C.BATTISTI 86 SS. 22","brand":"Q8","address":"VIA C.BATTISTI - SS. 22 86 12023, CARAGLIO, CN","prices":[{"type":"petrol","price":1.818,"self":true,"updatedAt":"20/06/2026 08:11:33"},{"type":"diesel","price":1.928,"self":true,"updatedAt":"20/06/2026 08:11:33"}]},{"id":"35889","lat":44.41754618958462,"lon":7.433831574239775,"name":"eni 51130","brand":"Agip Eni","address":"CESARE BATTISTI 51 12023, CARAGLIO, CN","prices":[{"type":"petrol","price":1.859,"self":true,"updatedAt":"25/06/2026 00:10:25"},{"type":"diesel","price":1.964,"self":true,"updatedAt":"25/06/2026 00:10:25"}]},{"id":"30838","lat":44.3802037714067,"lon":7.4705746267225095,"name":"TOTAL ERG","brand":"Api-Ip","address":"VIA BORGO SAN DALMAZZO 21 12010, CERVASCA, CN","prices":[{"type":"petrol","price":1.839,"self":true,"updatedAt":"19/06/2026 10:25:04"},{"type":"diesel","price":1.949,"self":true,"updatedAt":"19/06/2026 10:25:04"}]},{"id":"35148","lat":44.31608175866428,"lon":7.305584663368222,"name":"Da GIGI","brand":"Pompe Bianche","address":"via Maggiore Borello 36 12014, DEMONTE, CN","prices":[{"type":"petrol","price":1.797,"self":true,"updatedAt":"19/06/2026 19:01:37"},{"type":"diesel","price":1.887,"self":true,"updatedAt":"19/06/2026 19:01:37"}]},{"id":"40485","lat":44.31469074330076,"lon":7.294538570535451,"name":"EUROPAM - DEMONTE","brand":"Europam","address":"PIAZZA RENZO SPADA 23 12014, DEMONTE, CN","prices":[{"type":"petrol","price":1.797,"self":true,"updatedAt":"25/06/2026 07:59:30"},{"type":"diesel","price":1.887,"self":true,"updatedAt":"25/06/2026 07:59:30"}]},{"id":"39612","lat":44.46945644964491,"lon":7.369548592531146,"name":"BUSSO Fabrizio","brand":"Agip Eni","address":"Via Provinciale Busca 14 12025, DRONERO, CN","prices":[{"type":"petrol","price":1.825,"self":true,"updatedAt":"22/06/2026 09:18:04"},{"type":"diesel","price":1.914,"self":true,"updatedAt":"22/06/2026 09:18:04"}]},{"id":"13363","lat":44.454682683165814,"lon":7.384887188673019,"name":"SOLE LUNA SNC","brand":"Api-Ip","address":"CUNEO 41 12025, DRONERO, CN","prices":[{"type":"petrol","price":1.859,"self":false,"updatedAt":"18/06/2026 21:44:36"},{"type":"diesel","price":1.969,"self":false,"updatedAt":"18/06/2026 21:44:36"}]},{"id":"46749","lat":44.332836080488015,"lon":7.403558045625687,"name":"STAZIONE DI SERVIZIO IP DI ALLASIA CRISTINA","brand":"Api-Ip","address":"21 della Maddalena, Km. 7+174, GAIOLA - 12010, GAIOLA, CN","prices":[{"type":"petrol","price":1.889,"self":true,"updatedAt":"24/06/2026 08:10:11"},{"type":"diesel","price":2.039,"self":true,"updatedAt":"24/06/2026 08:10:11"}]},{"id":"48101","lat":44.488234000123,"lon":7.256908000123,"name":"S.A.L.C.A. SAN DAMIANO MACRA","brand":"Api-Ip","address":"VIA ROMA 1 12029, SAN DAMIANO MACRA, CN","prices":[{"type":"petrol","price":1.849,"self":true,"updatedAt":"24/06/2026 15:08:50"},{"type":"diesel","price":1.959,"self":true,"updatedAt":"24/06/2026 15:08:50"}]},{"id":"55180","lat":44.27216736096132,"lon":7.396045124511739,"name":"CPP - VALDIERI","brand":"Api-Ip","address":"CADUTI IN GUERRA 23 12010, VALDIERI, CN","prices":[{"type":"petrol","price":1.879,"self":true,"updatedAt":"24/06/2026 23:57:08"},{"type":"diesel","price":1.979,"self":true,"updatedAt":"24/06/2026 23:57:08"}]},{"id":"48097","lat":44.41265158399384,"lon":7.382667765460207,"name":"S.A.L.C.A. VALGRANA","brand":"Api-Ip","address":"VIA CARAGLIO 12 12020, VALGRANA, CN","prices":[{"type":"petrol","price":1.839,"self":true,"updatedAt":"24/06/2026 15:08:34"},{"type":"diesel","price":1.949,"self":true,"updatedAt":"24/06/2026 15:08:34"}]},{"id":"48098","lat":44.36638217478452,"lon":7.486210495823853,"name":"S.A.L.C.A. VIGNOLO","brand":"Api-Ip","address":"VIA CUNEO 50/B 12010, VIGNOLO, CN","prices":[{"type":"petrol","price":1.839,"self":true,"updatedAt":"24/06/2026 15:08:39"},{"type":"diesel","price":1.949,"self":true,"updatedAt":"24/06/2026 15:08:39"}]}]