[{"id":"60931","lat":44.725784,"lon":10.990883,"name":"6366 BASTIGLIA","brand":"Agip Eni","address":"VIA CANALETTO S.S.12  KM.195+900, BASTIGLIA, MO","prices":[{"type":"petrol","price":1.829,"self":true,"updatedAt":"24/06/2026 01:05:20"},{"type":"diesel","price":1.919,"self":true,"updatedAt":"24/06/2026 01:05:20"}]},{"id":"9784","lat":44.6912089172356,"lon":10.846072733402252,"name":"AGIP","brand":"Agip Eni","address":"VIA GIUSEPPE DI VITTORIO 19 41011, CAMPOGALLIANO, MO","prices":[{"type":"petrol","price":1.824,"self":true,"updatedAt":"24/06/2026 00:58:28"},{"type":"diesel","price":1.914,"self":true,"updatedAt":"24/06/2026 00:58:28"}]},{"id":"3894","lat":44.70421995079144,"lon":10.849074125289917,"name":"CAMPOGALLIANO EST","brand":"Agip Eni","address":"Autostrada A22 BRENNERO-MODENA,  Km. 297.85, dir. Nord 41013, CAMPOGALLIANO, MO","prices":[{"type":"petrol","price":2.069,"self":true,"updatedAt":"18/05/2026 23:37:10"},{"type":"diesel","price":2.169,"self":true,"updatedAt":"18/05/2026 23:37:10"},{"type":"methane","price":1.729,"self":false,"updatedAt":"18/05/2026 23:37:10"},{"type":"lpg","price":0.999,"self":false,"updatedAt":"18/05/2026 23:37:10"}]},{"id":"63163","lat":44.70428,"lon":10.849062,"name":"CAMPOGALLIANO EST","brand":"Agip Eni","address":"Autostrada A22 BRENNERO-MODENA, dir. EST, CAMPOGALLIANO, MO","prices":[{"type":"petrol","price":1.929,"self":true,"updatedAt":"24/06/2026 00:17:07"},{"type":"diesel","price":2.029,"self":true,"updatedAt":"24/06/2026 00:17:07"},{"type":"methane","price":1.589,"self":false,"updatedAt":"24/06/2026 00:17:07"},{"type":"lpg","price":0.899,"self":false,"updatedAt":"24/06/2026 00:17:07"}]},{"id":"3887","lat":44.70278984467375,"lon":10.847896340846546,"name":"CAMPOGALLIANO OVEST","brand":"Agip Eni","address":"Autostrada A22 BRENNERO-MODENA,  Km. 308.49, dir. Sud - 41011, CAMPOGALLIANO, MO","prices":[{"type":"petrol","price":1.945,"self":true,"updatedAt":"24/06/2026 00:16:49"},{"type":"diesel","price":2.048,"self":true,"updatedAt":"24/06/2026 00:16:49"},{"type":"methane","price":1.647,"self":false,"updatedAt":"24/06/2026 00:16:49"},{"type":"lpg","price":0.997,"self":false,"updatedAt":"24/06/2026 00:16:49"}]},{"id":"12680","lat":44.688300937196686,"lon":10.857815275949065,"name":"Q8","brand":"Q8","address":"VIA PONTE ALTO 30 41011, CAMPOGALLIANO, MO","prices":[{"type":"petrol","price":1.799,"self":false,"updatedAt":"19/06/2026 11:33:38"},{"type":"diesel","price":1.909,"self":false,"updatedAt":"19/06/2026 11:33:38"},{"type":"lpg","price":0.769,"self":false,"updatedAt":"19/06/2026 11:33:38"}]},{"id":"54990","lat":44.574706075675024,"lon":10.907186704025271,"name":"A.F. PETROLI S.P.A. - CASTELNUOVO RANGONE","brand":"AF Petroli","address":"VANDELLI 33/A 41051, CASTELNUOVO RANGONE, MO","prices":[{"type":"petrol","price":1.799,"self":true,"updatedAt":"20/06/2026 08:43:00"},{"type":"diesel","price":1.899,"self":true,"updatedAt":"20/06/2026 08:43:00"}]},{"id":"47207","lat":44.549592965568735,"lon":10.929147629346083,"name":"IP","brand":"Api-Ip","address":"VIA MONTANARA 18/A 41051, CASTELNUOVO RANGONE, MO","prices":[{"type":"petrol","price":1.819,"self":true,"updatedAt":"23/06/2026 13:24:04"},{"type":"diesel","price":1.929,"self":true,"updatedAt":"23/06/2026 13:24:04"}]},{"id":"44970","lat":44.542864000123,"lon":10.931248000123,"name":"IP CASTELNUOVO","brand":"Api-Ip","address":"VIA DELLA PACE 25 41051, CASTELNUOVO RANGONE, MO","prices":[{"type":"petrol","price":1.829,"self":true,"updatedAt":"22/06/2026 07:57:58"},{"type":"diesel","price":1.939,"self":true,"updatedAt":"22/06/2026 07:57:58"},{"type":"lpg","price":0.809,"self":false,"updatedAt":"22/06/2026 07:57:58"}]},{"id":"51701","lat":44.54260811950126,"lon":10.955138741069778,"name":"IP SETTECANI","brand":"Api-Ip","address":"VIA PER SPILAMBERTO 9/A 41051, CASTELNUOVO RANGONE, MO","prices":[{"type":"petrol","price":1.839,"self":true,"updatedAt":"22/06/2026 07:57:54"},{"type":"diesel","price":1.949,"self":true,"updatedAt":"22/06/2026 07:57:54"}]},{"id":"62362","lat":44.507022524302414,"lon":10.946510104145649,"name":"Castelvetro","brand":"Esso","address":"PER MODENA 8 41014, CASTELVETRO DI MODENA, MO","prices":[{"type":"petrol","price":1.979,"self":true,"updatedAt":"02/05/2026 08:21:06"},{"type":"diesel","price":2.099,"self":true,"updatedAt":"28/04/2026 16:06:04"}]},{"id":"46803","lat":44.530140048593324,"lon":10.956791043281555,"name":"EGO CA' DI SOLA","brand":"Tamoil","address":"CA' DI SOLA  - Via Statale  19/A 41014, CASTELVETRO DI MODENA, MO","prices":[{"type":"petrol","price":1.839,"self":true,"updatedAt":"23/06/2026 10:17:19"},{"type":"diesel","price":1.939,"self":true,"updatedAt":"23/06/2026 10:17:21"}]},{"id":"63000","lat":44.50708077088285,"lon":10.946503148279566,"name":"NEW RETE CASTELVETRO DI MODENA","brand":"Esso","address":"Via Modena 8 41014, CASTELVETRO DI MODENA, MO","prices":[{"type":"petrol","price":1.879,"self":true,"updatedAt":"23/06/2026 09:39:06"},{"type":"diesel","price":1.949,"self":true,"updatedAt":"23/06/2026 09:39:06"}]},{"id":"55707","lat":44.54613392134146,"lon":10.790893546859357,"name":"Esso","brand":"Esso","address":"ANTICA CAVA 5 41042, FIORANO MODENESE, MO","prices":[{"type":"petrol","price":1.819,"self":true,"updatedAt":"22/06/2026 08:37:52"},{"type":"diesel","price":1.899,"self":true,"updatedAt":"22/06/2026 08:37:52"}]},{"id":"55038","lat":44.538121220637656,"lon":10.824531751022342,"name":"A.F. PETROLI S.P.A. - FIORANO","brand":"AF Petroli","address":"SAN FRANCESCO 206 41042, FIORANO MODENESE, MO","prices":[{"type":"petrol","price":1.799,"self":true,"updatedAt":"19/06/2026 16:34:51"},{"type":"diesel","price":1.899,"self":true,"updatedAt":"19/06/2026 16:34:51"},{"type":"methane","price":1.399,"self":false,"updatedAt":"19/06/2026 16:34:51"}]},{"id":"58302","lat":44.549483476105976,"lon":10.831522247238148,"name":"CIS NORD - FIORANO MODENESE","brand":"Agip Eni","address":"PEDEMONTANA 105 41042, FIORANO MODENESE, MO","prices":[{"type":"petrol","price":1.794,"self":true,"updatedAt":"23/06/2026 22:02:44"},{"type":"diesel","price":1.884,"self":true,"updatedAt":"23/06/2026 22:02:43"},{"type":"methane","price":1.399,"self":false,"updatedAt":"23/06/2026 22:02:43"},{"type":"lpg","price":0.749,"self":false,"updatedAt":"23/06/2026 17:01:14"}]},{"id":"49031","lat":44.5530539597274,"lon":10.810430453305194,"name":"Eni GHIAROLA NUOVA","brand":"Agip Eni","address":"VIA GHIAROLA  NUOVA 00 41042, FIORANO MODENESE, MO","prices":[{"type":"petrol","price":1.829,"self":true,"updatedAt":"23/06/2026 23:39:51"},{"type":"diesel","price":1.919,"self":true,"updatedAt":"23/06/2026 23:39:51"}]},{"id":"35190","lat":44.53532848170336,"lon":10.8304288256561,"name":"F.lli Righi snc","brand":"Esso","address":"VIA FLUMENDOSA 24 41042, FIORANO MODENESE, MO","prices":[{"type":"petrol","price":1.839,"self":true,"updatedAt":"23/06/2026 22:06:38"},{"type":"diesel","price":1.939,"self":true,"updatedAt":"23/06/2026 22:06:38"},{"type":"lpg","price":0.779,"self":false,"updatedAt":"23/06/2026 22:06:38"}]},{"id":"62145","lat":44.53019,"lon":10.85332,"name":"FIORANO MODENESE","brand":"Economy","address":"VIA STATALE ANGOLO VIA SAN GIOVANNI  SNC 41042, FIORANO MODENESE, MO","prices":[{"type":"petrol","price":1.799,"self":true,"updatedAt":"23/06/2026 09:47:04"},{"type":"diesel","price":1.899,"self":true,"updatedAt":"23/06/2026 09:46:58"},{"type":"lpg","price":0.779,"self":false,"updatedAt":"20/06/2026 08:59:54"}]},{"id":"55758","lat":44.53477152918579,"lon":10.841349327898254,"name":"Ip","brand":"Api-Ip","address":"S. GIOV. EVANGELISTA 36/38 41042, FIORANO MODENESE, MO","prices":[{"type":"petrol","price":1.829,"self":true,"updatedAt":"19/06/2026 17:04:31"},{"type":"diesel","price":1.919,"self":true,"updatedAt":"19/06/2026 17:04:31"}]},{"id":"53309","lat":44.551315331587546,"lon":10.81765369888914,"name":"IP 46233","brand":"Api-Ip","address":"VIA VIA PEDEMONTANA 220/222 41042, FIORANO MODENESE (MO) 222  41042, FIORANO MODENESE, MO","prices":[{"type":"petrol","price":1.809,"self":true,"updatedAt":"23/06/2026 10:53:35"},{"type":"diesel","price":1.919,"self":true,"updatedAt":"23/06/2026 10:53:35"}]},{"id":"51163","lat":44.538870638895155,"lon":10.808557090588321,"name":"ip di corti massimo","brand":"Api-Ip","address":"Strada Statale, Km. 10, maranello/sassuolo  41042, FIORANO MODENESE, MO","prices":[{"type":"petrol","price":1.819,"self":true,"updatedAt":"19/06/2026 16:03:20"},{"type":"diesel","price":1.909,"self":true,"updatedAt":"19/06/2026 16:03:20"}]},{"id":"52310","lat":44.533539097515195,"lon":10.839594855953605,"name":"IP SPEZZANO","brand":"Api-Ip","address":"SPEZZANO - VIA STATALE 38 41042, FIORANO MODENESE, MO","prices":[{"type":"petrol","price":1.839,"self":true,"updatedAt":"23/06/2026 18:27:18"},{"type":"diesel","price":1.949,"self":true,"updatedAt":"23/06/2026 18:27:19"}]},{"id":"37827","lat":44.540699409914126,"lon":10.821686106346078,"name":"stazione IP","brand":"Api-Ip","address":"VIA SAN FRANCESCO 38 41042, FIORANO MODENESE, MO","prices":[{"type":"petrol","price":1.829,"self":true,"updatedAt":"19/06/2026 18:09:28"},{"type":"diesel","price":1.919,"self":true,"updatedAt":"19/06/2026 18:09:28"}]},{"id":"53192","lat":44.59196730000001,"lon":10.8556966,"name":"Retitalia","brand":"Retitalia","address":"GIARDINI NORD 270 41043, FORMIGINE, MO","prices":[{"type":"petrol","price":1.739,"self":true,"updatedAt":"17/06/2026 11:49:06"},{"type":"diesel","price":2.049,"self":true,"updatedAt":"17/06/2026 11:49:06"}]},{"id":"55987","lat":44.59262,"lon":10.844604,"name":"6358 Formigine","brand":"Agip Eni","address":"SUPERSTRADA MO/SASSUOLO CASINALBO, FORMIGINE, MO","prices":[{"type":"petrol","price":1.829,"self":true,"updatedAt":"24/06/2026 00:26:40"},{"type":"diesel","price":1.919,"self":true,"updatedAt":"24/06/2026 00:26:40"},{"type":"lpg","price":0.777,"self":false,"updatedAt":"24/06/2026 00:26:40"}]},{"id":"50753","lat":44.57068151817505,"lon":10.826044082641596,"name":"AREA DI SERVIZIO FORMIGINE","brand":"Esso","address":"ND SS. 724 MODENA/SASSUOLO KM. 17+000 SNC 41043, FORMIGINE (MO) KM 17+00 41043, FORMIGINE, MO","prices":[{"type":"petrol","price":1.799,"self":true,"updatedAt":"24/06/2026 06:06:10"},{"type":"diesel","price":1.899,"self":true,"updatedAt":"24/06/2026 06:06:10"},{"type":"methane","price":4.999,"self":false,"updatedAt":"23/06/2026 23:28:07"}]},{"id":"27092","lat":44.57038635786136,"lon":10.826811481323261,"name":"AREASERVIZIO IP CT SRL","brand":"Api-Ip","address":"via modena sassuolo km17 latosx direzione modena  41043, FORMIGINE, MO","prices":[{"type":"petrol","price":1.809,"self":true,"updatedAt":"22/06/2026 14:59:44"},{"type":"diesel","price":1.899,"self":true,"updatedAt":"22/06/2026 14:59:44"},{"type":"methane","price":1.399,"self":false,"updatedAt":"22/06/2026 14:59:44"},{"type":"lpg","price":0.789,"self":false,"updatedAt":"22/06/2026 14:59:44"}]},{"id":"35298","lat":44.569199289361514,"lon":10.816616847429714,"name":"CARBURANTI PINELLI DI PINELLI ONESTO & C S.N.C.","brand":"Pompe Bianche","address":"VIA RADICI IN PIANO 5 41043, FORMIGINE, MO","prices":[{"type":"petrol","price":1.839,"self":true,"updatedAt":"21/06/2026 06:06:21"},{"type":"diesel","price":1.939,"self":true,"updatedAt":"21/06/2026 06:06:21"}]},{"id":"43064","lat":44.56003191111599,"lon":10.853201457672185,"name":"CIS NORD - FORMIGINE","brand":"Ego","address":"VIA GIARDINI SUD 133 41043, FORMIGINE, MO","prices":[{"type":"petrol","price":1.799,"self":true,"updatedAt":"23/06/2026 22:03:23"},{"type":"diesel","price":1.879,"self":true,"updatedAt":"23/06/2026 22:03:22"},{"type":"lpg","price":0.769,"self":false,"updatedAt":"23/06/2026 17:01:21"}]},{"id":"51604","lat":44.59803545190748,"lon":10.80859910909353,"name":"ENI MAGRETA","brand":"Agip Eni","address":"VIA DON FRANCHINI  226 41043, FORMIGINE, MO","prices":[{"type":"petrol","price":1.789,"self":true,"updatedAt":"23/06/2026 23:27:08"},{"type":"diesel","price":1.864,"self":true,"updatedAt":"23/06/2026 23:27:08"}]},{"id":"39694","lat":44.576667629573016,"lon":10.848730131983757,"name":"ENI STATION MONTANARI","brand":"Agip Eni","address":"VIA GIARDINI SUD 36 41043, FORMIGINE, MO","prices":[{"type":"petrol","price":1.829,"self":true,"updatedAt":"23/06/2026 23:49:29"},{"type":"diesel","price":1.929,"self":true,"updatedAt":"23/06/2026 23:49:29"}]},{"id":"15568","lat":44.55224771904437,"lon":10.901795625686646,"name":"IP FORMIGINE","brand":"Api-Ip","address":"12 dell'Abetone e del Brennero, Km. 167, abetone -, FORMIGINE, MO","prices":[{"type":"petrol","price":1.839,"self":true,"updatedAt":"22/06/2026 07:57:51"},{"type":"diesel","price":1.949,"self":true,"updatedAt":"22/06/2026 07:57:51"}]},{"id":"35858","lat":44.5919979280997,"lon":10.855659618973732,"name":"wash car","brand":"Api-Ip","address":"via giardini nord 270 41043, FORMIGINE, MO","prices":[{"type":"petrol","price":1.799,"self":true,"updatedAt":"14/05/2026 17:20:51"},{"type":"diesel","price":2.169,"self":true,"updatedAt":"14/05/2026 17:20:51"}]},{"id":"57835","lat":44.53577519709641,"lon":10.863074523282032,"name":"106775 MARANELLO","brand":"Esso","address":"ABETONE INFERIORE 36 41053, MARANELLO, MO","prices":[{"type":"petrol","price":1.789,"self":true,"updatedAt":"24/06/2026 07:36:35"},{"type":"diesel","price":1.869,"self":true,"updatedAt":"24/06/2026 07:36:35"}]},{"id":"54878","lat":44.530838,"lon":10.864828,"name":"56381 Maranello","brand":"Agip Eni","address":"Via Abetone Inferiore 2  41053, MARANELLO, MO","prices":[{"type":"petrol","price":1.789,"self":true,"updatedAt":"24/06/2026 00:35:42"},{"type":"diesel","price":1.854,"self":true,"updatedAt":"24/06/2026 07:56:42"}]},{"id":"57054","lat":44.53159,"lon":10.888719,"name":"6357 MARANELLO","brand":"Agip Eni","address":"S.P 467 PEDEMONTANA,  2100  41053, MARANELLO, MO","prices":[{"type":"petrol","price":1.829,"self":true,"updatedAt":"24/06/2026 00:58:49"},{"type":"diesel","price":1.919,"self":true,"updatedAt":"24/06/2026 00:58:49"},{"type":"methane","price":1.471,"self":false,"updatedAt":"24/06/2026 00:26:29"},{"type":"lpg","price":0.827,"self":false,"updatedAt":"24/06/2026 00:26:29"}]},{"id":"37420","lat":44.528169587889906,"lon":10.876574143767357,"name":"eni 1","brand":"Agip Eni","address":"via statale per vignola 52 41053, MARANELLO, MO","prices":[{"type":"petrol","price":1.849,"self":true,"updatedAt":"24/06/2026 00:26:05"},{"type":"diesel","price":1.949,"self":true,"updatedAt":"24/06/2026 00:26:05"}]},{"id":"58966","lat":44.531052101219665,"lon":10.89270830154419,"name":"METANO MARANELLO","brand":"Pompe Bianche","address":"STRADA PEDEMONTANA 2405-2415 41053, MARANELLO, MO","prices":[{"type":"methane","price":1.299,"self":true,"updatedAt":"23/06/2026 08:21:08"}]},{"id":"24442","lat":44.531052101219665,"lon":10.89270830154419,"name":"METANO MARANELLO","brand":"Q8","address":"STRADA PEDEMONTANA 2405-2415 41053, MARANELLO, MO","prices":[{"type":"petrol","price":1.799,"self":true,"updatedAt":"23/06/2026 08:20:58"},{"type":"diesel","price":1.899,"self":true,"updatedAt":"23/06/2026 08:20:58"},{"type":"methane","price":1.499,"self":false,"updatedAt":"23/06/2026 08:20:58"},{"type":"lpg","price":0.799,"self":false,"updatedAt":"23/06/2026 08:20:58"}]},{"id":"28942","lat":44.52554202649047,"lon":10.898397266864777,"name":"Pozza Carburanti","brand":"Esso","address":"VIA PER VIGNOLA 303 41053, MARANELLO, MO","prices":[{"type":"petrol","price":1.849,"self":true,"updatedAt":"22/06/2026 09:44:24"},{"type":"diesel","price":1.899,"self":true,"updatedAt":"22/06/2026 09:44:24"}]},{"id":"39880","lat":44.65413631790768,"lon":10.908897137434451,"name":"06204","brand":"Agip Eni","address":"via Emilia Ovest 374  41123, MODENA, MO","prices":[{"type":"petrol","price":1.829,"self":true,"updatedAt":"24/06/2026 00:57:58"},{"type":"diesel","price":1.919,"self":true,"updatedAt":"24/06/2026 00:57:58"}]},{"id":"56332","lat":44.57649020016573,"lon":10.981248484658876,"name":"106773 MODENA S. DONNINO","brand":"Esso","address":"VIGNOLESE 1601 41124, MODENA, MO","prices":[{"type":"petrol","price":1.899,"self":true,"updatedAt":"22/06/2026 07:45:05"},{"type":"diesel","price":1.979,"self":true,"updatedAt":"22/06/2026 07:45:05"}]},{"id":"56459","lat":44.68160153822885,"lon":10.880772457671783,"name":"108962 MODENA CAMPOGALLIANO","brand":"Esso","address":"PROV. PER CAMPOGALLIANO 158 41124, MODENA, MO","prices":[{"type":"petrol","price":1.779,"self":true,"updatedAt":"23/06/2026 09:17:12"},{"type":"diesel","price":1.879,"self":true,"updatedAt":"23/06/2026 09:17:12"}]},{"id":"35145","lat":44.63156897369263,"lon":10.940694361925125,"name":"1316","brand":"Tamoil","address":"VIGNOLESE 611 41125, MODENA, MO","prices":[{"type":"petrol","price":1.779,"self":true,"updatedAt":"24/06/2026 00:37:41"},{"type":"diesel","price":1.869,"self":true,"updatedAt":"24/06/2026 00:37:41"}]},{"id":"37566","lat":44.652860684989534,"lon":10.942852199077606,"name":"2090","brand":"Tamoil","address":"CIRO MENOTTI 386 41122, MODENA, MO","prices":[{"type":"petrol","price":1.799,"self":true,"updatedAt":"23/06/2026 12:30:02"},{"type":"diesel","price":1.899,"self":true,"updatedAt":"23/06/2026 12:30:02"}]},{"id":"34715","lat":44.64166010471149,"lon":10.897204354405403,"name":"2657","brand":"Tamoil","address":"FORMIGINA 230 41126, MODENA, MO","prices":[{"type":"petrol","price":1.759,"self":true,"updatedAt":"24/06/2026 00:14:18"},{"type":"diesel","price":1.859,"self":true,"updatedAt":"24/06/2026 00:14:18"}]},{"id":"58346","lat":44.6218,"lon":10.9529,"name":"57601 MODENA","brand":"Agip Eni","address":"Via Vignolese 1030  41126, MODENA, MO","prices":[{"type":"petrol","price":1.819,"self":true,"updatedAt":"23/06/2026 23:25:44"},{"type":"diesel","price":1.919,"self":true,"updatedAt":"23/06/2026 23:25:44"}]},{"id":"59224","lat":44.634872,"lon":10.903913,"name":"59213 MODENA","brand":"Agip Eni","address":"Via Pietro Giardini 585, MODENA, MO","prices":[{"type":"petrol","price":1.829,"self":true,"updatedAt":"24/06/2026 00:59:09"},{"type":"diesel","price":1.919,"self":true,"updatedAt":"24/06/2026 00:59:09"}]},{"id":"30509","lat":44.63118155013043,"lon":10.96185028553009,"name":"6216 Modena Via Emilia","brand":"Agip Eni","address":"Via Emilia Est 1028 41100, MODENA, MO","prices":[{"type":"petrol","price":1.829,"self":true,"updatedAt":"24/06/2026 00:25:13"},{"type":"diesel","price":1.919,"self":true,"updatedAt":"24/06/2026 00:25:13"}]},{"id":"56171","lat":44.656166,"lon":10.934165,"name":"6259 MODENA CANALETTO","brand":"Agip Eni","address":"Via Canaletto 62 41030, MODENA, MO","prices":[{"type":"petrol","price":1.829,"self":true,"updatedAt":"24/06/2026 00:54:42"},{"type":"diesel","price":1.909,"self":true,"updatedAt":"24/06/2026 07:56:57"},{"type":"methane","price":1.468,"self":false,"updatedAt":"23/06/2026 23:25:15"}]},{"id":"61159","lat":44.66433,"lon":10.888608,"name":"6353 MODENA","brand":"Agip Eni","address":"VIA L.PIRANDELLO -  TANGENZIALE NORD  49/51, MODENA, MO","prices":[{"type":"petrol","price":1.829,"self":true,"updatedAt":"23/06/2026 23:44:35"},{"type":"diesel","price":1.909,"self":true,"updatedAt":"24/06/2026 07:56:27"},{"type":"methane","price":1.468,"self":false,"updatedAt":"23/06/2026 23:44:35"},{"type":"lpg","price":0.777,"self":false,"updatedAt":"23/06/2026 23:44:35"}]},{"id":"57519","lat":44.67994,"lon":10.8945465,"name":"6359 MODENA","brand":"Agip Eni","address":"Str. Nazionale per Carpi Nord 692 41123, MODENA, MO","prices":[{"type":"petrol","price":1.829,"self":true,"updatedAt":"24/06/2026 00:26:51"},{"type":"diesel","price":1.919,"self":true,"updatedAt":"24/06/2026 00:26:51"}]},{"id":"54989","lat":44.65815581486323,"lon":10.958145365142808,"name":"A.F.  PETROLI S.P.A. - NONANTOLANA","brand":"AF Petroli","address":"NONANTOLANA 880 41122, MODENA, MO","prices":[{"type":"petrol","price":1.799,"self":true,"updatedAt":"23/06/2026 21:30:19"},{"type":"diesel","price":1.899,"self":true,"updatedAt":"23/06/2026 21:30:19"}]},{"id":"55166","lat":44.6136666384454,"lon":10.875574350357056,"name":"A.F. PETROLI S.P.A. - BAGGIOVARA","brand":"AF Petroli","address":"PIETRO GIARDINI 1278 41126, MODENA, MO","prices":[{"type":"petrol","price":1.757,"self":true,"updatedAt":"19/06/2026 16:34:51"},{"type":"diesel","price":1.857,"self":true,"updatedAt":"19/06/2026 16:34:51"}]},{"id":"19021","lat":44.66200164541342,"lon":10.97189448773861,"name":"AGIP","brand":"Agip Eni","address":"VIA NONANTOLANA 1070 41122, MODENA, MO","prices":[{"type":"petrol","price":1.829,"self":true,"updatedAt":"23/06/2026 18:45:00"},{"type":"diesel","price":1.919,"self":true,"updatedAt":"23/06/2026 18:45:00"},{"type":"lpg","price":0.739,"self":false,"updatedAt":"23/06/2026 18:45:00"}]},{"id":"52993","lat":44.6445168,"lon":10.8940104,"name":"AREA SERVIZI ENERGIA FUTURA S.R.L. ABBREVIABILE IN: A.S.E.F. S.R.L.","brand":"Pompe Bianche","address":"L. DA VINCI 330 41126, MODENA, MO","prices":[{"type":"petrol","price":1.845,"self":false,"updatedAt":"24/06/2026 00:47:05"},{"type":"diesel","price":1.939,"self":false,"updatedAt":"24/06/2026 00:24:03"},{"type":"methane","price":1.685,"self":false,"updatedAt":"24/06/2026 00:47:05"},{"type":"lpg","price":0.779,"self":false,"updatedAt":"24/06/2026 00:47:05"}]},{"id":"49170","lat":44.63720419397929,"lon":10.955407619476318,"name":"BENZA MODENA","brand":"Benza","address":"via Respighi 71 41122, MODENA, MO","prices":[{"type":"petrol","price":1.799,"self":true,"updatedAt":"23/06/2026 23:52:18"},{"type":"diesel","price":1.899,"self":true,"updatedAt":"23/06/2026 23:52:18"}]},{"id":"45416","lat":44.60644769915782,"lon":10.934094190597534,"name":"BEYFIN","brand":"Beyfin","address":"STRADA BELLARIA 95 41126, MODENA, MO","prices":[{"type":"petrol","price":1.819,"self":true,"updatedAt":"24/06/2026 07:27:30"},{"type":"diesel","price":1.909,"self":true,"updatedAt":"24/06/2026 07:27:30"},{"type":"lpg","price":0.779,"self":false,"updatedAt":"24/06/2026 07:27:30"}]},{"id":"63359","lat":44.63463700894612,"lon":10.927959823873143,"name":"CIS NORD -  VIA GOBETTI","brand":"Ego","address":"Viale P. Gobetti 46 41124, MODENA, MO","prices":[{"type":"petrol","price":1.799,"self":true,"updatedAt":"23/06/2026 18:23:28"},{"type":"diesel","price":1.959,"self":true,"updatedAt":"23/06/2026 18:23:28"}]},{"id":"14384","lat":44.622009149713875,"lon":10.927174687385559,"name":"CIS NORD - LA ROTONDA","brand":"Ego","address":"VIA MORANE 500/49 41125, MODENA, MO","prices":[{"type":"petrol","price":1.759,"self":true,"updatedAt":"23/06/2026 11:16:00"},{"type":"diesel","price":1.859,"self":true,"updatedAt":"23/06/2026 22:02:47"}]},{"id":"55301","lat":44.65685,"lon":10.88177,"name":"COIL MODENA","brand":"COIL","address":"Via Emilia Ovest 842  41123, MODENA, MO","prices":[{"type":"petrol","price":1.799,"self":true,"updatedAt":"23/06/2026 10:20:10"},{"type":"diesel","price":1.899,"self":true,"updatedAt":"23/06/2026 10:20:10"},{"type":"methane","price":1.467,"self":false,"updatedAt":"23/06/2026 23:52:53"},{"type":"lpg","price":0.757,"self":false,"updatedAt":"23/06/2026 23:52:53"}]},{"id":"16836","lat":44.681851196906344,"lon":10.93756154179573,"name":"effe uno sas","brand":"Esso","address":"NAZIONALE DEL CANALETTO 678 41122, MODENA, MO","prices":[{"type":"petrol","price":1.839,"self":true,"updatedAt":"23/06/2026 08:42:12"},{"type":"diesel","price":1.899,"self":true,"updatedAt":"23/06/2026 08:42:12"},{"type":"methane","price":1.499,"self":false,"updatedAt":"23/06/2026 08:42:12"},{"type":"lpg","price":0.769,"self":false,"updatedAt":"23/06/2026 08:42:12"}]},{"id":"48885","lat":44.646624775191846,"lon":10.94723636011885,"name":"EGO","brand":"Ego","address":"VIA DIVISIONE AQUI 121 41122, MODENA, MO","prices":[{"type":"petrol","price":1.879,"self":true,"updatedAt":"19/06/2026 15:01:46"},{"type":"diesel","price":1.959,"self":true,"updatedAt":"19/06/2026 15:01:46"}]},{"id":"29904","lat":44.62984189912439,"lon":10.96403115047076,"name":"Elp - Modena","brand":"Pompe Bianche","address":"via Pica 11 41126, MODENA, MO","prices":[{"type":"petrol","price":1.839,"self":true,"updatedAt":"23/06/2026 23:55:35"},{"type":"diesel","price":1.939,"self":true,"updatedAt":"23/06/2026 23:55:35"},{"type":"methane","price":1.639,"self":false,"updatedAt":"23/06/2026 23:55:35"},{"type":"lpg","price":0.799,"self":false,"updatedAt":"23/06/2026 23:55:35"}]},{"id":"10797","lat":44.6498633613827,"lon":10.90348646315988,"name":"Emanuele Barbieri","brand":"Q8","address":"Via Autodromo, 150 150 41100, MODENA (MO) 150 41126, MODENA, MO","prices":[{"type":"petrol","price":1.869,"self":true,"updatedAt":"23/06/2026 18:54:24"},{"type":"diesel","price":1.979,"self":true,"updatedAt":"23/06/2026 18:54:24"}]},{"id":"48566","lat":44.6504402296403,"lon":10.851440612268455,"name":"Enercoop Modena Via Ovidio","brand":"Enercoop","address":"VIA OVIDIO 281 41123, MODENA, MO","prices":[{"type":"petrol","price":1.759,"self":true,"updatedAt":"23/06/2026 08:30:59"},{"type":"diesel","price":1.859,"self":true,"updatedAt":"20/06/2026 09:20:46"},{"type":"lpg","price":0.779,"self":false,"updatedAt":"15/06/2026 09:00:51"}]},{"id":"58939","lat":44.6608390426562,"lon":10.931396484375,"name":"ENI","brand":"Agip Eni","address":"Via Pietro Giardini 208  41100, MODENA, MO","prices":[{"type":"petrol","price":1.789,"self":true,"updatedAt":"23/06/2026 23:33:18"},{"type":"diesel","price":1.854,"self":true,"updatedAt":"24/06/2026 07:20:07"}]},{"id":"23625","lat":44.60672055954843,"lon":10.853449425025019,"name":"Eni B & B di Buffagni Carlo & C. S.a.s.","brand":"Agip Eni","address":"S.S. Modena/Sassuolo 1600 41126, MODENA, MO","prices":[{"type":"petrol","price":1.829,"self":true,"updatedAt":"24/06/2026 00:27:12"},{"type":"diesel","price":1.919,"self":true,"updatedAt":"24/06/2026 00:27:12"},{"type":"lpg","price":0.762,"self":false,"updatedAt":"24/06/2026 00:27:12"}]},{"id":"53120","lat":44.6367601294995,"lon":10.90469542563369,"name":"Eni Station 55949","brand":"Agip Eni","address":"GIARDINI 450 41124, MODENA, MO","prices":[{"type":"petrol","price":1.829,"self":true,"updatedAt":"24/06/2026 00:58:59"},{"type":"diesel","price":1.919,"self":true,"updatedAt":"24/06/2026 00:58:59"}]},{"id":"48087","lat":44.71119062920869,"lon":10.961754273073584,"name":"ESSO","brand":"Esso","address":"VIA CANALETO  1061 41122, MODENA, MO","prices":[{"type":"petrol","price":1.859,"self":true,"updatedAt":"23/06/2026 23:43:05"},{"type":"diesel","price":1.939,"self":true,"updatedAt":"23/06/2026 23:43:05"},{"type":"lpg","price":0.799,"self":false,"updatedAt":"23/06/2026 23:43:05"}]},{"id":"8923","lat":44.68813917035347,"lon":10.964259579777718,"name":"esso","brand":"Esso","address":"STRADA ALBARETO 599 41122, MODENA, MO","prices":[{"type":"petrol","price":1.829,"self":true,"updatedAt":"22/06/2026 09:41:13"},{"type":"diesel","price":1.899,"self":true,"updatedAt":"22/06/2026 09:41:13"}]},{"id":"63135","lat":44.5763577,"lon":10.9813727,"name":"ESSO - MODENA","brand":"Esso","address":"Str. Vignolese 1601  41010, MODENA, MO","prices":[{"type":"petrol","price":1.779,"self":true,"updatedAt":"23/06/2026 08:41:26"},{"type":"diesel","price":1.859,"self":true,"updatedAt":"23/06/2026 08:41:26"}]},{"id":"59609","lat":44.6587746,"lon":10.8940345,"name":"ESSO MODENA OVEST","brand":"Esso","address":"Via Emilia Ovest 656  41123, MODENA, MO","prices":[{"type":"petrol","price":1.789,"self":true,"updatedAt":"23/06/2026 22:16:50"},{"type":"diesel","price":1.879,"self":true,"updatedAt":"23/06/2026 22:16:50"}]},{"id":"50214","lat":44.62511513314275,"lon":10.91745640135029,"name":"ESSO ONE STOP","brand":"Esso","address":"via salvo d'aquisto  100 41125, MODENA, MO","prices":[{"type":"petrol","price":1.799,"self":true,"updatedAt":"22/06/2026 09:53:55"},{"type":"diesel","price":1.889,"self":true,"updatedAt":"22/06/2026 09:53:55"},{"type":"lpg","price":0.769,"self":true,"updatedAt":"22/06/2026 09:53:55"}]},{"id":"23025","lat":44.66784908216163,"lon":10.93820069723995,"name":"EUROCAP PETROLI SPA Via Francia,5  MODENA","brand":"Eurocap Petroli","address":"Via Francia 5 41122, MODENA, MO","prices":[{"type":"petrol","price":1.789,"self":true,"updatedAt":"21/06/2026 22:08:51"},{"type":"diesel","price":1.889,"self":true,"updatedAt":"21/06/2026 22:08:51"}]},{"id":"59782","lat":44.6706319,"lon":10.8991805,"name":"EUROPAM - MODENA","brand":"Europam","address":"Str. Nazionale per Carpi Centro 427 41123, MODENA, MO","prices":[{"type":"petrol","price":1.777,"self":true,"updatedAt":"22/06/2026 16:29:28"},{"type":"diesel","price":1.877,"self":true,"updatedAt":"22/06/2026 16:29:28"}]},{"id":"36132","lat":44.63654061828721,"lon":10.921586763229357,"name":"FINTA FLAVIUS SORIN","brand":"Agip Eni","address":"BUON PASTORE 187 41125, MODENA, MO","prices":[{"type":"petrol","price":1.849,"self":false,"updatedAt":"23/06/2026 23:44:05"},{"type":"diesel","price":1.949,"self":false,"updatedAt":"24/06/2026 07:14:04"}]},{"id":"56568","lat":44.62663351877246,"lon":10.973013639450073,"name":"Fossalta","brand":"Esso","address":"EMILIA EST 1250 41126, MODENA, MO","prices":[{"type":"petrol","price":1.929,"self":true,"updatedAt":"02/05/2026 07:39:06"},{"type":"diesel","price":2.089,"self":true,"updatedAt":"28/04/2026 17:27:05"}]},{"id":"62160","lat":44.702618666666666,"lon":10.895396666666667,"name":"Fuel Point","brand":"Pompe Bianche","address":"NAZIONALE CARPI NORD 1423 41123, MODENA, MO","prices":[{"type":"petrol","price":1.859,"self":true,"updatedAt":"23/06/2026 00:38:46"},{"type":"diesel","price":1.959,"self":true,"updatedAt":"23/06/2026 00:38:46"},{"type":"lpg","price":0.769,"self":false,"updatedAt":"24/06/2026 07:38:17"}]},{"id":"34779","lat":44.60755714996136,"lon":10.911726504564285,"name":"GRAZI PETROLI","brand":"Grazi Petroli","address":"COMPLANARE LUIGI EINAUDI 800 41126, MODENA, MO","prices":[{"type":"petrol","price":1.799,"self":true,"updatedAt":"23/06/2026 21:08:05"},{"type":"diesel","price":1.898,"self":true,"updatedAt":"23/06/2026 21:08:05"},{"type":"lpg","price":0.659,"self":false,"updatedAt":"23/06/2026 23:36:11"}]},{"id":"34776","lat":44.61600745853592,"lon":10.883417129516602,"name":"GRAZI PETROLI","brand":"Grazi Petroli","address":"VIA GIARDINI 1171 41126, MODENA, MO","prices":[{"type":"petrol","price":1.799,"self":true,"updatedAt":"24/06/2026 01:05:32"},{"type":"diesel","price":1.899,"self":true,"updatedAt":"24/06/2026 01:05:32"},{"type":"methane","price":1.499,"self":false,"updatedAt":"23/06/2026 23:36:36"},{"type":"lpg","price":0.769,"self":false,"updatedAt":"24/06/2026 07:18:10"}]},{"id":"54384","lat":44.63601,"lon":10.9515,"name":"Ip Autobrilla","brand":"Api-Ip","address":"EMILIA EST 821 41013, MODENA, MO","prices":[{"type":"petrol","price":1.809,"self":true,"updatedAt":"19/06/2026 05:41:13"},{"type":"diesel","price":1.894,"self":true,"updatedAt":"19/06/2026 05:41:13"}]},{"id":"57840","lat":44.63356,"lon":10.91405,"name":"IP Via Amendola Modena","brand":"Api-Ip","address":"GIOVANNI AMENDOLA 431 41125, MODENA, MO","prices":[{"type":"petrol","price":1.759,"self":true,"updatedAt":"23/06/2026 17:22:10"},{"type":"diesel","price":1.859,"self":true,"updatedAt":"23/06/2026 17:28:01"}]},{"id":"41264","lat":44.64263464364794,"lon":10.941411841139256,"name":"IP VIA BONACINI","brand":"Api-Ip","address":"VIA BONACINI 94 41121, MODENA, MO","prices":[{"type":"petrol","price":1.809,"self":true,"updatedAt":"22/06/2026 09:27:00"},{"type":"diesel","price":1.894,"self":true,"updatedAt":"22/06/2026 09:27:00"}]},{"id":"35334","lat":44.65293915572496,"lon":10.9114995226264,"name":"IP VIA EMILIA OVEST","brand":"Api-Ip","address":"VIA EMILIA OVEST 314 41123, MODENA, MO","prices":[{"type":"petrol","price":1.809,"self":true,"updatedAt":"22/06/2026 09:26:42"},{"type":"diesel","price":1.919,"self":true,"updatedAt":"22/06/2026 09:26:42"}]},{"id":"10431","lat":44.633135842485046,"lon":10.913093773541277,"name":"KUWAIT","brand":"Q8","address":"AMENDOLA 408 41125, MODENA, MO","prices":[{"type":"petrol","price":1.839,"self":true,"updatedAt":"18/06/2026 07:40:07"},{"type":"diesel","price":1.9,"self":true,"updatedAt":"18/06/2026 07:40:07"}]},{"id":"30964","lat":44.65138167943351,"lon":10.959688425064087,"name":"MALAVOLTI","brand":"Agip Eni","address":"MALAVOLTI 1 41122, MODENA, MO","prices":[{"type":"petrol","price":1.824,"self":true,"updatedAt":"20/06/2026 11:49:45"},{"type":"diesel","price":1.914,"self":true,"updatedAt":"20/06/2026 11:49:45"},{"type":"lpg","price":0.769,"self":false,"updatedAt":"20/06/2026 11:49:45"}]},{"id":"50642","lat":44.63064935108529,"lon":10.95508480009775,"name":"modena","brand":"Esso","address":"VIA NUOVA ESTENSE 101 41126, MODENA, MO","prices":[{"type":"petrol","price":1.779,"self":true,"updatedAt":"24/06/2026 06:35:30"},{"type":"diesel","price":1.929,"self":true,"updatedAt":"24/06/2026 06:35:30"}]},{"id":"23716","lat":44.63846675864469,"lon":10.905767525131296,"name":"Modena","brand":"Api-Ip","address":"Via Pietro Giardini 430 41126, MODENA, MO","prices":[{"type":"petrol","price":1.749,"self":true,"updatedAt":"23/06/2026 17:08:59"},{"type":"diesel","price":1.859,"self":true,"updatedAt":"23/06/2026 09:17:37"}]},{"id":"32669","lat":44.65865516498597,"lon":10.89519597668641,"name":"MODENA - MADONNINA","brand":"Api-Ip","address":"VIA EMILIA OVEST 642 41100, MODENA, MO","prices":[{"type":"petrol","price":1.759,"self":true,"updatedAt":"23/06/2026 19:00:56"},{"type":"diesel","price":1.859,"self":true,"updatedAt":"23/06/2026 19:00:56"}]},{"id":"7278","lat":44.663845953540374,"lon":10.889363698425313,"name":"MODENA - TANGENZIALE BARCHETTA SUD","brand":"Q8","address":"TANGENZIALE BARCHETTA SUD SN 41123, MODENA, MO","prices":[{"type":"petrol","price":1.829,"self":true,"updatedAt":"20/06/2026 08:14:20"},{"type":"diesel","price":1.919,"self":true,"updatedAt":"20/06/2026 08:14:20"},{"type":"lpg","price":0.759,"self":false,"updatedAt":"20/06/2026 08:14:20"}]},{"id":"28104","lat":44.62724390487652,"lon":10.947204606151558,"name":"MODENA - VIGNOLESE 888","brand":"Api-Ip","address":"MODENA - STRADA VIGNOLESE 888 41100, MODENA, MO","prices":[{"type":"petrol","price":1.749,"self":true,"updatedAt":"23/06/2026 17:01:09"},{"type":"diesel","price":1.859,"self":true,"updatedAt":"23/06/2026 09:01:44"}]},{"id":"6532","lat":44.60631945732274,"lon":10.853898582803367,"name":"MODENA MO/SASSUOLO 1601 LOC BAGGIOVAR","brand":"Q8","address":"MO/SASSUOLO 1601 LOC BAGGIOVAR SNC 41100, MODENA, MO","prices":[{"type":"petrol","price":1.799,"self":true,"updatedAt":"24/06/2026 01:41:35"},{"type":"diesel","price":1.889,"self":true,"updatedAt":"24/06/2026 01:41:35"},{"type":"methane","price":1.399,"self":false,"updatedAt":"24/06/2026 01:41:35"}]},{"id":"6533","lat":44.628684762154954,"lon":10.926729767459165,"name":"MODENA VIA DELLE MORANE 338","brand":"Q8","address":"VIA DELLE MORANE 338 41100, MODENA, MO","prices":[{"type":"petrol","price":1.779,"self":true,"updatedAt":"24/06/2026 07:49:54"},{"type":"diesel","price":1.859,"self":true,"updatedAt":"24/06/2026 07:49:54"}]},{"id":"6530","lat":44.634213681880865,"lon":10.936130892590313,"name":"MODENA VIA VIGNOLESE 386","brand":"Q8","address":"VIA VIGNOLESE 386 41100, MODENA, MO","prices":[{"type":"petrol","price":1.749,"self":true,"updatedAt":"23/06/2026 01:39:57"},{"type":"diesel","price":1.864,"self":true,"updatedAt":"23/06/2026 01:39:57"}]},{"id":"11721","lat":44.61523054883974,"lon":10.916531020832053,"name":"MODENA-VIA CONTRADA 286","brand":"Q8","address":"VIA CONTRADA 286 41126, MODENA, MO","prices":[{"type":"petrol","price":1.789,"self":true,"updatedAt":"24/06/2026 07:49:56"},{"type":"diesel","price":1.869,"self":true,"updatedAt":"24/06/2026 07:49:56"}]},{"id":"11720","lat":44.630228316042924,"lon":10.964385015869084,"name":"MODENA-VIA EMILIA EST.1050","brand":"Q8","address":"VIA EMILIA EST 1050 41126, MODENA, MO","prices":[{"type":"petrol","price":1.839,"self":true,"updatedAt":"22/06/2026 11:08:28"},{"type":"diesel","price":1.939,"self":true,"updatedAt":"22/06/2026 11:08:28"}]},{"id":"10715","lat":44.666739191838744,"lon":10.921456217765808,"name":"MOTORCENTER","brand":"Api-Ip","address":"Viale A. LA MARMORA  157/159 41122, MODENA, MO","prices":[{"type":"petrol","price":1.819,"self":true,"updatedAt":"23/06/2026 23:36:21"},{"type":"diesel","price":1.929,"self":true,"updatedAt":"23/06/2026 23:36:21"}]},{"id":"63005","lat":44.6509615344783,"lon":10.915539089207478,"name":"NEW RETE MODENA EMILIA OVEST","brand":"Esso","address":"Via Emilia Ovest 178, MODENA, MO","prices":[{"type":"petrol","price":1.849,"self":true,"updatedAt":"23/06/2026 09:54:05"},{"type":"diesel","price":1.929,"self":true,"updatedAt":"23/06/2026 09:54:05"}]},{"id":"63002","lat":44.62667590475061,"lon":10.973001728263835,"name":"NEW RETE MODENA FOSSALTA","brand":"Esso","address":"Via Emilia Est 1250, MODENA, MO","prices":[{"type":"petrol","price":1.819,"self":true,"updatedAt":"23/06/2026 09:45:06"},{"type":"diesel","price":1.889,"self":true,"updatedAt":"23/06/2026 09:45:06"}]},{"id":"25129","lat":44.633949593147584,"lon":10.936519503593445,"name":"PV 6263","brand":"Agip Eni","address":"VIA VIGNOLESE 394 41124, MODENA, MO","prices":[{"type":"petrol","price":1.789,"self":true,"updatedAt":"23/06/2026 23:36:54"},{"type":"diesel","price":1.844,"self":true,"updatedAt":"24/06/2026 06:08:12"}]},{"id":"25034","lat":44.607504279497604,"lon":10.909295082092285,"name":"PV 6369","brand":"Agip Eni","address":"COMPLANARE LUIGI EINAUDI 895, 41126, MODENA, MO","prices":[{"type":"petrol","price":1.789,"self":true,"updatedAt":"23/06/2026 23:28:12"},{"type":"diesel","price":1.844,"self":true,"updatedAt":"24/06/2026 06:10:18"}]},{"id":"45430","lat":44.599892000123,"lon":10.969414000123,"name":"SAN DAMASO","brand":"Ego","address":"STRADA VIGNOLESE 1375 41126, MODENA (MO) 1375 41010, MODENA, MO","prices":[{"type":"petrol","price":1.779,"self":true,"updatedAt":"22/06/2026 18:29:17"},{"type":"diesel","price":1.859,"self":true,"updatedAt":"22/06/2026 18:29:17"},{"type":"lpg","price":0.779,"self":false,"updatedAt":"22/06/2026 18:29:17"}]},{"id":"3612","lat":44.66303576136936,"lon":10.856468809509124,"name":"SECCHIA EST","brand":"Q8","address":"Autostrada A1 MILANO-NAPOLI, Km. 156+500, dir. Nord - 41010, MODENA, MO","prices":[{"type":"petrol","price":1.889,"self":true,"updatedAt":"20/06/2026 08:00:14"},{"type":"diesel","price":1.924,"self":true,"updatedAt":"20/06/2026 08:00:13"},{"type":"lpg","price":0.854,"self":false,"updatedAt":"20/06/2026 08:00:13"}]},{"id":"3553","lat":44.6621,"lon":10.8555,"name":"SECCHIA OVEST","brand":"Esso","address":"Autostrada A1 MILANO-NAPOLI, Km. 156+500, dir. Sud - 41100, MODENA, MO","prices":[{"type":"petrol","price":1.972,"self":true,"updatedAt":"23/06/2026 18:00:14"},{"type":"diesel","price":2.092,"self":true,"updatedAt":"23/06/2026 18:00:14"},{"type":"lpg","price":0.912,"self":false,"updatedAt":"23/06/2026 18:00:12"}]},{"id":"5303","lat":44.620830294064106,"lon":10.95330500118871,"name":"SUPER GAS SRL","brand":"Agip Eni","address":"VIA COLLEGAROLA 215 41126, MODENA, MO","prices":[{"type":"methane","price":1.639,"self":false,"updatedAt":"22/06/2026 11:33:08"}]},{"id":"22491","lat":44.6372170854665,"lon":10.969539222753838,"name":"TAMOIL","brand":"Tamoil","address":"V.INDIPENDENZA 21, 41122 - -, MODENA, MO","prices":[{"type":"petrol","price":1.839,"self":true,"updatedAt":"23/06/2026 14:04:47"},{"type":"diesel","price":1.919,"self":true,"updatedAt":"23/06/2026 14:04:47"}]},{"id":"39474","lat":44.618494810580515,"lon":10.955740213394165,"name":"Tedeschini Gino srl","brand":"Pompe Bianche","address":"Via Vignolese 1053, piano terra 1053 41126, MODENA, MO","prices":[{"type":"petrol","price":1.799,"self":true,"updatedAt":"19/06/2026 19:23:25"},{"type":"diesel","price":1.899,"self":true,"updatedAt":"19/06/2026 19:23:25"}]},{"id":"51339","lat":44.65732858104873,"lon":10.931970477104187,"name":"TEDOIL","brand":"Pompe Bianche","address":"CANALETTO SUD 104 41122, MODENA, MO","prices":[{"type":"petrol","price":1.769,"self":true,"updatedAt":"23/06/2026 09:22:49"},{"type":"diesel","price":1.859,"self":true,"updatedAt":"23/06/2026 09:22:49"}]},{"id":"22424","lat":44.651052528987265,"lon":10.915611684322357,"name":"Via Emilia Ovest","brand":"Esso","address":"VIA EMILIA OVEST 178/D 41121, MODENA, MO","prices":[{"type":"petrol","price":1.979,"self":true,"updatedAt":"04/05/2026 19:06:28"},{"type":"diesel","price":2.069,"self":true,"updatedAt":"04/05/2026 19:06:28"}]},{"id":"62425","lat":44.60490069999999,"lon":10.8674259,"name":"Vinile srl","brand":"CONAD","address":"Via Pietro Giardini 1370  41126, MODENA, MO","prices":[{"type":"petrol","price":1.739,"self":true,"updatedAt":"24/06/2026 07:45:16"},{"type":"diesel","price":1.849,"self":true,"updatedAt":"24/06/2026 07:45:16"}]},{"id":"14165","lat":44.65416951867737,"lon":10.957007933065825,"name":"VV","brand":"EnerFuel","address":"VIA PAPA GIOVANNI XXIII 36/A 41122, MODENA, MO","prices":[{"type":"petrol","price":1.799,"self":true,"updatedAt":"24/06/2026 00:26:13"},{"type":"diesel","price":1.899,"self":true,"updatedAt":"24/06/2026 00:26:13"},{"type":"methane","price":1.639,"self":false,"updatedAt":"24/06/2026 00:26:13"},{"type":"lpg","price":0.769,"self":false,"updatedAt":"24/06/2026 00:26:13"}]},{"id":"49212","lat":44.53975979050561,"lon":10.787704899462693,"name":"3372","brand":"NextMobilitaFutura","address":"Via Giuseppe Mazzini  140 41049, SASSUOLO, MO","prices":[{"type":"petrol","price":1.809,"self":true,"updatedAt":"24/06/2026 00:39:28"},{"type":"diesel","price":1.909,"self":true,"updatedAt":"24/06/2026 00:39:28"}]},{"id":"51458","lat":44.54772579948091,"lon":10.787287093283105,"name":"6244 SASSUOLO","brand":"Agip Eni","address":"Via DELLE RADICI IN PIANO  41049, SASSUOLO, MO","prices":[{"type":"petrol","price":1.829,"self":true,"updatedAt":"24/06/2026 00:14:44"},{"type":"diesel","price":1.909,"self":true,"updatedAt":"24/06/2026 07:44:16"}]},{"id":"60732","lat":44.5389,"lon":10.792762,"name":"6264 SASSUOLO","brand":"Agip Eni","address":"VIA G MAZZINI,  220, SASSUOLO, MO","prices":[{"type":"petrol","price":1.829,"self":true,"updatedAt":"24/06/2026 00:00:58"},{"type":"diesel","price":1.909,"self":true,"updatedAt":"24/06/2026 07:46:08"}]},{"id":"35723","lat":44.54791857089854,"lon":10.772634845299535,"name":"ener fuel","brand":"EnerFuel","address":"RADICI IN MONTE 271 41049, SASSUOLO, MO","prices":[{"type":"petrol","price":1.799,"self":true,"updatedAt":"24/06/2026 00:54:37"},{"type":"diesel","price":1.899,"self":true,"updatedAt":"24/06/2026 00:54:37"},{"type":"lpg","price":0.769,"self":false,"updatedAt":"24/06/2026 00:26:00"}]},{"id":"57885","lat":44.53218785827042,"lon":10.775990635156631,"name":"IP","brand":"Api-Ip","address":"MONTANARA 67 41049, SASSUOLO, MO","prices":[{"type":"petrol","price":1.859,"self":true,"updatedAt":"23/06/2026 06:59:45"},{"type":"diesel","price":1.949,"self":true,"updatedAt":"23/06/2026 06:59:45"}]},{"id":"5064","lat":44.58503684991336,"lon":10.789778530597687,"name":"ME-TRA spa","brand":"Pompe Bianche","address":"VIA ANCORA 500/502 41049, SASSUOLO, MO","prices":[{"type":"petrol","price":1.799,"self":true,"updatedAt":"23/06/2026 08:51:39"},{"type":"diesel","price":1.899,"self":true,"updatedAt":"23/06/2026 08:51:39"},{"type":"methane","price":1.449,"self":false,"updatedAt":"23/06/2026 08:51:39"}]},{"id":"63010","lat":44.53213661929153,"lon":10.776102997969804,"name":"NEW RETE SASSUOLO MONTANARA","brand":"Ego","address":"Via Montanara 40 41049, SASSUOLO, MO","prices":[{"type":"petrol","price":1.919,"self":true,"updatedAt":"23/06/2026 11:01:03"},{"type":"diesel","price":1.989,"self":true,"updatedAt":"23/06/2026 11:01:03"}]},{"id":"58997","lat":44.54195,"lon":10.80386,"name":"pv 6290 Sassuolo","brand":"Agip Eni","address":"CAVALLOTTI 210 41049, SASSUOLO, MO","prices":[{"type":"petrol","price":1.789,"self":true,"updatedAt":"23/06/2026 23:22:57"},{"type":"diesel","price":1.854,"self":true,"updatedAt":"24/06/2026 06:09:22"}]},{"id":"57939","lat":44.532041778966494,"lon":10.775978565216064,"name":"Sassuolo","brand":"Ego","address":"Via Montanara 40  41049, SASSUOLO, MO","prices":[{"type":"petrol","price":2.079,"self":true,"updatedAt":"25/05/2026 16:31:08"},{"type":"diesel","price":2.099,"self":true,"updatedAt":"25/05/2026 16:31:07"}]},{"id":"6528","lat":44.55965247510212,"lon":10.801891386508942,"name":"SASSUOLO RADICI IN PIANO","brand":"Q8","address":"RADICI IN PIANO SNC 41049, SASSUOLO, MO","prices":[{"type":"petrol","price":1.799,"self":true,"updatedAt":"22/06/2026 13:04:53"},{"type":"diesel","price":1.899,"self":true,"updatedAt":"22/06/2026 13:04:53"},{"type":"methane","price":1.399,"self":false,"updatedAt":"22/06/2026 13:04:53"},{"type":"lpg","price":0.769,"self":false,"updatedAt":"22/06/2026 13:04:53"}]},{"id":"35756","lat":44.545614881581784,"lon":10.796636939048767,"name":"STAZIONE EGO","brand":"Ego","address":"VIA CIRCONVALLAZIONE NORD EST 55 41049, SASSUOLO, MO","prices":[{"type":"petrol","price":1.849,"self":true,"updatedAt":"23/06/2026 11:52:33"},{"type":"diesel","price":1.939,"self":true,"updatedAt":"23/06/2026 11:52:33"}]},{"id":"15555","lat":44.545479037760934,"lon":10.780199285913795,"name":"TORELLI ANSELMO PAOLO SNC","brand":"Agip Eni","address":"VIA PIA 174 41049, SASSUOLO, MO","prices":[{"type":"petrol","price":1.824,"self":true,"updatedAt":"24/06/2026 00:25:45"},{"type":"diesel","price":1.904,"self":true,"updatedAt":"24/06/2026 06:46:03"}]},{"id":"49190","lat":44.73664917962752,"lon":10.92404012901509,"name":"CODELUPPI CARBURANTI DI CODELUPPI GIANNI","brand":"Esso","address":"VIA ROMA 87 41019, SOLIERA, MO","prices":[{"type":"petrol","price":1.929,"self":true,"updatedAt":"20/06/2026 07:17:18"},{"type":"diesel","price":1.989,"self":true,"updatedAt":"20/06/2026 07:17:18"}]},{"id":"46253","lat":44.73730883490803,"lon":10.924317884306447,"name":"SHINI CAR DI RUOTOLO AMELIA","brand":"Eurocap Petroli","address":"VIA ROMA 51 41019, SOLIERA (MO) 51 41019, SOLIERA, MO","prices":[{"type":"petrol","price":1.899,"self":true,"updatedAt":"19/06/2026 09:49:10"},{"type":"diesel","price":1.969,"self":true,"updatedAt":"19/06/2026 09:49:10"}]},{"id":"34027","lat":44.72808321118727,"lon":10.899197906255722,"name":"Soliera - S.S. ROMANA 413 KM 56+068","brand":"Q8","address":"S.S. ROMANA 413 KM 56+068  41019, SOLIERA, MO","prices":[{"type":"petrol","price":1.799,"self":true,"updatedAt":"24/06/2026 07:49:54"},{"type":"diesel","price":1.939,"self":true,"updatedAt":"24/06/2026 07:49:54"}]},{"id":"38443","lat":44.56726916106125,"lon":10.989131033420563,"name":"Distributore Esso Srl","brand":"Esso","address":"VIA VIA MODENESE 4406 41057, SPILAMBERTO (MO) 4406 41057, SPILAMBERTO, MO","prices":[{"type":"petrol","price":1.879,"self":true,"updatedAt":"23/06/2026 11:07:17"},{"type":"diesel","price":1.929,"self":true,"updatedAt":"23/06/2026 11:07:17"},{"type":"lpg","price":0.759,"self":false,"updatedAt":"23/06/2026 11:07:17"}]},{"id":"46479","lat":44.56464339752259,"lon":10.975198160413129,"name":"IP SAN VITO - SPILAMBERTO","brand":"Api-Ip","address":"SAN VITO - Via Medicine 608 41057, SPILAMBERTO, MO","prices":[{"type":"petrol","price":1.819,"self":true,"updatedAt":"23/06/2026 14:17:02"},{"type":"diesel","price":1.909,"self":true,"updatedAt":"23/06/2026 14:17:00"}]},{"id":"58570","lat":44.591225,"lon":10.76581,"name":"54385  CASALGRANDE","brand":"Agip Eni","address":"LOC. SALVATERRA  VIA S.LORENZO  50/A, CASALGRANDE, RE","prices":[{"type":"petrol","price":1.829,"self":true,"updatedAt":"24/06/2026 00:19:12"},{"type":"diesel","price":1.909,"self":true,"updatedAt":"24/06/2026 07:46:17"}]},{"id":"40149","lat":44.5602020303066,"lon":10.753577274421787,"name":"CIS NORD - SANT'ANTONINO","brand":"Ego","address":"VIA STATALE - Loc. SANT'ANTONINO 133 42013, CASALGRANDE, RE","prices":[{"type":"petrol","price":1.799,"self":true,"updatedAt":"23/06/2026 22:03:20"},{"type":"diesel","price":1.899,"self":true,"updatedAt":"23/06/2026 22:03:20"}]},{"id":"5355","lat":44.55121556920585,"lon":10.768817067146301,"name":"Eurogasenergia","brand":"Pompe Bianche","address":"Strada Provinciale 486R, Km. 13, dir. sud  42013, CASALGRANDE, RE","prices":[{"type":"petrol","price":1.839,"self":true,"updatedAt":"24/06/2026 00:11:38"},{"type":"diesel","price":1.909,"self":true,"updatedAt":"24/06/2026 00:11:38"},{"type":"methane","price":1.5,"self":false,"updatedAt":"24/06/2026 00:56:52"},{"type":"lpg","price":0.799,"self":false,"updatedAt":"24/06/2026 00:56:52"}]},{"id":"10468","lat":44.550369957322495,"lon":10.768522024154663,"name":"europe station center","brand":"Agip Eni","address":"via f. turati 72 42010, CASALGRANDE, RE","prices":[{"type":"petrol","price":1.859,"self":false,"updatedAt":"24/06/2026 00:29:21"},{"type":"diesel","price":1.964,"self":false,"updatedAt":"24/06/2026 00:29:21"}]},{"id":"13590","lat":44.60207035947007,"lon":10.778301358222961,"name":"IP DI F.LLI IBATICI","brand":"Api-Ip","address":"VIA CIRCONVALLAZIONE 10/12 42013, CASALGRANDE, RE","prices":[{"type":"petrol","price":1.809,"self":true,"updatedAt":"23/06/2026 10:34:42"},{"type":"diesel","price":1.909,"self":true,"updatedAt":"23/06/2026 10:34:42"},{"type":"methane","price":1.499,"self":false,"updatedAt":"23/06/2026 10:34:42"},{"type":"lpg","price":0.779,"self":false,"updatedAt":"23/06/2026 10:34:42"}]},{"id":"56998","lat":44.60152964255547,"lon":10.7654153791034,"name":"KEROPETROL SPA SALVATERRA","brand":"KEROPETROL","address":"Via L. Reverberi 24 42013, CASALGRANDE, RE","prices":[{"type":"petrol","price":1.899,"self":true,"updatedAt":"19/06/2026 17:00:03"},{"type":"diesel","price":1.999,"self":true,"updatedAt":"19/06/2026 17:00:03"}]},{"id":"62060","lat":44.5951009,"lon":10.774911,"name":"pv 16466","brand":"Agip Eni","address":"CIRCONVALLAZIONE 1-3 42013, CASALGRANDE, RE","prices":[{"type":"petrol","price":1.809,"self":true,"updatedAt":"24/06/2026 00:42:00"},{"type":"diesel","price":1.909,"self":true,"updatedAt":"24/06/2026 06:10:19"},{"type":"methane","price":1.546,"self":false,"updatedAt":"24/06/2026 00:42:00"},{"type":"lpg","price":0.747,"self":false,"updatedAt":"24/06/2026 00:42:00"}]},{"id":"53852","lat":44.740181674177535,"lon":10.784305348626727,"name":"Stazione Carburanti Ego Fazzano","brand":"Ego","address":"MODENA 76 42015, CORREGGIO, RE","prices":[{"type":"petrol","price":1.779,"self":true,"updatedAt":"24/06/2026 00:58:36"},{"type":"diesel","price":1.879,"self":true,"updatedAt":"24/06/2026 00:58:36"},{"type":"lpg","price":0.759,"self":false,"updatedAt":"23/06/2026 16:40:11"}]},{"id":"25910","lat":44.6568432048034,"lon":10.756478905677795,"name":"PV 16408","brand":"Agip Eni","address":"VIA CARTESIO  76 42122, REGGIO NELL'EMILIA, RE","prices":[{"type":"petrol","price":1.789,"self":true,"updatedAt":"24/06/2026 00:28:57"},{"type":"diesel","price":1.844,"self":true,"updatedAt":"24/06/2026 06:08:28"}]},{"id":"48962","lat":44.64204982884103,"lon":10.78348091593857,"name":"16448","brand":"Agip Eni","address":"CONTEA (SP 51) 20 42048, RUBIERA, RE","prices":[{"type":"petrol","price":1.829,"self":true,"updatedAt":"24/06/2026 00:59:40"},{"type":"diesel","price":1.909,"self":true,"updatedAt":"24/06/2026 06:08:42"}]},{"id":"24568","lat":44.652382666851175,"lon":10.787616670131683,"name":"Rubiera (RE)","brand":"Api-Ip","address":"Via Matteotti 12/C 42048, RUBIERA, RE","prices":[{"type":"petrol","price":1.759,"self":true,"updatedAt":"23/06/2026 17:09:08"},{"type":"diesel","price":1.859,"self":true,"updatedAt":"23/06/2026 09:17:49"}]},{"id":"48821","lat":44.65417643519631,"lon":10.775597985555118,"name":"STAZIONE DI SERVIZIO ESSO","brand":"Esso","address":"via emilia ovest 23 41012, RUBIERA, RE","prices":[{"type":"petrol","price":1.789,"self":true,"updatedAt":"23/06/2026 22:16:19"},{"type":"diesel","price":1.889,"self":true,"updatedAt":"23/06/2026 22:16:19"}]},{"id":"21653","lat":44.72920654427016,"lon":10.775832384824753,"name":"SAN MARTINO IN RIO VIA PROVINCIALE","brand":"Q8","address":"VIA PROVINCIALE  42015, SAN MARTINO IN RIO, RE","prices":[{"type":"petrol","price":1.779,"self":true,"updatedAt":"20/06/2026 01:39:59"},{"type":"diesel","price":1.879,"self":true,"updatedAt":"20/06/2026 01:39:59"}]}]