[{"id":"49751","lat":44.503592626764515,"lon":9.980539926450632,"name":"IP BERCETO","brand":"Api-Ip","address":"LOC.TA' RIOLO  VIA VOLONTARI SANGUE    43042, BERCETO, PR","prices":[{"type":"petrol","price":1.849,"self":true,"updatedAt":"28/06/2026 23:39:43"},{"type":"diesel","price":1.929,"self":true,"updatedAt":"28/06/2026 23:39:43"}]},{"id":"39679","lat":44.56384514872117,"lon":9.93905559182167,"name":"RONCALLO CARBURANTI","brand":"Agip Eni","address":"VIA S.S.308 KM 20 18 43042, BERCETO, PR","prices":[{"type":"petrol","price":1.867,"self":true,"updatedAt":"28/06/2026 00:59:00"},{"type":"diesel","price":1.904,"self":true,"updatedAt":"29/06/2026 07:12:10"},{"type":"lpg","price":0.819,"self":false,"updatedAt":"28/06/2026 23:47:53"}]},{"id":"56195","lat":44.7177334,"lon":9.791772,"name":"COIL BORE","brand":"COIL","address":"Via Roma 54  43030, BORE, PR","prices":[{"type":"petrol","price":1.999,"self":true,"updatedAt":"29/06/2026 00:45:12"},{"type":"diesel","price":2.257,"self":true,"updatedAt":"29/06/2026 00:45:12"}]},{"id":"55154","lat":44.50446,"lon":9.95618,"name":"EH24 BERCETO","brand":"Pompe Bianche","address":"Località Cattaia 114  43042, PARMA, PR","prices":[{"type":"petrol","price":1.759,"self":true,"updatedAt":"29/06/2026 00:17:21"},{"type":"diesel","price":1.899,"self":true,"updatedAt":"29/06/2026 00:17:21"}]},{"id":"41782","lat":44.68027376173684,"lon":9.924722465206969,"name":"FIOROIL di Fiori Gabriele","brand":"Pompe Bianche","address":"VIA LOC.VIANINO VIA PROVINCIALE 121/A 43040, VARANO DE' MELEGARI (PR) 121/A 43040, VARANO DE' MELEGARI, PR","prices":[{"type":"petrol","price":1.897,"self":true,"updatedAt":"29/06/2026 00:39:44"},{"type":"diesel","price":1.997,"self":true,"updatedAt":"29/06/2026 00:39:44"}]},{"id":"36008","lat":44.666212842377035,"lon":9.852388054132462,"name":"Comune di Varsi-Bertelli Carburanti","brand":"Pompe Bianche","address":"via  100 43049, VARSI, PR","prices":[{"type":"petrol","price":1.897,"self":true,"updatedAt":"29/06/2026 00:09:37"},{"type":"diesel","price":2.013,"self":true,"updatedAt":"29/06/2026 00:09:37"}]}]