[{"id":"54002","lat":44.78398369642803,"lon":7.730178905419936,"name":"SALCA SRL CARAMAGNA PIEMONTE","brand":"Api-Ip","address":"REALE 130 12030, CARAMAGNA PIEMONTE, CN","prices":[{"type":"petrol","price":1.839,"self":true,"updatedAt":"19/06/2026 14:49:48"},{"type":"diesel","price":1.949,"self":true,"updatedAt":"19/06/2026 14:49:48"}]},{"id":"59593","lat":44.81479628950558,"lon":7.619416296165453,"name":"CPP-CASALGRASSO","brand":"Api-Ip","address":"663 KM.10+810 SNC 12030, CASALGRASSO, CN","prices":[{"type":"petrol","price":1.789,"self":true,"updatedAt":"20/06/2026 23:24:52"},{"type":"diesel","price":1.889,"self":true,"updatedAt":"20/06/2026 23:24:52"}]},{"id":"59599","lat":44.823005176972714,"lon":7.62569523797914,"name":"Esso Casalgrasso","brand":"Esso","address":"TORINO 91 12035, CASALGRASSO, CN","prices":[{"type":"petrol","price":1.819,"self":true,"updatedAt":"19/06/2026 08:35:07"},{"type":"diesel","price":1.919,"self":true,"updatedAt":"19/06/2026 08:35:07"}]},{"id":"53376","lat":44.76375,"lon":7.54279,"name":"216 Moretta","brand":"Agip Eni","address":"POLLANO 6 12033, MORETTA, CN","prices":[{"type":"petrol","price":1.829,"self":true,"updatedAt":"21/06/2026 00:34:46"},{"type":"diesel","price":1.919,"self":true,"updatedAt":"21/06/2026 00:34:46"}]},{"id":"59598","lat":44.752543,"lon":7.6762811,"name":"ESSO RACONIGI","brand":"Esso","address":"TIZIANO VECELLIO 1 12035, RACCONIGI, CN","prices":[{"type":"petrol","price":1.859,"self":true,"updatedAt":"19/06/2026 08:33:45"},{"type":"diesel","price":1.959,"self":true,"updatedAt":"19/06/2026 08:33:45"}]},{"id":"56036","lat":44.78318,"lon":7.6806,"name":"Racconigi","brand":"Api-Ip","address":"VIA UMBERTO I 188 12035, RACCONIGI (CN) 188 12035, RACCONIGI, CN","prices":[{"type":"petrol","price":1.799,"self":true,"updatedAt":"21/06/2026 00:25:07"},{"type":"diesel","price":1.899,"self":true,"updatedAt":"21/06/2026 00:25:07"}]},{"id":"30928","lat":44.758066669514115,"lon":7.6748664723872935,"name":"RACCONIGI - PRINCIPE DI PIEMONTE","brand":"Api-Ip","address":"VIA PRINCIPE DI PIEMONTE 110 12035, RACCONIGI, CN","prices":[{"type":"petrol","price":1.829,"self":true,"updatedAt":"20/06/2026 09:03:14"},{"type":"diesel","price":1.919,"self":true,"updatedAt":"20/06/2026 09:03:15"},{"type":"lpg","price":0.759,"self":false,"updatedAt":"20/06/2026 09:03:14"}]},{"id":"55095","lat":44.8121621,"lon":7.69896617,"name":"SOCOGAS RETE RACCONIGI PV 210545","brand":"Socogas","address":"S.S. 20 KM 24  12035, RACCONIGI, CN","prices":[{"type":"petrol","price":1.849,"self":true,"updatedAt":"21/06/2026 00:39:38"},{"type":"diesel","price":1.959,"self":true,"updatedAt":"21/06/2026 00:39:38"},{"type":"lpg","price":0.789,"self":false,"updatedAt":"20/06/2026 23:53:00"}]},{"id":"10438","lat":44.774113220022905,"lon":7.680172920227051,"name":"Stazione Servizio Q8","brand":"Q8","address":"Statale 20 del Colle di Tenda e di Valle Roja, Km. 20, dir. cuneo - 12035, RACCONIGI, CN","prices":[{"type":"petrol","price":1.829,"self":true,"updatedAt":"19/06/2026 06:30:28"},{"type":"diesel","price":1.939,"self":true,"updatedAt":"19/06/2026 06:30:28"}]},{"id":"17525","lat":44.921400978345154,"lon":7.502461820840836,"name":"STAZIONE ESSO DI ADESSO ANTONIO","brand":"Esso","address":"Statale 23 del Colle di Sestriere, Km. 22+400 snc, dir. AIRASCA  10060, AIRASCA, TO","prices":[{"type":"petrol","price":1.859,"self":true,"updatedAt":"19/06/2026 08:35:14"},{"type":"diesel","price":1.969,"self":true,"updatedAt":"19/06/2026 08:35:14"}]},{"id":"45742","lat":44.960996540545416,"lon":7.604451719881126,"name":"3392","brand":"Tamoil","address":"TORINO 19 10060, CANDIOLO, TO","prices":[{"type":"petrol","price":1.819,"self":true,"updatedAt":"21/06/2026 00:18:31"},{"type":"diesel","price":1.899,"self":true,"updatedAt":"21/06/2026 00:18:31"}]},{"id":"4849","lat":44.96629050944528,"lon":7.570121884346008,"name":"eni","brand":"Socogas","address":"STRADA PER ORBASSANO KM. 6+470  10060, CANDIOLO, TO","prices":[{"type":"petrol","price":1.897,"self":true,"updatedAt":"20/06/2026 09:05:42"},{"type":"diesel","price":1.974,"self":true,"updatedAt":"20/06/2026 09:05:42"},{"type":"lpg","price":0.769,"self":false,"updatedAt":"20/06/2026 09:05:42"}]},{"id":"25375","lat":44.90127690605022,"lon":7.671996771377621,"name":"6214","brand":"Tamoil","address":"S.S 20 KM 11+620/VIA S.PELLICO 81 10041, CARIGNANO, TO","prices":[{"type":"petrol","price":1.789,"self":true,"updatedAt":"21/06/2026 00:12:47"},{"type":"diesel","price":1.889,"self":true,"updatedAt":"21/06/2026 00:12:47"}]},{"id":"51628","lat":44.915075698252096,"lon":7.67657195337295,"name":"Economy Carignano","brand":"Tamoil","address":"20 del Colle di Tenda e di Valle Roja, Km. 9+827, Nord -, CARIGNANO, TO","prices":[{"type":"petrol","price":1.799,"self":true,"updatedAt":"19/06/2026 17:10:55"},{"type":"diesel","price":1.899,"self":true,"updatedAt":"19/06/2026 17:10:55"}]},{"id":"43916","lat":44.90403034858639,"lon":7.6511599533729395,"name":"EUROPAM - CARIGNANO","brand":"Europam","address":"SP 142 PER ORBASSANO  10041, CARIGNANO, TO","prices":[{"type":"petrol","price":1.827,"self":true,"updatedAt":"18/06/2026 12:38:16"},{"type":"diesel","price":1.917,"self":true,"updatedAt":"18/06/2026 12:38:16"},{"type":"lpg","price":0.767,"self":false,"updatedAt":"18/06/2026 12:38:16"}]},{"id":"61327","lat":44.890754,"lon":7.672604,"name":"SOCOGAS RETE CARIGNANO PV 361377","brand":"Esso","address":"S.P. 142 KM 17+810  10041, CARIGNANO, TO","prices":[{"type":"petrol","price":1.825,"self":true,"updatedAt":"21/06/2026 00:35:55"},{"type":"diesel","price":1.919,"self":true,"updatedAt":"21/06/2026 00:35:55"},{"type":"lpg","price":0.765,"self":false,"updatedAt":"21/06/2026 00:14:56"}]},{"id":"35942","lat":44.89559294893613,"lon":7.66992396198566,"name":"Stazione ENI Carignano","brand":"Agip Eni","address":"SALUZZO 1 10041, CARIGNANO, TO","prices":[{"type":"petrol","price":1.829,"self":true,"updatedAt":"21/06/2026 01:07:29"},{"type":"diesel","price":1.949,"self":true,"updatedAt":"21/06/2026 01:07:29"}]},{"id":"57343","lat":44.8432423,"lon":7.70141467,"name":"3380","brand":"Tamoil","address":"VIA DEL PORTO  10022, CARMAGNOLA, TO","prices":[{"type":"petrol","price":1.819,"self":true,"updatedAt":"20/06/2026 23:40:22"},{"type":"diesel","price":1.899,"self":true,"updatedAt":"20/06/2026 23:40:22"}]},{"id":"45981","lat":44.85630740802093,"lon":7.723999588652305,"name":"574 Carmagnola","brand":"Agip Eni","address":"20 del Colle di Tenda e di Valle Roja, Km. 18+520, Torino - 10022, CARMAGNOLA, TO","prices":[{"type":"petrol","price":1.829,"self":true,"updatedAt":"21/06/2026 00:42:55"},{"type":"diesel","price":1.919,"self":true,"updatedAt":"21/06/2026 00:42:55"}]},{"id":"7296","lat":44.845411826489986,"lon":7.7320696413517,"name":"CARMAGNOLA","brand":"Q8","address":"C/O CC BENNET SN 10022, CARMAGNOLA, TO","prices":[{"type":"petrol","price":1.839,"self":true,"updatedAt":"20/06/2026 01:38:26"},{"type":"diesel","price":1.958,"self":true,"updatedAt":"20/06/2026 01:38:26"},{"type":"lpg","price":0.749,"self":false,"updatedAt":"20/06/2026 01:38:26"}]},{"id":"10106","lat":44.826950789945805,"lon":7.710684388875961,"name":"Carmagnola","brand":"Api-Ip","address":"Via Racconigi   10022, CARMAGNOLA, TO","prices":[{"type":"petrol","price":1.839,"self":true,"updatedAt":"20/06/2026 09:16:42"},{"type":"diesel","price":1.949,"self":true,"updatedAt":"20/06/2026 09:16:42"}]},{"id":"10411","lat":44.850755593832346,"lon":7.722544050787292,"name":"ENI","brand":"Agip Eni","address":"SAN FRANCESCO DI SALES 14 10022, CARMAGNOLA, TO","prices":[{"type":"petrol","price":1.849,"self":true,"updatedAt":"21/06/2026 00:46:21"},{"type":"diesel","price":1.949,"self":true,"updatedAt":"21/06/2026 00:46:21"}]},{"id":"57981","lat":44.85312178887691,"lon":7.7249515325444795,"name":"ESSO CARMAGNOLA","brand":"Esso","address":"Via Torino 40  10022, CARMAGNOLA, TO","prices":[{"type":"petrol","price":1.889,"self":true,"updatedAt":"16/06/2026 15:02:54"},{"type":"diesel","price":1.999,"self":true,"updatedAt":"16/06/2026 15:02:54"}]},{"id":"50654","lat":44.838993671259296,"lon":7.730930250279089,"name":"IP","brand":"Api-Ip","address":"VIA SOMMARIVA 120 10022, CARMAGNOLA, TO","prices":[{"type":"petrol","price":1.869,"self":true,"updatedAt":"18/06/2026 15:52:14"},{"type":"diesel","price":1.989,"self":true,"updatedAt":"18/06/2026 15:52:14"},{"type":"lpg","price":0.839,"self":false,"updatedAt":"18/06/2026 15:52:14"}]},{"id":"18012","lat":44.87133877295011,"lon":7.708958387374878,"name":"LS1 SERVICE IP","brand":"Api-Ip","address":"20 del Colle di Tenda e di Valle Roja, Km. 16.329, Carignano snc 10022, CARMAGNOLA, TO","prices":[{"type":"petrol","price":1.769,"self":true,"updatedAt":"20/06/2026 23:58:07"},{"type":"diesel","price":1.859,"self":true,"updatedAt":"20/06/2026 23:58:07"},{"type":"methane","price":1.529,"self":true,"updatedAt":"20/06/2026 23:58:07"}]},{"id":"53645","lat":44.849681935895156,"lon":7.742102097360544,"name":"QUI 24","brand":"Tamoil","address":"STATALE 129 VIA POIRINO 90/92 10022, CARMAGNOLA, TO","prices":[{"type":"petrol","price":1.838,"self":true,"updatedAt":"20/06/2026 19:23:10"},{"type":"diesel","price":1.928,"self":true,"updatedAt":"20/06/2026 19:23:10"},{"type":"lpg","price":0.858,"self":false,"updatedAt":"20/06/2026 19:23:10"}]},{"id":"20694","lat":44.90402935332706,"lon":7.559255585074425,"name":"distributore carburante agip caffetteria irene","brand":"Agip Eni","address":"CIRCONVALLAZIONE 2 10060, CASTAGNOLE PIEMONTE, TO","prices":[{"type":"petrol","price":1.818,"self":true,"updatedAt":"21/06/2026 00:34:45"},{"type":"diesel","price":1.914,"self":true,"updatedAt":"21/06/2026 00:34:45"},{"type":"lpg","price":0.742,"self":false,"updatedAt":"20/06/2026 00:30:09"}]},{"id":"62512","lat":44.9495811,"lon":7.6690862,"name":"ENI","brand":"Agip Eni","address":"CARIGNANO-S.S.20 KM.6.035 44 10040, LA LOGGIA, TO","prices":[{"type":"petrol","price":1.819,"self":true,"updatedAt":"19/06/2026 08:43:01"},{"type":"diesel","price":1.909,"self":true,"updatedAt":"19/06/2026 08:43:01"}]},{"id":"62622","lat":44.9636064,"lon":7.6730874,"name":"IL GIGANTE SELF H24","brand":"Pompe Bianche","address":"Via Ronchi 47B  10040, LA LOGGIA, TO","prices":[{"type":"petrol","price":1.739,"self":true,"updatedAt":"19/06/2026 17:15:09"},{"type":"diesel","price":1.829,"self":true,"updatedAt":"19/06/2026 17:15:09"}]},{"id":"29701","lat":44.83398143778674,"lon":7.627714961628499,"name":"LOMBRIASCO - S.S.663","brand":"Api-Ip","address":"S.S. 663 KM. 8,075  10040, LOMBRIASCO, TO","prices":[{"type":"petrol","price":1.799,"self":true,"updatedAt":"20/06/2026 09:02:55"},{"type":"diesel","price":1.899,"self":true,"updatedAt":"20/06/2026 09:02:55"},{"type":"lpg","price":0.749,"self":false,"updatedAt":"20/06/2026 09:02:55"}]},{"id":"52018","lat":44.97811835116419,"lon":7.700136359991387,"name":"BAUDUCCHI OVEST","brand":"Api-Ip","address":"A55 TANG.LE DI TORINO, Km. 4,500, Savona - 10024, MONCALIERI, TO","prices":[{"type":"petrol","price":2.019,"self":true,"updatedAt":"16/06/2026 12:22:35"},{"type":"diesel","price":2.139,"self":true,"updatedAt":"16/06/2026 12:22:35"}]},{"id":"58683","lat":44.945543666666666,"lon":7.720391666666666,"name":"DISCAR - GIEMME DI MITTICA GIOVANNI MONCALIERI","brand":"DIS-CAR","address":"STATALE 393 7 + 377 10024, MONCALIERI, TO","prices":[{"type":"petrol","price":1.879,"self":true,"updatedAt":"17/06/2026 07:25:00"},{"type":"diesel","price":1.969,"self":true,"updatedAt":"17/06/2026 07:25:00"},{"type":"lpg","price":0.759,"self":false,"updatedAt":"17/06/2026 07:25:00"}]},{"id":"36055","lat":44.982600448192905,"lon":7.707066974804661,"name":"DISCAR LE PORTE","brand":"DIS-CAR","address":"VIA VIA MADRE TERESA DI CALCUTTA SN 10024, MONCALIERI (TO) SNC 10024, MONCALIERI, TO","prices":[{"type":"petrol","price":1.795,"self":true,"updatedAt":"20/06/2026 23:49:52"},{"type":"diesel","price":1.899,"self":true,"updatedAt":"20/06/2026 23:49:52"},{"type":"lpg","price":0.755,"self":false,"updatedAt":"20/06/2026 23:49:52"}]},{"id":"41402","lat":44.99062629303088,"lon":7.662206173610684,"name":"Economy-Moncalieri, Borgata Santa Maria","brand":"Api-Ip","address":"VIA SANTA MARIA 46 10024, MONCALIERI, TO","prices":[{"type":"petrol","price":1.999,"self":true,"updatedAt":"17/06/2026 08:06:04"},{"type":"diesel","price":2.199,"self":true,"updatedAt":"17/06/2026 08:06:04"}]},{"id":"47500","lat":44.976985802882695,"lon":7.670100487102527,"name":"ESSO","brand":"Esso","address":"STRADA CARIGNANO 74 10024, MONCALIERI, TO","prices":[{"type":"petrol","price":1.789,"self":true,"updatedAt":"19/06/2026 10:44:53"},{"type":"diesel","price":1.879,"self":true,"updatedAt":"19/06/2026 10:44:53"},{"type":"lpg","price":0.749,"self":true,"updatedAt":"19/06/2026 10:44:53"}]},{"id":"45766","lat":44.99485708338513,"lon":7.692165780872642,"name":"FC SAVONA SAS","brand":"Esso","address":"CORSO SAVONA 46 10024, MONCALIERI, TO","prices":[{"type":"petrol","price":1.819,"self":true,"updatedAt":"19/06/2026 14:20:14"},{"type":"diesel","price":1.899,"self":true,"updatedAt":"19/06/2026 14:20:14"}]},{"id":"45234","lat":44.996022977084486,"lon":7.686325907707215,"name":"Gas Station Moncalieri","brand":"SACOM","address":"CORSO SAVONA 24 10024, MONCALIERI (TO) 24 10024, MONCALIERI, TO","prices":[{"type":"petrol","price":1.799,"self":true,"updatedAt":"19/06/2026 15:02:04"},{"type":"diesel","price":1.899,"self":true,"updatedAt":"19/06/2026 15:02:04"}]},{"id":"23664","lat":44.99838345317529,"lon":7.700616763229391,"name":"IMPIANTO CARBURANTI di Giusti Fabrizio & C. s.a.s.","brand":"Api-Ip","address":"STRADA GENOVA 58/3 10024, MONCALIERI, TO","prices":[{"type":"petrol","price":2.099,"self":false,"updatedAt":"20/06/2026 07:03:23"},{"type":"diesel","price":2.199,"self":false,"updatedAt":"20/06/2026 07:03:23"}]},{"id":"33827","lat":44.98285524503359,"lon":7.671100348234177,"name":"kuwait","brand":"Q8","address":"Statale 20 del Colle di Tenda e di Valle Roja, Km. 2.200, dir. torino - 10024, MONCALIERI, TO","prices":[{"type":"petrol","price":1.919,"self":true,"updatedAt":"17/06/2026 11:55:35"},{"type":"diesel","price":1.989,"self":true,"updatedAt":"17/06/2026 11:55:35"},{"type":"lpg","price":0.739,"self":false,"updatedAt":"17/06/2026 11:55:35"}]},{"id":"63050","lat":44.9757786,"lon":7.7130699,"name":"Moncalieri - Postiglione","brand":"Api-Ip","address":"via Francesco Postiglione 27 10024, MONCALIERI, TO","prices":[{"type":"petrol","price":1.789,"self":true,"updatedAt":"20/06/2026 09:11:22"},{"type":"diesel","price":1.869,"self":true,"updatedAt":"20/06/2026 09:11:22"}]},{"id":"22891","lat":44.98222295703064,"lon":7.670443207025528,"name":"MONCALIERI - S.S. 20 KM. 2,229","brand":"Api-Ip","address":"Statale 20 del Colle di Tenda e di Valle Roja, Km. km 2,229, dir. torino - 10024, MONCALIERI, TO","prices":[{"type":"petrol","price":1.789,"self":true,"updatedAt":"20/06/2026 09:02:57"},{"type":"diesel","price":1.869,"self":true,"updatedAt":"20/06/2026 09:02:57"}]},{"id":"7266","lat":44.979142541855346,"lon":7.703556418418884,"name":"MONCALIERI - SS 393 KM3 300","brand":"Q8","address":"SS 393 KM 3+300 300 10024, MONCALIERI, TO","prices":[{"type":"petrol","price":1.779,"self":true,"updatedAt":"20/06/2026 08:11:05"},{"type":"diesel","price":1.859,"self":true,"updatedAt":"20/06/2026 08:11:05"},{"type":"lpg","price":0.755,"self":false,"updatedAt":"20/06/2026 08:11:05"}]},{"id":"54771","lat":44.99405,"lon":7.71106,"name":"Stazione di servizio Testona","brand":"Retitalia","address":"Str. Genova 126 10024, MONCALIERI, TO","prices":[{"type":"petrol","price":1.839,"self":true,"updatedAt":"21/06/2026 00:20:18"},{"type":"diesel","price":1.959,"self":true,"updatedAt":"21/06/2026 00:20:18"}]},{"id":"14816","lat":44.990963010533044,"lon":7.718883231282234,"name":"TAMOIL","brand":"Tamoil","address":"GENOVA S.S.29 KM 13+345 269 10024, MONCALIERI, TO","prices":[{"type":"petrol","price":1.919,"self":true,"updatedAt":"19/06/2026 06:34:27"},{"type":"diesel","price":2.029,"self":true,"updatedAt":"19/06/2026 06:34:27"}]},{"id":"17176","lat":44.99578411890521,"lon":7.6874270926743975,"name":"tamoil","brand":"Tamoil","address":"c.so savona 22 10024 - -, MONCALIERI, TO","prices":[{"type":"petrol","price":1.819,"self":true,"updatedAt":"21/06/2026 01:01:01"},{"type":"diesel","price":1.879,"self":true,"updatedAt":"21/06/2026 01:01:01"}]},{"id":"7370","lat":44.981242535796724,"lon":7.629635041525262,"name":"00664","brand":"Agip Eni","address":"VIA TORINO 372 10042, NICHELINO, TO","prices":[{"type":"petrol","price":1.804,"self":true,"updatedAt":"21/06/2026 00:32:28"},{"type":"diesel","price":1.914,"self":true,"updatedAt":"21/06/2026 00:32:28"}]},{"id":"34189","lat":44.98279587303752,"lon":7.632060755775456,"name":"DISCAR NICHELINO","brand":"DIS-CAR","address":"VIA VIA TORINO ANGOLO VIA VERNEA SN 10042, NICHELINO (TO) SN 10042, NICHELINO, TO","prices":[{"type":"petrol","price":1.799,"self":true,"updatedAt":"20/06/2026 23:19:10"},{"type":"diesel","price":1.899,"self":true,"updatedAt":"20/06/2026 23:19:10"},{"type":"lpg","price":0.735,"self":false,"updatedAt":"20/06/2026 23:19:10"}]},{"id":"46795","lat":44.985835624575486,"lon":7.635887743014109,"name":"Eni - SOCOGAS","brand":"Agip Eni","address":"TORINO 275 10042, NICHELINO, TO","prices":[{"type":"petrol","price":1.862,"self":true,"updatedAt":"21/06/2026 00:44:38"},{"type":"diesel","price":1.969,"self":true,"updatedAt":"21/06/2026 00:44:38"},{"type":"methane","price":1.599,"self":false,"updatedAt":"20/06/2026 23:38:58"},{"type":"lpg","price":0.735,"self":false,"updatedAt":"20/06/2026 23:38:58"}]},{"id":"57439","lat":44.99809038619962,"lon":7.630820274353027,"name":"IP NICHELINO - CARULLO SNC","brand":"Itala Petroli","address":"DEBOUCHE' 50 10042, NICHELINO, TO","prices":[{"type":"petrol","price":1.796,"self":true,"updatedAt":"19/06/2026 18:57:52"},{"type":"diesel","price":1.896,"self":true,"updatedAt":"19/06/2026 18:57:52"},{"type":"lpg","price":0.769,"self":false,"updatedAt":"19/06/2026 18:57:52"}]},{"id":"49005","lat":44.985437827977414,"lon":7.620159115793044,"name":"KEROTRIS - MONDOJUVE","brand":"Kerotris","address":"VIA DEBOUCHE' SN 10042, NICHELINO, TO","prices":[{"type":"petrol","price":1.818,"self":true,"updatedAt":"19/06/2026 15:24:42"},{"type":"diesel","price":1.928,"self":true,"updatedAt":"19/06/2026 15:24:42"},{"type":"lpg","price":0.738,"self":false,"updatedAt":"19/06/2026 15:24:42"}]},{"id":"24618","lat":44.986756911423434,"lon":7.6210590085983085,"name":"NICHELINO - STRADA DEL DEBOUCHE'","brand":"Api-Ip","address":"NICHELINO - STRADA DEL DEBOUCHE'  10042, NICHELINO, TO","prices":[{"type":"petrol","price":1.789,"self":true,"updatedAt":"20/06/2026 09:03:12"},{"type":"diesel","price":1.889,"self":true,"updatedAt":"20/06/2026 09:03:12"}]},{"id":"56965","lat":44.975857,"lon":7.6576424,"name":"NICHELINO NORD","brand":"Agip Eni","address":"Autostrada A55 TANG.LE DI TORINO, dir. Nord, NICHELINO, TO","prices":[{"type":"petrol","price":1.899,"self":true,"updatedAt":"21/06/2026 00:06:15"},{"type":"diesel","price":1.989,"self":true,"updatedAt":"21/06/2026 00:06:14"},{"type":"methane","price":1.582,"self":false,"updatedAt":"21/06/2026 00:06:15"}]},{"id":"3626","lat":44.9812651762777,"lon":7.645269334316254,"name":"NICHELINO SUD","brand":"Agip Eni","address":"Autostrada A55 TANG.LE DI TORINO, Km. 11.3, dir. Sud - -, NICHELINO, TO","prices":[{"type":"petrol","price":1.999,"self":true,"updatedAt":"20/06/2026 23:49:45"},{"type":"diesel","price":2.109,"self":true,"updatedAt":"20/06/2026 23:49:45"},{"type":"methane","price":1.611,"self":true,"updatedAt":"20/06/2026 23:49:45"}]},{"id":"58394","lat":44.930004,"lon":7.528499,"name":"918 NONE","brand":"Agip Eni","address":"S.S. 23 AL   KM.20+500, NONE, TO","prices":[{"type":"petrol","price":1.81,"self":true,"updatedAt":"20/06/2026 23:39:33"},{"type":"diesel","price":1.919,"self":true,"updatedAt":"20/06/2026 23:39:33"}]},{"id":"44453","lat":44.99564742136827,"lon":7.536272406578064,"name":"ESSO","brand":"Esso","address":". NUOVA CIRCONVALLAZIONE 15+790 SNC 10043, ORBASSANO, TO","prices":[{"type":"petrol","price":1.829,"self":true,"updatedAt":"18/06/2026 14:39:39"},{"type":"diesel","price":1.959,"self":true,"updatedAt":"18/06/2026 14:39:39"},{"type":"lpg","price":0.78,"self":true,"updatedAt":"18/06/2026 14:39:39"}]},{"id":"7265","lat":44.996175979190056,"lon":7.5290480158691935,"name":"ORBASSANO-SP TO PINEROLO KM16 391","brand":"Q8","address":"SP. TORINO PINEROLO KM. 16+391 391 10043, ORBASSANO, TO","prices":[{"type":"petrol","price":1.799,"self":true,"updatedAt":"20/06/2026 08:11:07"},{"type":"diesel","price":1.939,"self":true,"updatedAt":"20/06/2026 08:11:07"},{"type":"lpg","price":0.759,"self":false,"updatedAt":"20/06/2026 08:11:07"}]},{"id":"48202","lat":44.996852615809956,"lon":7.548620700836177,"name":"SOCOGAS Orbassano","brand":"Socogas","address":"S.P. 6 Torino - Piossasco,  km. 14+835 10043, ORBASSANO, TO","prices":[{"type":"petrol","price":1.869,"self":true,"updatedAt":"21/06/2026 00:39:20"},{"type":"diesel","price":1.959,"self":true,"updatedAt":"21/06/2026 00:39:20"},{"type":"lpg","price":0.605,"self":true,"updatedAt":"19/03/2026 23:22:23"}]},{"id":"62581","lat":44.9968642,"lon":7.5733395,"name":"Tamoil","brand":"Tamoil","address":"Str. Stupinigi 115  10043, ORBASSANO, TO","prices":[{"type":"petrol","price":1.839,"self":true,"updatedAt":"18/06/2026 12:01:18"},{"type":"diesel","price":1.969,"self":true,"updatedAt":"18/06/2026 12:01:18"},{"type":"lpg","price":0.738,"self":false,"updatedAt":"18/06/2026 12:01:18"}]},{"id":"10545","lat":44.878496131859194,"lon":7.608293090429925,"name":"CENTRO CALOR OSASIO","brand":"Centro Calor","address":"STR. PROV.138 x VIRLE KM. 4,54  10040, OSASIO, TO","prices":[{"type":"petrol","price":1.799,"self":true,"updatedAt":"19/06/2026 14:25:53"},{"type":"diesel","price":1.899,"self":true,"updatedAt":"19/06/2026 14:25:53"}]},{"id":"53814","lat":44.83183486693711,"lon":7.59289408918355,"name":"PANCALIERI","brand":"Api-Ip","address":"Via Carmagnola 26  10060, PANCALIERI, TO","prices":[{"type":"petrol","price":1.799,"self":true,"updatedAt":"19/06/2026 17:13:56"},{"type":"diesel","price":1.899,"self":true,"updatedAt":"19/06/2026 17:13:56"}]},{"id":"11878","lat":44.928475921469825,"lon":7.623410672283171,"name":"PIOBESI TORINESE-VIA DEL MARE 10","brand":"Q8","address":"VIA DEL MARE 10 10040, PIOBESI TORINESE, TO","prices":[{"type":"petrol","price":1.819,"self":true,"updatedAt":"20/06/2026 08:11:10"},{"type":"diesel","price":1.919,"self":true,"updatedAt":"20/06/2026 08:11:10"}]},{"id":"44321","lat":44.93354448535791,"lon":7.616615295410156,"name":"VTG","brand":"Pompe Bianche","address":"VIA XXV APRILE  25 10040, PIOBESI TORINESE, TO","prices":[{"type":"petrol","price":1.839,"self":false,"updatedAt":"20/06/2026 08:48:17"},{"type":"diesel","price":1.939,"self":false,"updatedAt":"20/06/2026 08:48:17"},{"type":"lpg","price":0.765,"self":false,"updatedAt":"20/06/2026 08:48:17"}]},{"id":"15388","lat":44.99914737737926,"lon":7.515288673610712,"name":"FRANCA CIRONE","brand":"Esso","address":"VIA I MAGGIO 29 10040, RIVALTA DI TORINO, TO","prices":[{"type":"petrol","price":1.879,"self":true,"updatedAt":"12/06/2026 08:46:45"},{"type":"diesel","price":1.989,"self":true,"updatedAt":"12/06/2026 08:46:45"}]},{"id":"12030","lat":44.976106761749534,"lon":7.739495764804133,"name":"AR.IT.CO. srl","brand":"Pompe Bianche","address":"CUNEO 8 10028, TROFARELLO, TO","prices":[{"type":"petrol","price":1.79,"self":true,"updatedAt":"18/06/2026 11:40:13"},{"type":"diesel","price":1.875,"self":true,"updatedAt":"18/06/2026 11:40:13"},{"type":"lpg","price":0.749,"self":false,"updatedAt":"18/06/2026 11:40:13"}]},{"id":"24369","lat":44.96711558575995,"lon":7.73536823585788,"name":"TROFARELLO","brand":"Esso","address":"STRADA PROVINCIALE EX SS29 COLLE DI CADIBONA SNC 10028, TROFARELLO, TO","prices":[{"type":"petrol","price":1.869,"self":true,"updatedAt":"19/06/2026 11:38:49"},{"type":"diesel","price":1.899,"self":true,"updatedAt":"19/06/2026 11:38:49"},{"type":"lpg","price":0.759,"self":false,"updatedAt":"19/06/2026 11:38:49"}]},{"id":"49841","lat":44.84744991457204,"lon":7.507132559576095,"name":"VIGONE","brand":"Agip Eni","address":"S.P.139 PER VILLAFRANCA  10067, VIGONE, TO","prices":[{"type":"petrol","price":1.845,"self":true,"updatedAt":"17/06/2026 12:14:11"},{"type":"diesel","price":1.944,"self":true,"updatedAt":"17/06/2026 12:14:16"},{"type":"methane","price":1.599,"self":false,"updatedAt":"20/06/2026 08:44:35"},{"type":"lpg","price":0.762,"self":false,"updatedAt":"20/06/2026 08:49:29"}]},{"id":"60617","lat":44.93253576924178,"lon":7.731142411574274,"name":"ECONOMY - VILLASTELLONE SS 393","brand":"Economysrl","address":"S.S. 393 KM 9+073 SNC 10029, VILLASTELLONE, TO","prices":[{"type":"petrol","price":1.878,"self":true,"updatedAt":"18/06/2026 16:45:39"},{"type":"diesel","price":1.899,"self":true,"updatedAt":"18/06/2026 16:45:39"}]},{"id":"21849","lat":44.90994491200781,"lon":7.742704023313536,"name":"VILLASTELLONE - S.S. 393 KM 11 + 85","brand":"Api-Ip","address":"Statale 393 di Villastellone, Km. 11+858, dir. CARMAGNOLA CUNEO - 10029, VILLASTELLONE, TO","prices":[{"type":"petrol","price":1.839,"self":true,"updatedAt":"20/06/2026 09:02:51"},{"type":"diesel","price":1.899,"self":true,"updatedAt":"20/06/2026 09:02:51"}]},{"id":"62667","lat":44.9404,"lon":7.62408,"name":"IP VINOVO","brand":"Api-Ip","address":"PIOBESI 40 10048, VINOVO, TO","prices":[{"type":"petrol","price":1.839,"self":true,"updatedAt":"15/06/2026 18:41:24"},{"type":"diesel","price":1.959,"self":true,"updatedAt":"15/06/2026 18:41:24"}]},{"id":"25187","lat":44.94493417175196,"lon":7.627926822090103,"name":"VINOVO","brand":"Api-Ip","address":"VIA CIRCONVALLAZIONE 38 10048, VINOVO, TO","prices":[{"type":"petrol","price":1.789,"self":true,"updatedAt":"20/06/2026 09:04:17"},{"type":"diesel","price":1.889,"self":true,"updatedAt":"20/06/2026 09:04:17"}]},{"id":"11884","lat":44.954278328500635,"lon":7.627314169311489,"name":"VINOVO-VIA STUPINIGI 32","brand":"Q8","address":"VIA STUPINIGI 32 10048, VINOVO, TO","prices":[{"type":"petrol","price":1.799,"self":true,"updatedAt":"20/06/2026 01:38:40"},{"type":"diesel","price":1.899,"self":true,"updatedAt":"20/06/2026 01:38:40"}]},{"id":"63019","lat":44.9815388,"lon":7.5271461,"name":"DISTRIBUTORE IP 47769","brand":"Api-Ip","address":"Strada Orbassano 108  10040, VOLVERA, TO","prices":[{"type":"petrol","price":2.009,"self":true,"updatedAt":"17/06/2026 14:12:35"},{"type":"diesel","price":2.089,"self":true,"updatedAt":"17/06/2026 14:12:35"}]},{"id":"13819","lat":44.95483679333941,"lon":7.506658136844635,"name":"IP","brand":"Api-Ip","address":"STRADA PROVINCIALE 141 KM 5+310  10040, VOLVERA, TO","prices":[{"type":"petrol","price":1.799,"self":true,"updatedAt":"21/06/2026 00:28:53"},{"type":"diesel","price":1.899,"self":true,"updatedAt":"21/06/2026 00:28:53"},{"type":"lpg","price":0.739,"self":false,"updatedAt":"21/06/2026 00:28:53"}]},{"id":"7625","lat":44.981535744202205,"lon":7.527185082435608,"name":"SPRINT S.N.C.","brand":"Api-Ip","address":"VIA S.P. ORBASSANO/VOLVERA KM 2+800 S.N. 10040, VOLVERA (TO) 108 10040, VOLVERA, TO","prices":[{"type":"petrol","price":1.829,"self":true,"updatedAt":"28/04/2026 07:38:45"},{"type":"diesel","price":2.199,"self":true,"updatedAt":"28/04/2026 07:38:45"}]}]