[{"id":"58045","lat":44.820023,"lon":11.628337,"name":"05829 FERRARA","brand":"Agip Eni","address":"Via Ravenna 78  44124, FERRARA, FE","prices":[{"type":"petrol","price":1.809,"self":true,"updatedAt":"28/06/2026 23:33:56"},{"type":"diesel","price":1.889,"self":true,"updatedAt":"28/06/2026 23:33:56"}]},{"id":"5408","lat":44.832349018213186,"lon":11.60425105026252,"name":"15828 BOARIO","brand":"Agip Eni","address":"Via Foro Boario SNC 44122, FERRARA, FE","prices":[{"type":"petrol","price":1.764,"self":true,"updatedAt":"28/06/2026 23:36:37"},{"type":"diesel","price":1.819,"self":true,"updatedAt":"28/06/2026 23:36:37"}]},{"id":"51731","lat":44.80571453160835,"lon":11.584854969103905,"name":"5820 – Ferrara","brand":"Agip Eni","address":"Via Bologna, 632 Loc. Chiesuol del Fosso  44124, FERRARA, FE","prices":[{"type":"petrol","price":1.809,"self":true,"updatedAt":"29/06/2026 00:27:05"},{"type":"diesel","price":1.889,"self":true,"updatedAt":"29/06/2026 00:27:05"}]},{"id":"5479","lat":44.82064132180135,"lon":11.605015519838162,"name":"5838 FERRARA VIA BOLOGNA","brand":"Agip Eni","address":"VIA BOLOGNA 281 44100, FERRARA, FE","prices":[{"type":"petrol","price":1.774,"self":true,"updatedAt":"28/06/2026 23:59:53"},{"type":"diesel","price":1.819,"self":true,"updatedAt":"28/06/2026 23:59:53"}]},{"id":"32923","lat":44.84839383401743,"lon":11.570938378572464,"name":"5887 Cassana (FE)","brand":"Agip Eni","address":"Via Modena  236P 44044, FERRARA, FE","prices":[{"type":"petrol","price":1.819,"self":true,"updatedAt":"29/06/2026 00:36:56"},{"type":"diesel","price":1.889,"self":true,"updatedAt":"29/06/2026 00:36:56"}]},{"id":"38743","lat":44.79873381140198,"lon":11.722838580608368,"name":"8969","brand":"Tamoil","address":"S.P. 29 - CONA/PORTOMAGGIORE SNC 44124, FERRARA, FE","prices":[{"type":"petrol","price":1.819,"self":true,"updatedAt":"28/06/2026 13:44:07"},{"type":"diesel","price":1.899,"self":true,"updatedAt":"28/06/2026 13:44:07"}]},{"id":"38742","lat":44.77975616491404,"lon":11.645533293485641,"name":"8970","brand":"Tamoil","address":"16 ADRIATICA KM 84,931 0 - 44124, FERRARA, FE","prices":[{"type":"petrol","price":1.739,"self":true,"updatedAt":"28/06/2026 12:36:11"},{"type":"diesel","price":1.819,"self":true,"updatedAt":"28/06/2026 12:36:11"}]},{"id":"54926","lat":44.84663829223376,"lon":11.600194411621096,"name":"A.F. PETROLI S.P.A. - VIALE PO - FE","brand":"AF Petroli","address":"PO 41-45 44122, FERRARA, FE","prices":[{"type":"petrol","price":1.727,"self":true,"updatedAt":"26/06/2026 08:27:43"},{"type":"diesel","price":1.847,"self":true,"updatedAt":"26/06/2026 08:27:43"}]},{"id":"4863","lat":44.81227550701459,"lon":11.632345542311668,"name":"cm di curri alberto e c. snc","brand":"Agip Eni","address":"VIA RAVENNA 262 44124, FERRARA, FE","prices":[{"type":"methane","price":1.369,"self":false,"updatedAt":"28/06/2026 16:39:44"}]},{"id":"48907","lat":44.852234042287165,"lon":11.587309487363466,"name":"CONAD SUPERMERCATI FERRARA","brand":"CONAD","address":"VIA ERIDANO 12 44122, FERRARA (FE) 12 44122, FERRARA, FE","prices":[{"type":"petrol","price":1.728,"self":true,"updatedAt":"29/06/2026 06:55:01"},{"type":"diesel","price":1.848,"self":true,"updatedAt":"29/06/2026 06:55:01"}]},{"id":"46992","lat":44.775043318260224,"lon":11.58306275214958,"name":"DISTRIBUTORE AVIA SAN MARTINO","brand":"AVIA","address":"VIA BUTTIFREDO 54/B 44124, FERRARA (FE) 54/B 44124, FERRARA, FE","prices":[{"type":"petrol","price":1.789,"self":true,"updatedAt":"28/06/2026 22:01:08"},{"type":"diesel","price":1.859,"self":true,"updatedAt":"28/06/2026 22:01:07"}]},{"id":"47580","lat":44.808834215651615,"lon":11.69293172738878,"name":"DISTRIBUTORE BEYFIN DI AGUIARI MORENO","brand":"Beyfin","address":"VIA COMACCHIO 731 44124, FERRARA, FE","prices":[{"type":"petrol","price":1.759,"self":true,"updatedAt":"29/06/2026 06:11:42"},{"type":"diesel","price":1.849,"self":true,"updatedAt":"29/06/2026 06:11:42"},{"type":"lpg","price":0.729,"self":false,"updatedAt":"29/06/2026 06:11:42"}]},{"id":"46584","lat":44.855418919408166,"lon":11.614561806990878,"name":"DISTRIBUTORE ESSO VIA CANAPA, FERRARA","brand":"Esso","address":"VIA DELLA CANAPA 26 44122, FERRARA, FE","prices":[{"type":"petrol","price":1.749,"self":true,"updatedAt":"27/06/2026 13:06:04"},{"type":"diesel","price":1.829,"self":true,"updatedAt":"27/06/2026 13:06:04"},{"type":"lpg","price":0.698,"self":false,"updatedAt":"23/06/2026 12:42:06"}]},{"id":"10702","lat":44.764491720419436,"lon":11.653098464012146,"name":"DOLCINI PAOLO","brand":"Api-Ip","address":"VIA BASSA 214/A 44040, FERRARA, FE","prices":[{"type":"petrol","price":2.139,"self":true,"updatedAt":"24/06/2026 15:41:58"},{"type":"diesel","price":2.179,"self":true,"updatedAt":"24/06/2026 15:41:58"}]},{"id":"59665","lat":44.80965331242483,"lon":11.591941021301277,"name":"DOMENICO MODUGNO","brand":"Api-Ip","address":"Via Bologna 537 44124, FERRARA, FE","prices":[{"type":"petrol","price":1.779,"self":true,"updatedAt":"26/06/2026 17:32:33"},{"type":"diesel","price":1.819,"self":true,"updatedAt":"26/06/2026 17:32:33"},{"type":"lpg","price":0.766,"self":false,"updatedAt":"26/06/2026 17:32:33"}]},{"id":"48341","lat":44.844189856313776,"lon":11.651135373016345,"name":"Enercoop Ferrara Le Mura","brand":"Enercoop","address":"VIA CARRETTI 1 44123, FERRARA, FE","prices":[{"type":"petrol","price":1.729,"self":true,"updatedAt":"27/06/2026 09:00:47"},{"type":"diesel","price":1.829,"self":true,"updatedAt":"20/06/2026 07:50:55"},{"type":"methane","price":1.399,"self":false,"updatedAt":"11/06/2026 10:08:36"},{"type":"lpg","price":0.769,"self":false,"updatedAt":"25/06/2026 08:50:47"}]},{"id":"56428","lat":44.8154306116156,"lon":11.6301946760575,"name":"ENI FERRARA VIA RAVENNA N. 244 (EX SS 16 ADRIATICA KM 80+710)","brand":"Agip Eni","address":"RAVENNA 244 44124, FERRARA, FE","prices":[{"type":"petrol","price":1.819,"self":true,"updatedAt":"29/06/2026 07:30:39"},{"type":"diesel","price":1.889,"self":true,"updatedAt":"29/06/2026 07:30:39"},{"type":"lpg","price":0.739,"self":false,"updatedAt":"29/06/2026 07:30:39"}]},{"id":"49810","lat":44.812212904461,"lon":11.632760614156723,"name":"Esso","brand":"Esso","address":"Via Ravenna 262/A 44124, FERRARA, FE","prices":[{"type":"petrol","price":1.759,"self":true,"updatedAt":"29/06/2026 07:56:08"},{"type":"diesel","price":1.829,"self":true,"updatedAt":"29/06/2026 07:56:08"}]},{"id":"39753","lat":44.841479128651685,"lon":11.5846598893404,"name":"Ferrara","brand":"Esso","address":"VIA ARGINONE 325 44122, FERRARA, FE","prices":[{"type":"petrol","price":1.949,"self":true,"updatedAt":"01/05/2026 19:12:05"},{"type":"diesel","price":2.099,"self":true,"updatedAt":"29/04/2026 16:30:05"},{"type":"methane","price":1.439,"self":false,"updatedAt":"29/04/2026 16:30:05"}]},{"id":"31544","lat":44.82690475582351,"lon":11.686699999999973,"name":"FERRARA - POMPOSA 298","brand":"Api-Ip","address":"VIA POMPOSA 298 44100, FERRARA, FE","prices":[{"type":"petrol","price":1.739,"self":true,"updatedAt":"28/06/2026 09:07:01"},{"type":"diesel","price":1.829,"self":true,"updatedAt":"28/06/2026 09:07:01"},{"type":"lpg","price":0.699,"self":false,"updatedAt":"28/06/2026 09:07:01"}]},{"id":"6520","lat":44.84790511558614,"lon":11.644829213619232,"name":"FERRARA VIA GUIDO CARLI 15 15/A","brand":"Q8","address":"VIA GUIDO CARLI 15 15/A 44100, FERRARA, FE","prices":[{"type":"petrol","price":1.739,"self":true,"updatedAt":"26/06/2026 01:40:44"},{"type":"diesel","price":1.829,"self":true,"updatedAt":"26/06/2026 01:40:44"}]},{"id":"23789","lat":44.84998784846429,"lon":11.602832182733891,"name":"Ferrara Via Padova","brand":"Api-Ip","address":"Via Padova 33 44122, FERRARA, FE","prices":[{"type":"petrol","price":1.759,"self":true,"updatedAt":"28/06/2026 09:13:28"},{"type":"diesel","price":1.799,"self":true,"updatedAt":"28/06/2026 09:13:29"}]},{"id":"11572","lat":44.82337201979062,"lon":11.607010066509247,"name":"FERRARA-VIA BOLOGNA 184","brand":"Q8","address":"VIA BOLOGNA 184 44100, FERRARA, FE","prices":[{"type":"petrol","price":1.775,"self":true,"updatedAt":"27/06/2026 01:40:39"},{"type":"diesel","price":1.799,"self":true,"updatedAt":"27/06/2026 01:40:39"}]},{"id":"11575","lat":44.85864639886171,"lon":11.58025749206547,"name":"FERRARA-VIA DIAMANTINA PRESSO CC DIAMANTE","brand":"Q8","address":"VIA DIAMANTINA PRESSO CC DIAMANTE S/N 44100, FERRARA, FE","prices":[{"type":"petrol","price":1.759,"self":true,"updatedAt":"27/06/2026 01:40:40"},{"type":"diesel","price":1.899,"self":true,"updatedAt":"27/06/2026 01:40:40"}]},{"id":"11573","lat":44.832236736079274,"lon":11.60469263792038,"name":"FERRARA-VIA FORO BOARIO 132","brand":"Q8","address":"VIA FORO BOARIO 132 44100, FERRARA, FE","prices":[{"type":"petrol","price":1.784,"self":true,"updatedAt":"27/06/2026 01:40:40"},{"type":"diesel","price":1.849,"self":true,"updatedAt":"27/06/2026 01:40:40"}]},{"id":"16902","lat":44.85854930093345,"lon":11.678762510418892,"name":"GARBELLINI","brand":"Api-Ip","address":"VIA COPPARO KM 3.6  44123, FERRARA, FE","prices":[{"type":"petrol","price":1.819,"self":true,"updatedAt":"27/06/2026 09:14:04"},{"type":"diesel","price":1.899,"self":true,"updatedAt":"27/06/2026 09:14:04"}]},{"id":"56891","lat":44.84700973133207,"lon":11.531403390287375,"name":"IP","brand":"Itala Petroli","address":"CENTO 59 44124, FERRARA, FE","prices":[{"type":"petrol","price":1.799,"self":true,"updatedAt":"25/06/2026 21:48:40"},{"type":"diesel","price":1.899,"self":true,"updatedAt":"25/06/2026 21:48:40"},{"type":"lpg","price":0.739,"self":false,"updatedAt":"25/06/2026 21:48:40"}]},{"id":"61463","lat":44.84475,"lon":11.64954,"name":"IP Ferrara Caretti","brand":"Api-Ip","address":"LANFRANCO CARETTI 4 44123, FERRARA, FE","prices":[{"type":"petrol","price":1.779,"self":true,"updatedAt":"28/06/2026 01:31:25"},{"type":"diesel","price":1.899,"self":true,"updatedAt":"28/06/2026 01:31:25"}]},{"id":"46090","lat":44.84880592328916,"lon":11.596914143064168,"name":"Metano Ferrara","brand":"Agip Eni","address":"VIA BONGIOVANNI 31 44122, FERRARA, FE","prices":[{"type":"methane","price":1.499,"self":false,"updatedAt":"25/06/2026 18:20:31"}]},{"id":"63001","lat":44.8399879,"lon":11.5893539,"name":"NEW RETE FERRARA ARGINONE","brand":"Esso","address":"Via Arginone 325, FERRARA, FE","prices":[{"type":"petrol","price":1.839,"self":true,"updatedAt":"23/06/2026 09:42:04"},{"type":"diesel","price":1.899,"self":true,"updatedAt":"26/06/2026 18:39:05"},{"type":"methane","price":1.439,"self":false,"updatedAt":"23/06/2026 09:42:04"}]},{"id":"44806","lat":44.790858659265524,"lon":11.57216202858433,"name":"OIL ITALIA FERRARA V.Bologna","brand":"Oil Italia","address":"Via Bologna 790 44100, FERRARA, FE","prices":[{"type":"petrol","price":1.774,"self":true,"updatedAt":"28/06/2026 16:05:05"},{"type":"diesel","price":1.839,"self":true,"updatedAt":"28/06/2026 16:05:05"}]},{"id":"51682","lat":44.8473718943548,"lon":11.58451572060585,"name":"OIL ITALIA FERRARA V.MODENA","brand":"Oil Italia","address":"Via Modena 112 b 44100, FERRARA, FE","prices":[{"type":"petrol","price":1.728,"self":true,"updatedAt":"28/06/2026 16:05:09"},{"type":"diesel","price":1.848,"self":true,"updatedAt":"28/06/2026 16:05:09"}]},{"id":"3464","lat":44.88011856623546,"lon":11.570832944774565,"name":"PO EST","brand":"Api-Ip","address":"Autostrada A13 BOLOGNA-PADOVA, Km. 43+400, dir. Nord - 44100, FERRARA, FE","prices":[{"type":"petrol","price":1.879,"self":true,"updatedAt":"26/06/2026 19:00:20"},{"type":"diesel","price":1.979,"self":true,"updatedAt":"26/06/2026 19:00:21"},{"type":"methane","price":1.549,"self":false,"updatedAt":"26/06/2026 19:00:19"},{"type":"lpg","price":0.899,"self":false,"updatedAt":"26/06/2026 19:00:19"}]},{"id":"37117","lat":44.87888935837351,"lon":11.569385379552841,"name":"PO OVEST","brand":"Api-Ip","address":"Autostrada A13 BOLOGNA-PADOVA,  Km. 43,4, dir. BOLOGNA, FERRARA, FE","prices":[{"type":"petrol","price":1.879,"self":true,"updatedAt":"29/06/2026 05:30:08"},{"type":"diesel","price":1.959,"self":true,"updatedAt":"29/06/2026 05:30:05"},{"type":"methane","price":1.549,"self":false,"updatedAt":"29/06/2026 05:30:06"},{"type":"lpg","price":0.878,"self":false,"updatedAt":"29/06/2026 05:30:08"}]},{"id":"59771","lat":44.848072,"lon":11.58175,"name":"POMPA BIANCA FERRARA VIA TRAVERSAGNO","brand":"Pompe Bianche","address":"TRAVERSAGNO 2 44122, FERRARA, FE","prices":[{"type":"lpg","price":0.759,"self":false,"updatedAt":"29/06/2026 07:30:30"}]},{"id":"63031","lat":44.8533704,"lon":11.6002145,"name":"PV 15847","brand":"Agip Eni","address":"Via Guglielmo Marconi  44122, FERRARA, FE","prices":[{"type":"petrol","price":1.789,"self":true,"updatedAt":"29/06/2026 00:00:16"},{"type":"diesel","price":1.854,"self":true,"updatedAt":"29/06/2026 00:00:16"}]},{"id":"61284","lat":44.82295768022647,"lon":11.635558795949752,"name":"Q8 POLTRONIERIPARO","brand":"Q8","address":"COMACCHIO 120 44124, FERRARA, FE","prices":[{"type":"petrol","price":1.799,"self":true,"updatedAt":"27/06/2026 11:53:15"},{"type":"diesel","price":1.899,"self":true,"updatedAt":"27/06/2026 11:53:15"}]},{"id":"61445","lat":44.857581764878496,"lon":11.613394124404053,"name":"R.Z. SERVIZI S.A.S. DI LALI RAHMAT","brand":"Api-Ip","address":"DELLA CANAPA 133 44122, FERRARA, FE","prices":[{"type":"petrol","price":1.749,"self":true,"updatedAt":"27/06/2026 11:57:04"},{"type":"diesel","price":1.829,"self":true,"updatedAt":"27/06/2026 11:57:04"},{"type":"lpg","price":0.698,"self":false,"updatedAt":"25/06/2026 11:12:06"}]},{"id":"56094","lat":44.84793,"lon":11.59136,"name":"Sprint Gas pv2943","brand":"Q8","address":"MODENA 42 44122, FERRARA, FE","prices":[{"type":"petrol","price":1.789,"self":true,"updatedAt":"26/06/2026 08:30:42"},{"type":"diesel","price":1.859,"self":true,"updatedAt":"26/06/2026 08:30:42"},{"type":"lpg","price":0.739,"self":false,"updatedAt":"26/06/2026 08:30:42"}]},{"id":"31955","lat":44.827634781560114,"lon":11.64266311904908,"name":"Staz.Serv. Eni Greco Anna","brand":"Agip Eni","address":"Via Pomposa 122 44123, FERRARA, FE","prices":[{"type":"petrol","price":1.819,"self":true,"updatedAt":"28/06/2026 01:22:35"},{"type":"diesel","price":1.899,"self":true,"updatedAt":"29/06/2026 07:20:19"}]},{"id":"53314","lat":44.845280947908165,"lon":11.642585876590731,"name":"STAZIONE CR 066","brand":"COIL","address":"COPPARO 86 44123, FERRARA, FE","prices":[{"type":"petrol","price":1.947,"self":true,"updatedAt":"29/06/2026 07:50:26"},{"type":"diesel","price":2.06,"self":true,"updatedAt":"29/06/2026 07:50:26"}]},{"id":"49922","lat":44.817968707872915,"lon":11.606367324536881,"name":"STAZIONE DI SERVIZIO ESSO","brand":"Esso","address":"VIA RICHARD WAGNER 7 44124, FERRARA, FE","prices":[{"type":"petrol","price":1.849,"self":true,"updatedAt":"22/06/2026 19:36:57"},{"type":"diesel","price":1.969,"self":true,"updatedAt":"22/06/2026 19:36:57"}]},{"id":"53867","lat":44.8000780318453,"lon":11.574015266895312,"name":"STAZIONE DI SERVIZIO I.P.","brand":"Api-Ip","address":"BOLOGNA 714 44124, FERRARA, FE","prices":[{"type":"petrol","price":1.799,"self":true,"updatedAt":"26/06/2026 17:31:55"},{"type":"diesel","price":1.869,"self":true,"updatedAt":"26/06/2026 17:31:55"},{"type":"methane","price":1.429,"self":false,"updatedAt":"26/06/2026 17:31:55"}]},{"id":"53315","lat":44.81695102427146,"lon":11.607751212880121,"name":"STAZIONE IP 45509","brand":"Api-Ip","address":"RICHARD WAGNER 14 44124, FERRARA, FE","prices":[{"type":"petrol","price":1.759,"self":true,"updatedAt":"29/06/2026 07:50:34"},{"type":"diesel","price":1.799,"self":true,"updatedAt":"29/06/2026 07:50:34"}]},{"id":"59319","lat":44.77543,"lon":11.57799,"name":"Stazione Servizio Ip Ferrara Loc. Buttifredo","brand":"Api-Ip","address":"BOLOGNA S.S.64 KM133,477 SNC 44124, FERRARA, FE","prices":[{"type":"petrol","price":1.799,"self":true,"updatedAt":"28/06/2026 11:56:54"},{"type":"diesel","price":1.879,"self":true,"updatedAt":"28/06/2026 11:56:52"},{"type":"lpg","price":0.749,"self":false,"updatedAt":"28/06/2026 17:46:41"}]},{"id":"55638","lat":44.82532223569921,"lon":11.670603542822272,"name":"VIA POMPOSA","brand":"Esso","address":"Via Pomposa 242  44123, FERRARA, FE","prices":[{"type":"petrol","price":1.759,"self":true,"updatedAt":"26/06/2026 17:44:36"},{"type":"diesel","price":1.849,"self":true,"updatedAt":"26/06/2026 17:44:36"},{"type":"lpg","price":0.698,"self":false,"updatedAt":"26/06/2026 17:44:36"}]},{"id":"56772","lat":44.77859440920747,"lon":11.541615754663326,"name":"57411","brand":"Agip Eni","address":"Via Ferrara 27/b 44028, POGGIO RENATICO, FE","prices":[{"type":"petrol","price":1.814,"self":true,"updatedAt":"29/06/2026 00:00:43"},{"type":"diesel","price":1.899,"self":true,"updatedAt":"29/06/2026 00:00:43"},{"type":"lpg","price":0.787,"self":false,"updatedAt":"29/06/2026 00:00:43"}]},{"id":"15674","lat":44.84075646743769,"lon":11.50242313128274,"name":"Italiana Petrpli girotti gianfrancesco","brand":"Api-Ip","address":"CENTO 57/A 44049, VIGARANO MAINARDA, FE","prices":[{"type":"petrol","price":1.819,"self":true,"updatedAt":"25/06/2026 18:41:40"},{"type":"diesel","price":1.899,"self":true,"updatedAt":"25/06/2026 18:41:40"}]},{"id":"56394","lat":44.78322317231824,"lon":11.736384916657403,"name":"IP GUALDO DI VOGHIERA","brand":"Api-Ip","address":"Via Martiri della Libertà Fraz. Gualdo 125 44019, VOGHIERA, FE","prices":[{"type":"petrol","price":1.789,"self":true,"updatedAt":"29/06/2026 00:17:15"},{"type":"diesel","price":1.799,"self":true,"updatedAt":"29/06/2026 00:17:15"}]},{"id":"12657","lat":44.7608721272858,"lon":11.747222542762756,"name":"tamoil","brand":"Tamoil","address":"Via Provinciale 110 44019, VOGHIERA, FE","prices":[{"type":"petrol","price":1.799,"self":true,"updatedAt":"29/06/2026 00:40:28"}]},{"id":"60628","lat":44.992743,"lon":11.507427,"name":"BAGNOLO DI PO","brand":"Pompe Bianche","address":"Via Stradone Runzi SNC 45022, BAGNOLO DI PO, RO","prices":[{"type":"petrol","price":1.644,"self":true,"updatedAt":"29/06/2026 00:40:36"},{"type":"diesel","price":1.584,"self":true,"updatedAt":"29/06/2026 00:40:36"},{"type":"lpg","price":0.619,"self":false,"updatedAt":"29/06/2026 00:40:36"}]},{"id":"45517","lat":44.919832447486236,"lon":11.672178388885527,"name":"EASY SERVICE S.R.L. / CANARO","brand":"Energas","address":"VIA NAZIONALE 1403 45034, CANARO, RO","prices":[{"type":"petrol","price":1.794,"self":true,"updatedAt":"29/06/2026 00:35:25"},{"type":"diesel","price":1.894,"self":true,"updatedAt":"29/06/2026 00:35:25"},{"type":"lpg","price":0.739,"self":false,"updatedAt":"29/06/2026 00:35:25"}]},{"id":"23007","lat":44.953400290996946,"lon":11.617972254753113,"name":"Mora Fratelli di Mora Stefano & C. S.n.c.","brand":"Pompe Bianche","address":"VIA S.P. N.60 KM 1+410 SN 45024, FIESSO UMBERTIANO, RO","prices":[{"type":"petrol","price":1.758,"self":true,"updatedAt":"24/06/2026 10:47:21"},{"type":"diesel","price":1.838,"self":true,"updatedAt":"24/06/2026 10:47:21"},{"type":"lpg","price":0.728,"self":false,"updatedAt":"24/06/2026 10:47:21"}]},{"id":"55633","lat":44.9110388649124,"lon":11.602986940335084,"name":"A.F. PETROLI S.P.A. - OCCHIOBELLO","brand":"AF Petroli","address":"ERIDANIA 111/G 45030, OCCHIOBELLO, RO","prices":[{"type":"petrol","price":1.727,"self":true,"updatedAt":"26/06/2026 16:10:48"},{"type":"diesel","price":1.845,"self":true,"updatedAt":"26/06/2026 16:10:48"},{"type":"methane","price":1.599,"self":false,"updatedAt":"26/06/2026 16:10:48"},{"type":"lpg","price":0.719,"self":false,"updatedAt":"26/06/2026 16:10:48"}]},{"id":"59503","lat":44.8993383,"lon":11.6034084,"name":"ENI STATION","brand":"Agip Eni","address":"Via Eridania 161  45030, OCCHIOBELLO, RO","prices":[{"type":"petrol","price":1.824,"self":true,"updatedAt":"28/06/2026 23:36:54"},{"type":"diesel","price":1.904,"self":true,"updatedAt":"28/06/2026 23:36:54"}]},{"id":"34878","lat":44.92503964568342,"lon":11.583856350926226,"name":"ESSO","brand":"Esso","address":"VIA ERIDANIA 12 45030, OCCHIOBELLO, RO","prices":[{"type":"petrol","price":1.735,"self":true,"updatedAt":"27/06/2026 07:40:10"},{"type":"diesel","price":1.855,"self":true,"updatedAt":"27/06/2026 07:40:10"}]},{"id":"19427","lat":44.91061478574315,"lon":11.606335506082132,"name":"ROMANIN PETROLI","brand":"Pompe Bianche","address":"VIA PIACENTINA 12 45030, OCCHIOBELLO, RO","prices":[{"type":"petrol","price":1.727,"self":true,"updatedAt":"28/06/2026 23:58:24"},{"type":"diesel","price":1.845,"self":true,"updatedAt":"28/06/2026 23:58:24"},{"type":"lpg","price":0.688,"self":false,"updatedAt":"28/06/2026 23:58:24"}]},{"id":"48794","lat":44.9662309792071,"lon":11.746638704654297,"name":"Polesella","brand":"Esso","address":"16 Adriatica, Km. 55, n - 45038, POLESELLA, RO","prices":[{"type":"petrol","price":1.869,"self":true,"updatedAt":"29/06/2026 07:13:17"},{"type":"diesel","price":1.969,"self":true,"updatedAt":"29/06/2026 07:13:17"}]},{"id":"62279","lat":44.93966807599833,"lon":11.548181687555314,"name":"BC STIENTA","brand":"BC","address":"ERIDANIA 1450 45039, STIENTA, RO","prices":[{"type":"petrol","price":1.844,"self":true,"updatedAt":"29/06/2026 00:31:56"},{"type":"diesel","price":1.868,"self":true,"updatedAt":"29/06/2026 00:31:56"}]},{"id":"43929","lat":44.93911826171957,"lon":11.548366286542432,"name":"guratti stienta","brand":"Api-Ip","address":"VIA ERIDANIA 1347 45039, STIENTA, RO","prices":[{"type":"petrol","price":1.979,"self":true,"updatedAt":"26/06/2026 09:58:31"},{"type":"diesel","price":1.909,"self":true,"updatedAt":"26/06/2026 09:58:31"}]},{"id":"60611","lat":44.9393709,"lon":11.5482162,"name":"STIENTA","brand":"Pompe Bianche","address":"Via Eridania 2094  45039, STIENTA, RO","prices":[{"type":"petrol","price":1.665,"self":true,"updatedAt":"28/06/2026 23:57:23"},{"type":"diesel","price":1.594,"self":true,"updatedAt":"28/06/2026 23:57:23"}]}]