[{"id":"49374","lat":44.97128498793574,"lon":10.035388291401665,"name":"3000","brand":"Q8","address":"Via Circonvallazione sn 43011, BUSSETO, PR","prices":[{"type":"petrol","price":1.819,"self":true,"updatedAt":"29/06/2026 00:28:36"},{"type":"diesel","price":1.919,"self":true,"updatedAt":"29/06/2026 00:28:36"},{"type":"lpg","price":0.799,"self":false,"updatedAt":"29/06/2026 00:28:36"}]},{"id":"32045","lat":44.972726278336104,"lon":10.04398226737976,"name":"Antozzi Gianni snc","brand":"Tamoil","address":"VIA CONSOLATICO SUPERIORE 89A/90 43011, BUSSETO, PR","prices":[{"type":"petrol","price":1.789,"self":true,"updatedAt":"28/06/2026 23:40:25"},{"type":"diesel","price":1.899,"self":true,"updatedAt":"28/06/2026 23:40:25"},{"type":"lpg","price":0.799,"self":false,"updatedAt":"29/06/2026 07:18:06"}]},{"id":"20448","lat":44.98100102763328,"lon":10.039712273645364,"name":"ORSI PETROLI","brand":"Pompe Bianche","address":"VIA PAGANINI 19 43011, BUSSETO, PR","prices":[{"type":"petrol","price":1.829,"self":true,"updatedAt":"23/06/2026 09:06:18"},{"type":"diesel","price":1.949,"self":true,"updatedAt":"23/06/2026 09:06:18"}]},{"id":"30592","lat":44.95263255424046,"lon":10.071712093254064,"name":"TACCHINI CARBURANTI","brand":"Pompe Bianche","address":"VIA TOSCANINI 63 43011, BUSSETO, PR","prices":[{"type":"petrol","price":1.759,"self":true,"updatedAt":"27/06/2026 11:41:12"}]},{"id":"24324","lat":44.75361277756582,"lon":10.226724696464544,"name":"IP","brand":"Api-Ip","address":"VIA NAZIONALE EST 3 43044, COLLECCHIO, PR","prices":[{"type":"petrol","price":1.799,"self":true,"updatedAt":"26/06/2026 09:07:36"},{"type":"diesel","price":1.879,"self":true,"updatedAt":"26/06/2026 09:07:36"}]},{"id":"5603","lat":44.757701797500964,"lon":10.228401571512222,"name":"IPER CARBURANTI","brand":"Pompe Bianche","address":"Statale 62 della Cisa, Km. 107, dir. Fornovo di Taro - 43044, COLLECCHIO, PR","prices":[{"type":"petrol","price":1.799,"self":true,"updatedAt":"29/06/2026 00:43:04"},{"type":"diesel","price":1.869,"self":true,"updatedAt":"29/06/2026 00:43:04"},{"type":"lpg","price":0.799,"self":false,"updatedAt":"29/06/2026 00:43:04"}]},{"id":"58976","lat":44.7630887,"lon":10.2470966,"name":"PV3004","brand":"Q8","address":"Str. Nazionale Est 15 43044, COLLECCHIO, PR","prices":[{"type":"petrol","price":1.799,"self":true,"updatedAt":"29/06/2026 00:29:13"},{"type":"diesel","price":1.869,"self":true,"updatedAt":"28/06/2026 01:27:06"},{"type":"lpg","price":0.799,"self":false,"updatedAt":"29/06/2026 00:29:13"}]},{"id":"47877","lat":44.84409825775498,"lon":10.018209976942035,"name":"COIL - PONTE GHIARA","brand":"COIL","address":"PONTE GHIARA  14 43036, FIDENZA, PR","prices":[{"type":"petrol","price":1.797,"self":true,"updatedAt":"29/06/2026 00:04:26"},{"type":"diesel","price":1.845,"self":true,"updatedAt":"29/06/2026 00:04:26"}]},{"id":"58753","lat":44.8757605476027,"lon":10.028302641793813,"name":"COIL FIDENZA","brand":"COIL","address":"SS9  43036, FIDENZA, PR","prices":[{"type":"petrol","price":1.795,"self":true,"updatedAt":"28/06/2026 23:45:52"},{"type":"diesel","price":1.844,"self":true,"updatedAt":"28/06/2026 23:45:52"}]},{"id":"59165","lat":44.8622014,"lon":10.0607341,"name":"COIL METANO","brand":"COIL","address":"XXIV MAGGIO 30 43036, FIDENZA, PR","prices":[{"type":"methane","price":1.427,"self":false,"updatedAt":"29/06/2026 00:44:09"},{"type":"lpg","price":0.787,"self":false,"updatedAt":"29/06/2026 00:44:09"}]},{"id":"49943","lat":44.867424787090954,"lon":10.054233641647027,"name":"distributore IP 46676","brand":"Api-Ip","address":"VIA F.GRAMIZZI 3 43036, FIDENZA, PR","prices":[{"type":"petrol","price":1.939,"self":true,"updatedAt":"26/06/2026 13:06:49"},{"type":"diesel","price":2.019,"self":true,"updatedAt":"26/06/2026 13:06:49"}]},{"id":"55118","lat":44.8692224,"lon":10.043392,"name":"EH24","brand":"Pompe Bianche","address":"PIETRO ABATE ZANI 63 43036, FIDENZA, PR","prices":[{"type":"petrol","price":1.819,"self":true,"updatedAt":"27/06/2026 21:30:06"},{"type":"diesel","price":1.899,"self":true,"updatedAt":"27/06/2026 21:30:06"},{"type":"lpg","price":0.799,"self":false,"updatedAt":"27/06/2026 21:30:06"}]},{"id":"43838","lat":44.86046897018696,"lon":10.078605265669466,"name":"eni 02970","brand":"Agip Eni","address":"via XXIV maggio 41/A 43036, FIDENZA, PR","prices":[{"type":"petrol","price":1.829,"self":true,"updatedAt":"28/06/2026 00:58:45"},{"type":"diesel","price":1.899,"self":true,"updatedAt":"28/06/2026 00:58:45"}]},{"id":"25065","lat":44.870202996722085,"lon":10.075187087059021,"name":"EXPRESS CAFE' S.N.C. DI MAESTRI CLAUDIA &C.","brand":"Esso","address":"tangenziale nord  43036, FIDENZA, PR","prices":[{"type":"petrol","price":1.799,"self":true,"updatedAt":"29/06/2026 07:24:39"},{"type":"diesel","price":1.879,"self":true,"updatedAt":"29/06/2026 07:24:39"}]},{"id":"34272","lat":44.86812471259579,"lon":10.053738892030651,"name":"FIDENZA - ABATE PIETRO ZANI 53","brand":"Api-Ip","address":"VIA ABATE PIETRO ZANI 53 43036, FIDENZA, PR","prices":[{"type":"petrol","price":1.809,"self":true,"updatedAt":"28/06/2026 09:01:21"},{"type":"diesel","price":1.899,"self":true,"updatedAt":"28/06/2026 09:01:21"}]},{"id":"11780","lat":44.86160913058338,"lon":10.069310321426428,"name":"FIDENZA-VIA 24 MAGGIO 31","brand":"Q8","address":"VIA 24 MAGGIO 31 43036, FIDENZA, PR","prices":[{"type":"petrol","price":1.819,"self":true,"updatedAt":"27/06/2026 07:41:34"},{"type":"diesel","price":1.899,"self":true,"updatedAt":"27/06/2026 07:41:34"}]},{"id":"57403","lat":44.86075245662873,"lon":10.080310202476177,"name":"IP FIDENZA","brand":"Italiana Carburanti","address":"MARTIRI DELLA LIBERTA' 72 43036, FIDENZA, PR","prices":[{"type":"petrol","price":1.849,"self":true,"updatedAt":"26/06/2026 10:54:22"},{"type":"diesel","price":1.899,"self":true,"updatedAt":"26/06/2026 10:54:22"}]},{"id":"35359","lat":44.87066198231854,"lon":10.075253440475535,"name":"LV Mangia","brand":"Vignetti","address":"Statale 9 Via Emilia, Km. 0,7, dir. Nord - 43036, FIDENZA, PR","prices":[{"type":"petrol","price":1.785,"self":true,"updatedAt":"26/06/2026 15:18:04"},{"type":"diesel","price":1.875,"self":true,"updatedAt":"26/06/2026 15:18:04"}]},{"id":"51695","lat":44.859637939876556,"lon":10.077285886508175,"name":"METANO FIDENZA","brand":"Api-Ip","address":"VIA XXIV MAGGIO 30 43036, FIDENZA, PR","prices":[{"type":"petrol","price":1.799,"self":true,"updatedAt":"29/06/2026 07:06:06"},{"type":"diesel","price":1.889,"self":true,"updatedAt":"28/06/2026 00:52:19"}]},{"id":"4840","lat":44.857318396097796,"lon":10.092020630836487,"name":"Q8","brand":"Q8","address":"Statale 9 Via Emilia, Km. 221, dir. Fidenza - 43036, FIDENZA, PR","prices":[{"type":"petrol","price":1.799,"self":true,"updatedAt":"27/06/2026 07:41:17"},{"type":"diesel","price":1.889,"self":true,"updatedAt":"27/06/2026 07:41:17"},{"type":"lpg","price":0.789,"self":false,"updatedAt":"27/06/2026 07:41:17"}]},{"id":"59126","lat":44.8763984,"lon":10.0837141,"name":"SOCOGAS RETE FIDENZA SAN MICHELE PV 22973","brand":"Agip Eni","address":"S.P. PER SORAGNA KM 1+840  43036, FIDENZA, PR","prices":[{"type":"petrol","price":1.829,"self":true,"updatedAt":"28/06/2026 01:38:17"},{"type":"diesel","price":1.894,"self":true,"updatedAt":"29/06/2026 07:46:11"},{"type":"lpg","price":0.789,"self":false,"updatedAt":"28/06/2026 00:59:25"}]},{"id":"6977","lat":44.88263474974469,"lon":10.085434822643492,"name":"STAZIONE ESSO DI BROGGI ALESSANDRO","brand":"Esso","address":"VIA SAN MICHELE CAMPAGNA  43036, FIDENZA, PR","prices":[{"type":"petrol","price":1.789,"self":true,"updatedAt":"29/06/2026 07:23:20"},{"type":"diesel","price":1.859,"self":true,"updatedAt":"29/06/2026 07:23:20"}]},{"id":"4203","lat":44.8865805,"lon":10.1647217,"name":"Eni Calzetti Cristian","brand":"Agip Eni","address":"Variante di Fontanellato  43012, FONTANELLATO, PR","prices":[{"type":"petrol","price":1.867,"self":true,"updatedAt":"28/06/2026 01:04:20"},{"type":"diesel","price":1.904,"self":true,"updatedAt":"29/06/2026 07:38:11"},{"type":"lpg","price":0.789,"self":false,"updatedAt":"29/06/2026 07:38:11"}]},{"id":"34958","lat":44.83138486943245,"lon":10.185222029685974,"name":"1405","brand":"Tamoil","address":"S.S. 9 EMILIA KM 214-684 - 43010, FONTEVIVO, PR","prices":[{"type":"petrol","price":1.779,"self":true,"updatedAt":"29/06/2026 00:13:28"},{"type":"diesel","price":1.849,"self":true,"updatedAt":"29/06/2026 00:13:28"}]},{"id":"29857","lat":44.859814972246625,"lon":10.173564478754997,"name":"DISTRIBUTORI IP","brand":"Api-Ip","address":"Strada Provinciale per Busseto  163/a 43010, FONTEVIVO, PR","prices":[{"type":"petrol","price":1.819,"self":true,"updatedAt":"24/06/2026 12:03:05"},{"type":"diesel","price":1.899,"self":true,"updatedAt":"24/06/2026 12:03:05"}]},{"id":"15373","lat":44.844716554042634,"lon":10.230232179164886,"name":"Metis s.a.s di pini e Zappia","brand":"Agip Eni","address":"UNIONE EUROPEA 3 43010, FONTEVIVO, PR","prices":[{"type":"petrol","price":1.784,"self":true,"updatedAt":"28/06/2026 23:21:40"},{"type":"diesel","price":1.839,"self":true,"updatedAt":"29/06/2026 06:50:14"}]},{"id":"63239","lat":44.7593878,"lon":10.1409214,"name":"Medesano - Via Roma","brand":"Api-Ip","address":"via Roma  74/b 43014, MEDESANO, PR","prices":[{"type":"petrol","price":1.789,"self":true,"updatedAt":"28/06/2026 09:01:10"},{"type":"diesel","price":1.859,"self":true,"updatedAt":"28/06/2026 09:01:10"}]},{"id":"53596","lat":44.823691249321975,"lon":10.21849550306797,"name":"52438 eni","brand":"Agip Eni","address":"NAZIONALE EMILIA 10 43015, NOCETO, PR","prices":[{"type":"petrol","price":1.829,"self":true,"updatedAt":"28/06/2026 01:20:11"},{"type":"diesel","price":1.899,"self":true,"updatedAt":"28/06/2026 01:20:11"}]},{"id":"36413","lat":44.80425345463018,"lon":10.177301466464996,"name":"ENI","brand":"Agip Eni","address":"VIA  DON  MINZONI   33 43015, NOCETO, PR","prices":[{"type":"petrol","price":1.829,"self":true,"updatedAt":"29/06/2026 00:24:17"},{"type":"diesel","price":1.889,"self":true,"updatedAt":"29/06/2026 00:24:17"},{"type":"methane","price":1.589,"self":false,"updatedAt":"29/06/2026 00:24:17"}]},{"id":"27115","lat":44.840345651649855,"lon":10.153849862243646,"name":"IPER CARBURANTI","brand":"Pompe Bianche","address":"Statale 9 Via Emilia, Km. 217+300, dir. Parma - 43015, NOCETO, PR","prices":[{"type":"petrol","price":1.799,"self":true,"updatedAt":"28/06/2026 01:30:16"},{"type":"diesel","price":1.869,"self":true,"updatedAt":"28/06/2026 01:30:16"},{"type":"lpg","price":0.799,"self":false,"updatedAt":"28/06/2026 23:41:01"}]},{"id":"61643","lat":44.8122141,"lon":10.1794585,"name":"Noceto","brand":"Api-Ip","address":"MATTEOTTI 35 43015, NOCETO, PR","prices":[{"type":"petrol","price":1.799,"self":true,"updatedAt":"28/06/2026 09:15:57"},{"type":"diesel","price":1.869,"self":true,"updatedAt":"28/06/2026 09:15:57"}]},{"id":"17253","lat":44.82547456463479,"lon":10.20974412560463,"name":"PUNTO V. 5739 RICCARDI LINO, SERGIO E C. - S.N.C.","brand":"Vignetti","address":"VIA  EMILIA 38/BIS 43015, NOCETO, PR","prices":[{"type":"petrol","price":1.827,"self":true,"updatedAt":"25/06/2026 17:28:39"},{"type":"diesel","price":1.867,"self":true,"updatedAt":"25/06/2026 17:28:39"}]},{"id":"36521","lat":44.81912151355861,"lon":10.240346118807793,"name":"V","brand":"Vignetti","address":"VIA EMILIA OVEST 214/A 43126, PARMA, PR","prices":[{"type":"petrol","price":1.779,"self":true,"updatedAt":"27/06/2026 13:21:06"},{"type":"diesel","price":1.865,"self":true,"updatedAt":"27/06/2026 13:21:06"},{"type":"lpg","price":0.789,"self":false,"updatedAt":"27/06/2026 13:21:06"}]},{"id":"60687","lat":44.98866774498974,"lon":10.20727060176097,"name":"COIL ROCCABIANCA","brand":"COIL","address":"S.P. 10 km 25+365, Località Mano  43010, ROCCABIANCA, PR","prices":[{"type":"petrol","price":1.779,"self":true,"updatedAt":"28/06/2026 01:16:05"},{"type":"diesel","price":1.859,"self":true,"updatedAt":"28/06/2026 01:16:05"},{"type":"lpg","price":0.765,"self":false,"updatedAt":"28/06/2026 23:37:17"}]},{"id":"10654","lat":44.99488681866562,"lon":10.204740464687347,"name":"ENI di Agnani Manrico","brand":"Agip Eni","address":"via Provinciale 89bis  43010, ROCCABIANCA, PR","prices":[{"type":"petrol","price":1.814,"self":true,"updatedAt":"28/06/2026 00:53:35"},{"type":"diesel","price":1.874,"self":true,"updatedAt":"29/06/2026 07:14:42"}]},{"id":"50338","lat":44.821012450411445,"lon":10.002596821701797,"name":"SA.BU.","brand":"Q8","address":"VIA SALVO D'ACQUISTO 47 43039, SALSOMAGGIORE TERME, PR","prices":[{"type":"methane","price":1.499,"self":false,"updatedAt":"27/06/2026 08:55:01"},{"type":"lpg","price":0.799,"self":false,"updatedAt":"27/06/2026 08:55:01"}]},{"id":"33182","lat":44.82111186968756,"lon":10.00303030014038,"name":"SALSOMAGGIORE VIA SALVO D'ACQUISTO","brand":"Q8","address":"VIA SALVO D'ACQUISTO  43039, SALSOMAGGIORE TERME, PR","prices":[{"type":"petrol","price":1.818,"self":true,"updatedAt":"27/06/2026 01:40:42"},{"type":"diesel","price":1.828,"self":true,"updatedAt":"27/06/2026 01:40:42"}]},{"id":"44964","lat":44.922156000123,"lon":10.231538000123,"name":"DISTR. CARB. S.S.PARMENSE","brand":"Api-Ip","address":"MATTEOTTI 49 43017, SAN SECONDO PARMENSE, PR","prices":[{"type":"petrol","price":1.797,"self":true,"updatedAt":"25/06/2026 12:23:25"},{"type":"diesel","price":1.877,"self":true,"updatedAt":"25/06/2026 12:23:25"}]},{"id":"18266","lat":44.91803654650038,"lon":10.247738286852837,"name":"ENI 22975","brand":"Agip Eni","address":"Strada Provinciale per Parma 10 43017, SAN SECONDO PARMENSE, PR","prices":[{"type":"petrol","price":1.825,"self":true,"updatedAt":"28/06/2026 01:28:06"},{"type":"diesel","price":1.894,"self":true,"updatedAt":"28/06/2026 01:28:06"},{"type":"lpg","price":0.762,"self":false,"updatedAt":"28/06/2026 01:28:06"}]},{"id":"13496","lat":44.926998545784144,"lon":10.118291527032852,"name":"Pastori Romana","brand":"Agip Eni","address":"VIA VOLTA 12 43019, SORAGNA, PR","prices":[{"type":"petrol","price":1.819,"self":true,"updatedAt":"28/06/2026 00:59:12"},{"type":"diesel","price":1.889,"self":true,"updatedAt":"29/06/2026 07:46:09"}]},{"id":"35404","lat":44.950256110155,"lon":10.141915082931519,"name":"TAMOIL","brand":"Tamoil","address":"LOC. DIOLO 59 43019, SORAGNA, PR","prices":[{"type":"petrol","price":1.819,"self":true,"updatedAt":"24/06/2026 12:04:15"},{"type":"diesel","price":1.899,"self":true,"updatedAt":"24/06/2026 12:04:15"}]}]