[{"id":"58281","lat":44.904156,"lon":11.810068,"name":"57304 COPPARO","brand":"Agip Eni","address":"VIALE PO 114, COPPARO, FE","prices":[{"type":"petrol","price":1.809,"self":true,"updatedAt":"22/06/2026 23:50:58"},{"type":"diesel","price":1.919,"self":true,"updatedAt":"22/06/2026 23:50:58"},{"type":"lpg","price":0.777,"self":false,"updatedAt":"22/06/2026 23:50:58"}]},{"id":"45026","lat":44.880049108051196,"lon":11.765405135582,"name":"8966","brand":"Tamoil","address":"PRIMICELLO 85-87 44034, COPPARO, FE","prices":[{"type":"petrol","price":1.929,"self":true,"updatedAt":"22/06/2026 10:48:05"},{"type":"diesel","price":1.999,"self":true,"updatedAt":"22/06/2026 10:48:05"}]},{"id":"35166","lat":44.90913847845446,"lon":11.913680027508576,"name":"DALL'ARA S.A.S.","brand":"Pompe Bianche","address":"VIA SAN CARLO 88 44034, COPPARO, FE","prices":[{"type":"petrol","price":1.76,"self":false,"updatedAt":"18/06/2026 18:55:35"},{"type":"diesel","price":1.86,"self":false,"updatedAt":"18/06/2026 18:55:35"}]},{"id":"56970","lat":44.88377607691106,"lon":11.817396081593715,"name":"DANY METANO S.R.L.S","brand":"Metano Copparo","address":"DEL LAVORO 38 44034, COPPARO, FE","prices":[{"type":"methane","price":1.399,"self":false,"updatedAt":"18/06/2026 11:27:40"}]},{"id":"14077","lat":44.92286615441703,"lon":11.873250289677799,"name":"IP Colla Alessandro","brand":"Api-Ip","address":"VIA CAVALLARI 19 44030, COPPARO, FE","prices":[{"type":"petrol","price":1.799,"self":true,"updatedAt":"20/06/2026 07:13:28"},{"type":"diesel","price":1.899,"self":true,"updatedAt":"20/06/2026 07:13:28"}]},{"id":"4796","lat":44.89086776976342,"lon":11.815255433321,"name":"OIL ITALIA COPPARO","brand":"Oil Italia","address":"VIA IDRIS RICCI 113 44034, COPPARO, FE","prices":[{"type":"petrol","price":1.837,"self":true,"updatedAt":"22/06/2026 16:05:04"},{"type":"diesel","price":1.937,"self":true,"updatedAt":"22/06/2026 16:05:04"}]},{"id":"56275","lat":44.8893385952185,"lon":11.8021093331511,"name":"SHELL COPPARO VIA PRIMICELLO N. 59 (SP FERRARA-COPPARO KM 15+850)","brand":"Shell","address":"PRIMICELLO 59 44034, COPPARO, FE","prices":[{"type":"petrol","price":1.819,"self":true,"updatedAt":"23/06/2026 07:29:10"},{"type":"diesel","price":1.919,"self":true,"updatedAt":"23/06/2026 07:29:10"},{"type":"lpg","price":0.749,"self":false,"updatedAt":"23/06/2026 07:29:10"}]},{"id":"4328","lat":44.88934909604181,"lon":11.80591195821762,"name":"Stazione di Servizio Campi s.n.c","brand":"Agip Eni","address":"via Primicello 26 44034, COPPARO, FE","prices":[{"type":"petrol","price":1.864,"self":true,"updatedAt":"22/06/2026 23:35:16"},{"type":"diesel","price":1.994,"self":true,"updatedAt":"22/06/2026 23:35:16"}]},{"id":"59281","lat":44.88614,"lon":11.8371,"name":"Stazione Servizio Ip Copparo loc.Gradizza","brand":"Api-Ip","address":"PROVINCIALE PER FORMIGNANA 20 44034, COPPARO, FE","prices":[{"type":"petrol","price":1.819,"self":true,"updatedAt":"22/06/2026 10:39:48"},{"type":"diesel","price":1.919,"self":true,"updatedAt":"22/06/2026 10:39:49"},{"type":"lpg","price":0.749,"self":false,"updatedAt":"22/06/2026 16:46:46"}]},{"id":"13584","lat":44.82523714757863,"lon":11.781651377677917,"name":"BAR RIO D'ORO","brand":"Api-Ip","address":"VIA POMPOSA 458 44020, FERRARA, FE","prices":[{"type":"petrol","price":1.799,"self":true,"updatedAt":"20/06/2026 16:16:35"},{"type":"diesel","price":1.899,"self":true,"updatedAt":"20/06/2026 16:16:35"}]},{"id":"56797","lat":44.80635079737682,"lon":11.867634281515755,"name":"BEYFIN","brand":"Beyfin","address":"POMPOSA 537 44123, FERRARA, FE","prices":[{"type":"petrol","price":1.829,"self":true,"updatedAt":"22/06/2026 07:27:07"},{"type":"diesel","price":1.909,"self":true,"updatedAt":"22/06/2026 07:27:07"},{"type":"lpg","price":0.739,"self":false,"updatedAt":"22/06/2026 07:27:07"}]},{"id":"63238","lat":44.7998567,"lon":11.9731556,"name":"Fiscaglia - Frazione Migliaro","brand":"Api-Ip","address":"Via Ludovico Ariosto 104  44027, FISCAGLIA, FE","prices":[{"type":"petrol","price":1.799,"self":true,"updatedAt":"22/06/2026 09:01:17"},{"type":"diesel","price":1.899,"self":true,"updatedAt":"22/06/2026 09:01:17"}]},{"id":"61753","lat":44.78858920803889,"lon":11.961806803802588,"name":"SMP MIGLIARO","brand":"San Marco Petroli","address":"Via S. Margherita 4  44020, FISCAGLIA, FE","prices":[{"type":"petrol","price":1.799,"self":true,"updatedAt":"22/06/2026 18:56:04"},{"type":"diesel","price":1.899,"self":true,"updatedAt":"22/06/2026 18:56:04"},{"type":"lpg","price":0.725,"self":false,"updatedAt":"23/06/2026 00:14:32"}]},{"id":"12070","lat":44.842367094746564,"lon":11.851066946983337,"name":"GRANDI MARCO","brand":"Api-Ip","address":"VIA PROV.LE COPPARO-MIGLIARINO 71 44035, FORMIGNANA, FE","prices":[{"type":"petrol","price":1.859,"self":true,"updatedAt":"22/06/2026 19:30:58"},{"type":"diesel","price":1.899,"self":true,"updatedAt":"22/06/2026 19:30:58"},{"type":"lpg","price":0.729,"self":false,"updatedAt":"22/06/2026 19:30:58"}]},{"id":"60028","lat":44.81579857625995,"lon":11.923917528419494,"name":"Distributore IP Jolanda di Savoia","brand":"Api-Ip","address":"Via del Mare 1B  44037, JOLANDA DI SAVOIA, FE","prices":[{"type":"petrol","price":1.799,"self":true,"updatedAt":"22/06/2026 11:48:29"},{"type":"diesel","price":1.949,"self":true,"updatedAt":"22/06/2026 11:48:29"},{"type":"methane","price":1.349,"self":false,"updatedAt":"22/06/2026 11:48:29"},{"type":"lpg","price":0.729,"self":false,"updatedAt":"22/06/2026 11:48:29"}]},{"id":"52038","lat":44.88163713789073,"lon":11.977486381614654,"name":"POZZATI DENNJ","brand":"Api-Ip","address":"VIA CAVICCHINI 1 44037, JOLANDA DI SAVOIA, FE","prices":[{"type":"petrol","price":1.849,"self":true,"updatedAt":"22/06/2026 18:59:47"},{"type":"diesel","price":1.949,"self":true,"updatedAt":"22/06/2026 18:59:47"}]},{"id":"58285","lat":44.796062411658006,"lon":11.79258406162262,"name":"TAMOIL Masi Torello","brand":"Tamoil","address":"ADRIATICO 145/C 44020, MASI TORELLO, FE","prices":[{"type":"petrol","price":1.819,"self":true,"updatedAt":"22/06/2026 13:36:55"},{"type":"diesel","price":1.919,"self":true,"updatedAt":"22/06/2026 13:36:57"}]},{"id":"54212","lat":44.7741952,"lon":11.9242752,"name":"Zattoni Barbara","brand":"Api-Ip","address":"GARIBALDI 136/A 44020, OSTELLATO, FE","prices":[{"type":"petrol","price":1.799,"self":true,"updatedAt":"22/06/2026 17:16:33"},{"type":"diesel","price":1.899,"self":true,"updatedAt":"22/06/2026 17:16:33"}]},{"id":"5653","lat":44.93601591901654,"lon":11.76409363746643,"name":"LORO F.LLI SPA - RO FERRARESE","brand":"Loro","address":"PROVINCIALE 30 44033, RIVA DEL PO, FE","prices":[{"type":"petrol","price":1.839,"self":true,"updatedAt":"22/06/2026 09:04:36"},{"type":"diesel","price":1.939,"self":true,"updatedAt":"22/06/2026 09:04:36"}]},{"id":"57508","lat":44.9690716,"lon":11.9611223,"name":"pv 5858","brand":"Agip Eni","address":"Via Brusantina P. snc 44033, RIVA DEL PO, FE","prices":[{"type":"petrol","price":1.809,"self":true,"updatedAt":"22/06/2026 23:50:43"},{"type":"diesel","price":1.899,"self":true,"updatedAt":"22/06/2026 23:50:43"},{"type":"lpg","price":0.767,"self":false,"updatedAt":"22/06/2026 23:50:43"}]},{"id":"61633","lat":44.81226657882493,"lon":11.883829217998235,"name":"LORO F.LLI SPA - TRESIGNANA 1","brand":"Loro","address":"DEL MARE 6 44039, TRESIGNANA, FE","prices":[{"type":"petrol","price":1.849,"self":true,"updatedAt":"22/06/2026 09:04:48"},{"type":"diesel","price":1.929,"self":true,"updatedAt":"22/06/2026 09:04:48"}]},{"id":"60619","lat":44.9881841,"lon":11.7606948,"name":"BOSARO","brand":"Pompe Bianche","address":"Via Nazionale SNC 45033, BOSARO, RO","prices":[{"type":"petrol","price":1.639,"self":true,"updatedAt":"23/06/2026 00:14:21"},{"type":"diesel","price":1.573,"self":true,"updatedAt":"23/06/2026 00:14:21"}]},{"id":"52746","lat":44.984257809792695,"lon":11.760351955890656,"name":"TROMBETTA SAS DI TROMBETTA MILCO E TROMBETTA LAURA & C.","brand":"Pompe Bianche","address":"NAZIONALE 1979 45033, BOSARO, RO","prices":[{"type":"petrol","price":1.869,"self":true,"updatedAt":"23/06/2026 07:04:38"},{"type":"diesel","price":1.969,"self":true,"updatedAt":"23/06/2026 07:04:38"},{"type":"methane","price":1.544,"self":false,"updatedAt":"23/06/2026 07:04:38"},{"type":"lpg","price":0.779,"self":false,"updatedAt":"23/06/2026 07:04:38"}]},{"id":"29016","lat":44.980721072405075,"lon":11.79957389831543,"name":"LORO F.LLI SPA - GUARDA VENETA","brand":"Loro","address":"S.P. 33 KM 10+900  45030, GUARDA VENETA, RO","prices":[{"type":"petrol","price":1.839,"self":true,"updatedAt":"22/06/2026 09:04:55"},{"type":"diesel","price":1.939,"self":true,"updatedAt":"22/06/2026 09:04:55"}]},{"id":"23889","lat":44.9730139782212,"lon":11.75534595106501,"name":"ENI","brand":"Agip Eni","address":"STATALE  16 1057/B 45038, POLESELLA, RO","prices":[{"type":"petrol","price":1.829,"self":true,"updatedAt":"22/06/2026 23:29:59"},{"type":"diesel","price":1.919,"self":true,"updatedAt":"22/06/2026 23:29:59"}]},{"id":"29006","lat":44.99206586184508,"lon":11.958320438861847,"name":"LORO F.LLI SPA - VILLANOVA MARCHESANA","brand":"Loro","address":"S.P. 33 KM 10+900  45030, VILLANOVA MARCHESANA, RO","prices":[{"type":"petrol","price":1.839,"self":true,"updatedAt":"22/06/2026 09:06:26"},{"type":"diesel","price":1.939,"self":true,"updatedAt":"22/06/2026 09:06:26"},{"type":"lpg","price":0.759,"self":false,"updatedAt":"22/06/2026 09:06:26"}]}]