[{"id":"29870","lat":44.931548490179296,"lon":10.613615816796937,"name":"F.LLI CINI ads ENI","brand":"Agip Eni","address":"VIA PROVINCIALE SUD 57 30 46030, DOSOLO, MN","prices":[{"type":"petrol","price":1.824,"self":true,"updatedAt":"28/06/2026 01:31:20"},{"type":"diesel","price":1.894,"self":true,"updatedAt":"28/06/2026 01:31:20"}]},{"id":"57077","lat":44.9386714,"lon":10.6231153,"name":"SHELL DOSOLO VIA PROVINCIALE SUD, 18","brand":"Shell","address":"PROVINCIALE SUD 18 46030, DOSOLO, MN","prices":[{"type":"petrol","price":1.779,"self":true,"updatedAt":"28/06/2026 07:30:24"},{"type":"diesel","price":1.869,"self":true,"updatedAt":"28/06/2026 07:30:24"},{"type":"lpg","price":0.727,"self":false,"updatedAt":"28/06/2026 07:30:24"}]},{"id":"58112","lat":44.995018,"lon":10.72794,"name":"2075 SUZZARA","brand":"Agip Eni","address":"S.S. N. 62 CISA - LOCALITA' CROCILE  C.M., SUZZARA, MN","prices":[{"type":"petrol","price":1.829,"self":true,"updatedAt":"28/06/2026 01:16:07"},{"type":"diesel","price":1.889,"self":true,"updatedAt":"28/06/2026 01:16:07"}]},{"id":"44365","lat":44.988058000123,"lon":10.747549000123,"name":"MELLI & GROSSI SRL SUZZARA","brand":"Pompe Bianche","address":"VIA C.MONTANARA  2 46029, SUZZARA, MN","prices":[{"type":"petrol","price":1.77,"self":true,"updatedAt":"23/06/2026 17:13:25"},{"type":"diesel","price":1.87,"self":true,"updatedAt":"23/06/2026 17:13:25"}]},{"id":"12719","lat":44.992931728656465,"lon":10.724851779901087,"name":"total erg","brand":"Api-Ip","address":"STRADA MARZOLE 11 46029, SUZZARA, MN","prices":[{"type":"petrol","price":1.799,"self":true,"updatedAt":"25/06/2026 17:39:19"},{"type":"diesel","price":1.899,"self":true,"updatedAt":"25/06/2026 17:39:19"},{"type":"lpg","price":0.759,"self":false,"updatedAt":"25/06/2026 17:39:19"}]},{"id":"59123","lat":44.924313,"lon":10.529791,"name":"12082  VIADANA","brand":"Agip Eni","address":"S.S. 358  KM 22+202, VIADANA, MN","prices":[{"type":"petrol","price":1.829,"self":true,"updatedAt":"28/06/2026 01:23:30"},{"type":"diesel","price":1.889,"self":true,"updatedAt":"28/06/2026 01:23:30"},{"type":"lpg","price":0.727,"self":false,"updatedAt":"28/06/2026 00:10:45"}]},{"id":"60351","lat":44.9315661,"lon":10.5095299,"name":"ESSO","brand":"Esso","address":"Viale Lombardia 84  46019, VIADANA, MN","prices":[{"type":"petrol","price":1.799,"self":true,"updatedAt":"25/06/2026 18:34:49"},{"type":"diesel","price":1.869,"self":true,"updatedAt":"25/06/2026 18:34:49"}]},{"id":"29502","lat":44.98645729913383,"lon":10.57232916355133,"name":"FG FIORASI E GNACCARINI","brand":"Pompe Bianche","address":"VIA LEOPARDI 126/L 46030, VIADANA, MN","prices":[{"type":"petrol","price":1.78,"self":true,"updatedAt":"24/06/2026 17:58:27"},{"type":"diesel","price":1.86,"self":true,"updatedAt":"24/06/2026 17:58:27"}]},{"id":"62042","lat":44.94621132369254,"lon":10.548894677143087,"name":"PV2888","brand":"Q8","address":"Via C. Pisacane 112  46019, VIADANA, MN","prices":[{"type":"petrol","price":1.849,"self":false,"updatedAt":"28/06/2026 00:29:13"},{"type":"diesel","price":1.879,"self":false,"updatedAt":"28/06/2026 00:29:13"},{"type":"lpg","price":0.727,"self":false,"updatedAt":"28/06/2026 00:29:13"}]},{"id":"18162","lat":44.92905173293207,"lon":10.504734814167023,"name":"STAZIONE SERVIZIO TAMOIL - BORRCARR","brand":"Tamoil","address":"VIALE EUROPA 35 46019, VIADANA, MN","prices":[{"type":"petrol","price":1.799,"self":true,"updatedAt":"28/06/2026 00:53:14"},{"type":"diesel","price":1.869,"self":true,"updatedAt":"28/06/2026 00:53:14"}]},{"id":"13050","lat":44.930878884407214,"lon":10.521973075818778,"name":"Stefano Gozzi","brand":"Pompe Bianche","address":"VIA AROLDI 54/56 46019, VIADANA, MN","prices":[{"type":"petrol","price":1.799,"self":true,"updatedAt":"27/06/2026 11:15:45"},{"type":"diesel","price":1.869,"self":true,"updatedAt":"27/06/2026 11:15:45"}]},{"id":"62808","lat":44.939233439418516,"lon":10.533951918182378,"name":"TAMOIL 6720","brand":"Tamoil","address":"Via Kennedy 19 46019, VIADANA, MN","prices":[{"type":"petrol","price":1.799,"self":true,"updatedAt":"28/06/2026 00:28:28"},{"type":"diesel","price":1.869,"self":true,"updatedAt":"28/06/2026 00:28:28"}]},{"id":"6519","lat":44.933252877241245,"lon":10.535624087696874,"name":"VIADANA VIA PISACANE","brand":"Q8","address":"VIA PISACANE SNC 46019, VIADANA, MN","prices":[{"type":"petrol","price":1.819,"self":true,"updatedAt":"27/06/2026 01:40:41"},{"type":"diesel","price":1.849,"self":true,"updatedAt":"27/06/2026 01:40:41"}]},{"id":"56926","lat":44.76738,"lon":10.66481,"name":"CIS NORD - BAGNOLO GPL","brand":"Ego","address":"VIA EUROPA 4 42024, BAGNOLO IN PIANO, RE","prices":[{"type":"methane","price":1.599,"self":false,"updatedAt":"27/06/2026 22:04:49"},{"type":"lpg","price":0.769,"self":false,"updatedAt":"27/06/2026 22:04:48"}]},{"id":"14446","lat":44.77070780318123,"lon":10.666574235195867,"name":"CIS NORD - BAGNOLO IN PIANO","brand":"Ego","address":"VIA EUROPA 4 42011, BAGNOLO IN PIANO, RE","prices":[{"type":"petrol","price":1.779,"self":true,"updatedAt":"27/06/2026 22:04:20"},{"type":"diesel","price":1.859,"self":true,"updatedAt":"27/06/2026 22:04:16"}]},{"id":"61192","lat":44.75529660365721,"lon":10.66672363466677,"name":"KEROPETROL - BAGNOLO IN PIANO","brand":"KEROPETROL","address":"Via Provinciale Sud 16 42011, BAGNOLO IN PIANO, RE","prices":[{"type":"petrol","price":1.769,"self":true,"updatedAt":"26/06/2026 15:26:45"},{"type":"diesel","price":1.869,"self":true,"updatedAt":"26/06/2026 15:26:45"}]},{"id":"6526","lat":44.890957079875456,"lon":10.52589476108551,"name":"BRESCELLO VARIANTE DELLA S.S.62 DELLA CISA","brand":"Q8","address":"VARIANTE DELLA S.S.62 DELLA CISA SNC 42041, BRESCELLO, RE","prices":[{"type":"petrol","price":1.759,"self":true,"updatedAt":"26/06/2026 01:40:46"},{"type":"diesel","price":1.829,"self":true,"updatedAt":"26/06/2026 01:40:46"}]},{"id":"30218","lat":44.89757666541605,"lon":10.508747398853302,"name":"PV 53493","brand":"Agip Eni","address":"VIA CISE LIGURE S.S.62 KM 136+2 42041, BRESCELLO, RE","prices":[{"type":"petrol","price":1.789,"self":true,"updatedAt":"28/06/2026 00:32:22"},{"type":"diesel","price":1.824,"self":true,"updatedAt":"28/06/2026 00:32:22"}]},{"id":"9446","lat":44.902301380376855,"lon":10.513309836387634,"name":"TAMOIL","brand":"Tamoil","address":"Statale 62 della Cisa, Km. 5, dir. PARMA - 42041, BRESCELLO, RE","prices":[{"type":"petrol","price":1.759,"self":true,"updatedAt":"28/06/2026 01:07:14"},{"type":"diesel","price":1.829,"self":true,"updatedAt":"28/06/2026 01:07:14"}]},{"id":"57428","lat":44.781775423784545,"lon":10.608252298051841,"name":"ENILIVE","brand":"Agip Eni","address":"via colombo 116/a 42023, CADELBOSCO DI SOPRA, RE","prices":[{"type":"petrol","price":1.799,"self":true,"updatedAt":"27/06/2026 11:41:00"},{"type":"diesel","price":1.879,"self":true,"updatedAt":"27/06/2026 11:41:00"}]},{"id":"30439","lat":44.794147127657055,"lon":10.611702804893525,"name":"LA COMETA DI DI CRISTO ROBERTO","brand":"Agip Eni","address":"VIA MARCONI  88/A 42023, CADELBOSCO DI SOPRA, RE","prices":[{"type":"petrol","price":1.829,"self":true,"updatedAt":"28/06/2026 00:34:17"},{"type":"diesel","price":1.899,"self":true,"updatedAt":"28/06/2026 00:34:17"},{"type":"lpg","price":0.777,"self":false,"updatedAt":"28/06/2026 00:34:17"}]},{"id":"62790","lat":44.7629366,"lon":10.5984842,"name":"mazza luca","brand":"Agip Eni","address":"Via Mons. Saccani 8 42023, CADELBOSCO DI SOPRA, RE","prices":[{"type":"petrol","price":1.784,"self":true,"updatedAt":"26/06/2026 19:10:01"},{"type":"diesel","price":1.849,"self":true,"updatedAt":"26/06/2026 19:10:01"}]},{"id":"54437","lat":44.7715043,"lon":10.5830821,"name":"STAZIONE OK","brand":"Pompe Bianche","address":"F.LLI CERVI 8/B 42023, CADELBOSCO DI SOPRA, RE","prices":[{"type":"petrol","price":1.745,"self":true,"updatedAt":"23/06/2026 17:49:45"},{"type":"diesel","price":1.845,"self":true,"updatedAt":"23/06/2026 17:49:45"},{"type":"lpg","price":0.769,"self":false,"updatedAt":"23/06/2026 17:49:45"}]},{"id":"14451","lat":44.780881192304975,"lon":10.512093533729512,"name":"CIS NORD - CAMPEGINE","brand":"Ego","address":"VIA GUIDO ROSSA 21/A 42040, CAMPEGINE, RE","prices":[{"type":"petrol","price":1.779,"self":true,"updatedAt":"27/06/2026 22:04:31"},{"type":"diesel","price":1.859,"self":true,"updatedAt":"27/06/2026 22:04:29"}]},{"id":"60597","lat":44.8098747742122,"lon":10.561231523752213,"name":"eni 55642","brand":"Agip Eni","address":"ALIGHIERI 29 42024, CASTELNOVO DI SOTTO, RE","prices":[{"type":"petrol","price":1.819,"self":true,"updatedAt":"28/06/2026 00:33:56"},{"type":"diesel","price":1.914,"self":true,"updatedAt":"28/06/2026 00:33:56"}]},{"id":"31360","lat":44.805532370509894,"lon":10.567024035720806,"name":"IPER CARBURANTI","brand":"Pompe Bianche","address":"VIA S. BIAGIO S.S.358 KM 6+600 SNC 42024, CASTELNOVO DI SOTTO, RE","prices":[{"type":"petrol","price":1.869,"self":true,"updatedAt":"27/06/2026 23:39:33"},{"type":"diesel","price":1.899,"self":true,"updatedAt":"27/06/2026 23:39:33"}]},{"id":"12056","lat":44.801659429599944,"lon":10.568990063229421,"name":"SAN BIAGIO","brand":"KEROPETROL","address":"VIA SAN BIAGIO 42 42042, CASTELNOVO DI SOTTO, RE","prices":[{"type":"petrol","price":1.799,"self":true,"updatedAt":"25/06/2026 15:41:35"},{"type":"diesel","price":1.899,"self":true,"updatedAt":"25/06/2026 15:41:35"}]},{"id":"48507","lat":44.797073674518316,"lon":10.504178631849381,"name":"Enercoop Gattatico","brand":"Vega","address":"V. ASSE NORD SUD DI VAL D'ENZA 6 42043, GATTATICO, RE","prices":[{"type":"petrol","price":1.779,"self":true,"updatedAt":"24/06/2026 08:30:52"},{"type":"diesel","price":1.859,"self":true,"updatedAt":"24/06/2026 08:30:52"}]},{"id":"38878","lat":44.889557326884855,"lon":10.617287009954453,"name":"8976","brand":"Tamoil","address":"VARIANTE S.S. 62 9 42044, GUALTIERI, RE","prices":[{"type":"petrol","price":1.739,"self":true,"updatedAt":"27/06/2026 23:56:05"},{"type":"diesel","price":1.829,"self":true,"updatedAt":"27/06/2026 23:56:05"}]},{"id":"40270","lat":44.86566621047529,"lon":10.631688390490694,"name":"AREA DI SERVIZIO TAMOIL","brand":"Tamoil","address":"Strada Statale, Km. 63 KM 132 dir. GUALTIERI  42044, GUALTIERI, RE","prices":[{"type":"petrol","price":1.759,"self":true,"updatedAt":"28/06/2026 00:04:27"},{"type":"diesel","price":1.849,"self":true,"updatedAt":"28/06/2026 00:04:27"}]},{"id":"60365","lat":44.90328716479471,"lon":10.621161746026297,"name":"RETITALIA GUALTIERI","brand":"Retitalia","address":"Via F. Carri  42044, GUALTIERI, RE","prices":[{"type":"petrol","price":1.798,"self":true,"updatedAt":"27/06/2026 23:35:53"},{"type":"diesel","price":1.947,"self":true,"updatedAt":"27/06/2026 23:35:53"}]},{"id":"49358","lat":44.89914500988118,"lon":10.674315542308346,"name":"CIMOIL","brand":"Pompe Bianche","address":"Strada Statale, Km. 4.6, MANTOVA - 42016, GUASTALLA, RE","prices":[{"type":"petrol","price":1.777,"self":true,"updatedAt":"27/06/2026 23:19:39"},{"type":"diesel","price":1.867,"self":true,"updatedAt":"27/06/2026 23:19:39"},{"type":"methane","price":1.397,"self":false,"updatedAt":"28/06/2026 01:23:00"},{"type":"lpg","price":0.727,"self":false,"updatedAt":"28/06/2026 01:23:00"}]},{"id":"48361","lat":44.907836169038546,"lon":10.658403835651397,"name":"Enercoop Guastalla","brand":"Enercoop","address":"VIA SACCO E VANZETTI 3/M 42016, GUASTALLA, RE","prices":[{"type":"petrol","price":1.749,"self":true,"updatedAt":"27/06/2026 08:50:50"},{"type":"diesel","price":1.839,"self":true,"updatedAt":"27/06/2026 08:50:50"}]},{"id":"7410","lat":44.91529240955165,"lon":10.652957524588487,"name":"ENI 6403","brand":"Agip Eni","address":"CISA 10 42016, GUASTALLA, RE","prices":[{"type":"petrol","price":1.829,"self":true,"updatedAt":"28/06/2026 01:06:42"},{"type":"diesel","price":1.909,"self":true,"updatedAt":"28/06/2026 01:06:42"}]},{"id":"20097","lat":44.912891347523626,"lon":10.652461333729548,"name":"ESSO","brand":"Esso","address":"VIA CISA LIGURE  25/B 42016, GUASTALLA, RE","prices":[{"type":"petrol","price":1.769,"self":true,"updatedAt":"27/06/2026 09:29:58"},{"type":"diesel","price":1.859,"self":true,"updatedAt":"27/06/2026 09:29:58"}]},{"id":"27120","lat":44.92394557899576,"lon":10.655816093254089,"name":"GUASTALLA - CIRCONVALLAZIONE","brand":"Api-Ip","address":"GUASTALLA VIA CIRCONVALLAZIONE  38 42016, GUASTALLA, RE","prices":[{"type":"petrol","price":1.839,"self":true,"updatedAt":"27/06/2026 09:01:22"},{"type":"diesel","price":1.919,"self":true,"updatedAt":"27/06/2026 09:01:22"}]},{"id":"35494","lat":44.937411000123,"lon":10.706398000123,"name":"MELLI & GROSSI SRL","brand":"Pompe Bianche","address":"ST.PROV.CISPADANA 62 VAR R CM 42045, LUZZARA, RE","prices":[{"type":"petrol","price":1.77,"self":true,"updatedAt":"23/06/2026 17:09:26"},{"type":"diesel","price":1.87,"self":true,"updatedAt":"23/06/2026 17:09:27"}]},{"id":"38582","lat":44.93177325104224,"lon":10.6946861743927,"name":"BEYFIN,GHULAM PUNJAB","brand":"Beyfin","address":"LOCALITA' TAGLIATA VIA CARBONI 137 42045, LUZZARA, RE","prices":[{"type":"petrol","price":1.809,"self":true,"updatedAt":"28/06/2026 00:28:22"},{"type":"diesel","price":1.889,"self":true,"updatedAt":"28/06/2026 00:28:22"},{"type":"lpg","price":0.719,"self":false,"updatedAt":"28/06/2026 00:28:22"}]},{"id":"14067","lat":44.95309430870924,"lon":10.687374472618103,"name":"Italiana Petroli","brand":"Api-Ip","address":"VIA VIA  C.  IOTTI N. 63 42045, LUZZARA (RE) 63 42045, LUZZARA, RE","prices":[{"type":"petrol","price":1.839,"self":true,"updatedAt":"25/06/2026 17:08:46"},{"type":"diesel","price":1.919,"self":true,"updatedAt":"25/06/2026 17:08:46"}]},{"id":"60090","lat":44.95925,"lon":10.68953,"name":"LUZZARA","brand":"Pompe Bianche","address":"Via G. Carboni 42  42045, LUZZARA, RE","prices":[{"type":"petrol","price":1.595,"self":true,"updatedAt":"27/06/2026 23:44:29"},{"type":"diesel","price":1.594,"self":true,"updatedAt":"27/06/2026 23:44:29"}]},{"id":"60429","lat":44.840618,"lon":10.717812,"name":"6946","brand":"Tamoil","address":"VIA PROVINCIALE NORD  42017, NOVELLARA, RE","prices":[{"type":"petrol","price":1.799,"self":true,"updatedAt":"27/06/2026 23:39:27"},{"type":"diesel","price":1.879,"self":true,"updatedAt":"27/06/2026 23:39:27"}]},{"id":"45598","lat":44.84912424163072,"lon":10.73338508605957,"name":"B-PETROL - NOVELLARA VIA PROVINCIALE NORD","brand":"bpetrol","address":"Via Provinciale Nord 67 42017, NOVELLARA, RE","prices":[{"type":"petrol","price":1.799,"self":true,"updatedAt":"27/06/2026 23:33:10"}]},{"id":"45599","lat":44.853000335041024,"lon":10.713391304016113,"name":"B-PETROL - VIA D'AZEGLIO","brand":"bpetrol","address":"Via M. D'Azeglio 34 42017, NOVELLARA, RE","prices":[{"type":"petrol","price":1.799,"self":true,"updatedAt":"27/06/2026 23:33:20"},{"type":"diesel","price":1.879,"self":true,"updatedAt":"27/06/2026 23:33:20"}]},{"id":"58324","lat":44.84668846557689,"lon":10.724990200267012,"name":"B-PETROL NOVELLARA3","brand":"bpetrol","address":"Via Provinciale Nord 117  42017, NOVELLARA, RE","prices":[{"type":"petrol","price":1.799,"self":true,"updatedAt":"27/06/2026 23:28:56"}]},{"id":"60686","lat":44.85005021949945,"lon":10.743047155052835,"name":"COIL NOVELLARA","brand":"COIL","address":"S.P. 30 Nord snc  42017, NOVELLARA, RE","prices":[{"type":"petrol","price":1.797,"self":true,"updatedAt":"28/06/2026 01:18:17"},{"type":"diesel","price":1.877,"self":true,"updatedAt":"28/06/2026 01:18:17"},{"type":"methane","price":1.395,"self":false,"updatedAt":"27/06/2026 23:42:47"}]},{"id":"47008","lat":44.84325561774179,"lon":10.720212757587433,"name":"EGO","brand":"Ego","address":"Via Provinciale Nord  165 42017, NOVELLARA, RE","prices":[{"type":"petrol","price":1.799,"self":true,"updatedAt":"26/06/2026 17:18:55"},{"type":"diesel","price":1.879,"self":true,"updatedAt":"26/06/2026 17:18:55"}]},{"id":"48613","lat":44.854188999999984,"lon":10.738710247850415,"name":"Enercoop Novellara","brand":"Vega","address":"VIA C.COLOMBO 40 42017, NOVELLARA, RE","prices":[{"type":"petrol","price":1.799,"self":true,"updatedAt":"23/06/2026 09:30:47"},{"type":"diesel","price":1.879,"self":true,"updatedAt":"23/06/2026 09:30:48"},{"type":"lpg","price":0.769,"self":false,"updatedAt":"26/06/2026 11:00:45"}]},{"id":"53169","lat":44.87368153834316,"lon":10.543873608112335,"name":"BOSCHI","brand":"Pompe Bianche","address":"MATTEOTTI 9 42028, POVIGLIO, RE","prices":[{"type":"petrol","price":1.779,"self":true,"updatedAt":"27/06/2026 23:47:03"},{"type":"diesel","price":1.849,"self":true,"updatedAt":"27/06/2026 23:47:03"},{"type":"lpg","price":0.769,"self":false,"updatedAt":"27/06/2026 23:47:03"}]},{"id":"48509","lat":44.840104803787426,"lon":10.54574295337296,"name":"ECO GESTORI","brand":"Pompe Bianche","address":"VIA ROMANA 45 42028, POVIGLIO, RE","prices":[{"type":"petrol","price":1.749,"self":true,"updatedAt":"28/06/2026 00:17:25"},{"type":"diesel","price":1.849,"self":true,"updatedAt":"28/06/2026 00:17:25"}]},{"id":"48506","lat":44.839867730610834,"lon":10.522162046054481,"name":"Enercoop RE Poviglio Val d'Enza","brand":"Vega","address":"VIA VAL D'ENZA 12 42028, POVIGLIO, RE","prices":[{"type":"petrol","price":1.769,"self":true,"updatedAt":"27/06/2026 09:00:51"},{"type":"diesel","price":1.859,"self":true,"updatedAt":"24/06/2026 08:30:56"}]},{"id":"12100","lat":44.855034295797985,"lon":10.537076487102468,"name":"Stazione di Servizio EGO di Savazzi Roberto","brand":"Ego","address":"VIA ROMANA 176 42028, POVIGLIO, RE","prices":[{"type":"petrol","price":1.759,"self":true,"updatedAt":"23/06/2026 13:09:36"},{"type":"diesel","price":1.859,"self":true,"updatedAt":"23/06/2026 13:09:36"},{"type":"methane","price":1.397,"self":true,"updatedAt":"23/06/2026 13:09:36"},{"type":"lpg","price":0.779,"self":true,"updatedAt":"23/06/2026 13:09:36"}]},{"id":"28484","lat":44.752290923265925,"lon":10.597163736820221,"name":"Reggio Emilia Marx","brand":"Api-Ip","address":"Via Karl Marx 105 42013, REGGIO NELL'EMILIA, RE","prices":[{"type":"petrol","price":1.779,"self":true,"updatedAt":"27/06/2026 09:10:34"},{"type":"diesel","price":1.879,"self":true,"updatedAt":"27/06/2026 09:10:35"}]}]