[{"id":"48809","lat":45.21792732788151,"lon":9.4992410723279,"name":"2398","brand":"Tamoil","address":"ROMA 30 26812, BORGHETTO LODIGIANO, LO","prices":[{"type":"petrol","price":1.839,"self":true,"updatedAt":"25/06/2026 00:39:21"},{"type":"diesel","price":1.919,"self":true,"updatedAt":"25/06/2026 00:39:21"}]},{"id":"44809","lat":45.23394431096963,"lon":9.398185460000036,"name":"3438","brand":"Tamoil","address":"PIAVE, S.S. 235 KM 21+560 0 26866, SANT'ANGELO LODIGIANO, LO","prices":[{"type":"petrol","price":1.799,"self":true,"updatedAt":"25/06/2026 00:27:32"},{"type":"diesel","price":1.899,"self":true,"updatedAt":"25/06/2026 00:27:32"}]},{"id":"41377","lat":45.24209618811676,"lon":9.412698894739151,"name":"ENI Sant'Angelo Lodigiano","brand":"Agip Eni","address":"Via Trieste 1 26866, SANT'ANGELO LODIGIANO, LO","prices":[{"type":"petrol","price":1.844,"self":true,"updatedAt":"25/06/2026 23:37:44"},{"type":"diesel","price":1.934,"self":true,"updatedAt":"25/06/2026 23:37:44"}]},{"id":"62328","lat":45.23390078743724,"lon":9.399911775350587,"name":"ESSO - SANT'ANGELO LODIGIANO","brand":"Esso","address":"Via Circonvallazione  27019, SANT'ANGELO LODIGIANO, LO","prices":[{"type":"petrol","price":1.789,"self":true,"updatedAt":"25/06/2026 09:40:47"},{"type":"diesel","price":1.889,"self":true,"updatedAt":"25/06/2026 09:40:47"}]},{"id":"52896","lat":45.245224201600635,"lon":9.404343698449475,"name":"Merli Emanuele & C srl","brand":"Esso","address":"Viale Zara 2 26866, SANT'ANGELO LODIGIANO, LO","prices":[{"type":"petrol","price":1.799,"self":true,"updatedAt":"25/06/2026 18:42:07"},{"type":"diesel","price":1.899,"self":true,"updatedAt":"25/06/2026 18:42:07"}]},{"id":"61909","lat":45.23615477003918,"lon":9.415724604197692,"name":"Q8","brand":"Q8","address":"TRIESTE 78 26866, SANT'ANGELO LODIGIANO, LO","prices":[{"type":"petrol","price":1.839,"self":true,"updatedAt":"24/06/2026 11:46:02"},{"type":"diesel","price":1.929,"self":true,"updatedAt":"24/06/2026 11:46:02"}]},{"id":"15331","lat":45.18660438320437,"lon":9.472961661376985,"name":"ENI - MALABARBA VALERIO","brand":"Agip Eni","address":"VIALE MILANO 61 20078, SAN COLOMBANO AL LAMBRO, MI","prices":[{"type":"petrol","price":1.824,"self":true,"updatedAt":"25/06/2026 00:24:51"},{"type":"diesel","price":1.914,"self":true,"updatedAt":"25/06/2026 00:24:51"}]},{"id":"63314","lat":45.181840309761895,"lon":9.494271293037402,"name":"ENI RICCARDO GNOCCHI","brand":"Agip Eni","address":"O. STEFFENINI 100 20078, SAN COLOMBANO AL LAMBRO, MI","prices":[{"type":"petrol","price":1.824,"self":true,"updatedAt":"25/06/2026 23:26:09"},{"type":"diesel","price":1.914,"self":true,"updatedAt":"25/06/2026 23:26:09"}]},{"id":"58304","lat":45.020272473900285,"lon":9.446943463713826,"name":"IP - Borgonovo","brand":"Api-Ip","address":"SS.412 KM 49+400 SNC 29011, BORGONOVO VAL TIDONE, PC","prices":[{"type":"petrol","price":1.839,"self":true,"updatedAt":"25/06/2026 17:23:18"},{"type":"diesel","price":1.919,"self":true,"updatedAt":"25/06/2026 17:23:18"}]},{"id":"10371","lat":45.01606719660886,"lon":9.468249640344538,"name":"STAZIONE DI SERVIZIO  - F. & F. CAR SNC","brand":"Tamoil","address":"VIA MOTTAZIANA SNC 29011, BORGONOVO VAL TIDONE, PC","prices":[{"type":"petrol","price":1.779,"self":true,"updatedAt":"24/06/2026 15:54:59"},{"type":"diesel","price":1.859,"self":true,"updatedAt":"24/06/2026 15:54:59"}]},{"id":"8885","lat":45.03984820882474,"lon":9.446962773799896,"name":"TRE C","brand":"Esso","address":"Statale 412 della Val Tidone, Km. 21+400, dir. NORD - -, BORGONOVO VAL TIDONE, PC","prices":[{"type":"petrol","price":1.779,"self":true,"updatedAt":"26/06/2026 08:03:24"},{"type":"diesel","price":1.899,"self":true,"updatedAt":"26/06/2026 08:03:24"}]},{"id":"55732","lat":45.06028,"lon":9.434566,"name":"2690 Castel San Giovanni","brand":"Agip Eni","address":"VIA F.LLI BANDIERA 43/B, CASTEL SAN GIOVANNI, PC","prices":[{"type":"petrol","price":1.819,"self":true,"updatedAt":"25/06/2026 23:39:01"},{"type":"diesel","price":1.899,"self":true,"updatedAt":"26/06/2026 07:59:08"}]},{"id":"35511","lat":45.062756713153036,"lon":9.397156834602356,"name":"Distributore Metano PC 4","brand":"Agip Eni","address":"LOCALITA' BARDONEGGIA SOPRA  29015, CASTEL SAN GIOVANNI, PC","prices":[{"type":"methane","price":1.399,"self":false,"updatedAt":"22/06/2026 11:01:45"}]},{"id":"59446","lat":45.08025026863656,"lon":9.452018202548633,"name":"GREEN","brand":"Pompe Bianche","address":"Via della Cascinetta SN 29015, CASTEL SAN GIOVANNI, PC","prices":[{"type":"petrol","price":1.799,"self":true,"updatedAt":"25/06/2026 08:51:34"},{"type":"diesel","price":1.869,"self":true,"updatedAt":"25/06/2026 08:51:34"},{"type":"methane","price":1.469,"self":false,"updatedAt":"25/06/2026 08:51:34"},{"type":"lpg","price":0.849,"self":false,"updatedAt":"25/06/2026 08:51:34"}]},{"id":"55169","lat":45.056961,"lon":9.448875,"name":"IP castello","brand":"Api-Ip","address":"SS 10 Padana Inferiore km 1  29015, CASTEL SAN GIOVANNI, PC","prices":[{"type":"petrol","price":1.839,"self":true,"updatedAt":"25/06/2026 17:23:09"},{"type":"diesel","price":1.919,"self":true,"updatedAt":"25/06/2026 17:23:09"}]},{"id":"60720","lat":45.083076798664656,"lon":9.450985525053403,"name":"IP Stazione di Servizio","brand":"Api-Ip","address":"SS412  29015, CASTEL SAN GIOVANNI, PC","prices":[{"type":"petrol","price":1.819,"self":true,"updatedAt":"25/06/2026 17:23:42"},{"type":"diesel","price":1.899,"self":true,"updatedAt":"25/06/2026 17:23:42"},{"type":"lpg","price":0.859,"self":false,"updatedAt":"25/06/2026 17:23:42"}]},{"id":"52016","lat":45.0563164909946,"lon":9.451905368642025,"name":"PETRONELLA ADOLFO","brand":"Agip Eni","address":"VIA EMILIA PIACENTINA 46 29015, CASTEL SAN GIOVANNI, PC","prices":[{"type":"petrol","price":1.829,"self":true,"updatedAt":"26/06/2026 00:09:32"},{"type":"diesel","price":1.919,"self":true,"updatedAt":"26/06/2026 00:09:32"}]},{"id":"10883","lat":45.06056247557282,"lon":9.433995347221412,"name":"Terzoni Alessandro-Scrocchi & c. s.n.c.","brand":"Esso","address":"Via F.lli Bandiera 45/a 29015, CASTEL SAN GIOVANNI, PC","prices":[{"type":"petrol","price":1.779,"self":true,"updatedAt":"25/06/2026 11:55:04"},{"type":"diesel","price":1.869,"self":true,"updatedAt":"25/06/2026 11:55:04"}]},{"id":"62617","lat":45.05433529731397,"lon":9.482266718771356,"name":"RETITALIA SARMATO","brand":"Retitalia","address":"Via Emilia Pavese  29010, PIACENZA, PC","prices":[{"type":"petrol","price":1.897,"self":true,"updatedAt":"25/06/2026 00:53:29"},{"type":"diesel","price":1.997,"self":true,"updatedAt":"25/06/2026 00:53:29"}]},{"id":"34920","lat":45.05527074694665,"lon":9.499158561229706,"name":"TAMOIL G.E. di TASSI G.& BISI E. SNC","brand":"Tamoil","address":"VIA EMILIA PIACENTINA 37/39 29010, SARMATO, PC","prices":[{"type":"petrol","price":1.799,"self":true,"updatedAt":"26/06/2026 00:24:28"},{"type":"diesel","price":1.879,"self":true,"updatedAt":"26/06/2026 00:24:28"}]},{"id":"17458","lat":45.01488825910792,"lon":9.408680945634842,"name":"IP BALDINI","brand":"Europam","address":"LOCALITA' SAN PELLEGRINO SNC 29010, ZIANO PIACENTINO, PC","prices":[{"type":"petrol","price":1.819,"self":true,"updatedAt":"23/06/2026 07:14:57"},{"type":"diesel","price":1.919,"self":true,"updatedAt":"23/06/2026 07:14:57"}]},{"id":"19641","lat":45.161381986524,"lon":9.302816838026047,"name":"ESSO FRATELLI BONESCHI","brand":"Esso","address":"VIA DANTE 38 27011, BELGIOIOSO, PV","prices":[{"type":"petrol","price":1.779,"self":true,"updatedAt":"26/06/2026 07:07:28"},{"type":"diesel","price":1.859,"self":true,"updatedAt":"26/06/2026 07:07:28"}]},{"id":"54970","lat":45.160374315058945,"lon":9.309378862380981,"name":"Impianto IP","brand":"Api-Ip","address":"Via Dante Alighieri snc 27011, BELGIOIOSO, PV","prices":[{"type":"petrol","price":1.779,"self":true,"updatedAt":"25/06/2026 17:50:06"},{"type":"diesel","price":1.869,"self":true,"updatedAt":"25/06/2026 17:50:06"}]},{"id":"8027","lat":45.1616639724936,"lon":9.29550513625145,"name":"STAZIONE TAMOIL DI AMATRUDA GIOVANNI","brand":"Tamoil","address":"VIA DANTE 65 27011, BELGIOIOSO, PV","prices":[{"type":"petrol","price":1.789,"self":true,"updatedAt":"25/06/2026 14:02:03"},{"type":"diesel","price":1.849,"self":true,"updatedAt":"25/06/2026 14:02:03"}]},{"id":"49552","lat":45.06835601904362,"lon":9.265559114819325,"name":"2556 – BRONI","brand":"Agip Eni","address":"Via Circonvallazione 100 27043, BRONI, PV","prices":[{"type":"petrol","price":1.819,"self":true,"updatedAt":"25/06/2026 00:38:38"},{"type":"diesel","price":1.899,"self":true,"updatedAt":"26/06/2026 07:54:44"}]},{"id":"59156","lat":45.06695,"lon":9.26183,"name":"KEROPETROL SPA BRONI (PV)","brand":"KEROPETROL","address":"Via Circonvallazione 63  27043, BRONI, PV","prices":[{"type":"petrol","price":1.829,"self":true,"updatedAt":"22/06/2026 14:27:08"},{"type":"diesel","price":1.929,"self":true,"updatedAt":"22/06/2026 14:27:08"}]},{"id":"41535","lat":45.07238219743507,"lon":9.27004024386406,"name":"PV ENI 52306","brand":"Agip Eni","address":"PIAVE 14 27043, BRONI, PV","prices":[{"type":"petrol","price":1.814,"self":true,"updatedAt":"25/06/2026 23:36:10"},{"type":"diesel","price":1.919,"self":true,"updatedAt":"25/06/2026 23:36:10"}]},{"id":"7683","lat":45.08085493233074,"lon":9.258803046627008,"name":"S.S. 15 BRONESE","brand":"Giap","address":"Statale 617 Bronese, Km. 12+100, dir. BRONI - 27043, BRONI, PV","prices":[{"type":"petrol","price":1.819,"self":true,"updatedAt":"26/06/2026 05:59:56"},{"type":"diesel","price":1.909,"self":true,"updatedAt":"26/06/2026 05:59:56"}]},{"id":"15103","lat":45.197682012778586,"lon":9.318427965044975,"name":"IP","brand":"Api-Ip","address":"Statale 235 di Orzinuovi, Km. 13 + 780, dir. LODI  27010, COPIANO, PV","prices":[{"type":"petrol","price":1.797,"self":true,"updatedAt":"24/06/2026 12:59:16"},{"type":"diesel","price":1.887,"self":true,"updatedAt":"24/06/2026 12:59:16"}]},{"id":"36918","lat":45.17262365309078,"lon":9.31623324751854,"name":"Europam Filighera","brand":"Europam","address":"via Gui 26 A 27010, FILIGHERA, PV","prices":[{"type":"petrol","price":1.777,"self":true,"updatedAt":"25/06/2026 11:21:33"},{"type":"diesel","price":1.857,"self":true,"updatedAt":"25/06/2026 11:21:33"}]},{"id":"6853","lat":45.19208432218213,"lon":9.387716629608121,"name":"CERUTTI SNC","brand":"Tamoil","address":"STRADA PROVINCIALE EX 412 VALT S.N.  27010, INVERNO E MONTELEONE, PV","prices":[{"type":"petrol","price":1.839,"self":true,"updatedAt":"25/06/2026 11:02:54"},{"type":"diesel","price":1.939,"self":true,"updatedAt":"25/06/2026 11:02:54"},{"type":"lpg","price":0.829,"self":false,"updatedAt":"25/06/2026 11:02:55"}]},{"id":"57002","lat":45.16138047354027,"lon":9.44998025894165,"name":"NOALOIL PV18","brand":"Noaloil","address":"INCROCIO TRA S.P. 234  E S.P. 32 SNC 27010, MIRADOLO TERME, PV","prices":[{"type":"petrol","price":1.769,"self":true,"updatedAt":"25/06/2026 11:07:57"},{"type":"diesel","price":1.829,"self":true,"updatedAt":"25/06/2026 11:07:57"},{"type":"methane","price":1.399,"self":false,"updatedAt":"25/06/2026 11:07:57"}]},{"id":"49750","lat":45.03720067100169,"lon":9.299522248234833,"name":"STAZIONE COIL","brand":"COIL","address":"FRAZ. RONCOLE SNC  27040, MONTÙ BECCARIA, PV","prices":[{"type":"petrol","price":1.774,"self":true,"updatedAt":"25/06/2026 06:58:12"},{"type":"diesel","price":1.874,"self":true,"updatedAt":"25/06/2026 00:53:07"}]},{"id":"57653","lat":45.107839,"lon":9.449918,"name":"ITALIANA PETROLI","brand":"Api-Ip","address":"SP412 SNC 27017, PIEVE PORTO MORONE, PV","prices":[{"type":"petrol","price":1.819,"self":true,"updatedAt":"25/06/2026 21:26:21"},{"type":"diesel","price":1.899,"self":true,"updatedAt":"25/06/2026 21:26:21"}]},{"id":"45456","lat":45.03744453586949,"lon":9.360577962326147,"name":"Sia Fuel San Damiano al Colle","brand":"Sia fuel","address":"S.P. Cavallante - fraz. Braccio snc 27040, SAN DAMIANO AL COLLE, PV","prices":[{"type":"petrol","price":1.795,"self":true,"updatedAt":"25/06/2026 18:08:25"},{"type":"diesel","price":1.888,"self":true,"updatedAt":"25/06/2026 18:08:25"}]},{"id":"4593","lat":45.159290972702046,"lon":9.423104524612427,"name":"AF PETROL","brand":"Pompe Bianche","address":"234 Codognese, Km. 21, PAVIA - CREMONA - 27010, SANTA CRISTINA E BISSONE, PV","prices":[{"type":"petrol","price":1.799,"self":true,"updatedAt":"25/06/2026 10:08:08"},{"type":"diesel","price":1.829,"self":true,"updatedAt":"25/06/2026 14:46:08"},{"type":"methane","price":1.389,"self":false,"updatedAt":"25/06/2026 23:16:30"}]},{"id":"62466","lat":45.15990716400984,"lon":9.39840942621231,"name":"TAMOIL 2539","brand":"Tamoil","address":"EX S.S. 234 KM.20+654/25 SNC 27010, SANTA CRISTINA E BISSONE, PV","prices":[{"type":"petrol","price":1.789,"self":true,"updatedAt":"26/06/2026 00:08:23"},{"type":"diesel","price":1.839,"self":true,"updatedAt":"26/06/2026 00:08:23"},{"type":"lpg","price":0.789,"self":false,"updatedAt":"25/06/2026 00:39:54"}]},{"id":"13091","lat":45.116218054961635,"lon":9.351859018206596,"name":"TAMOIL 3875","brand":"Tamoil","address":"S.P.199 KM. 2+270 S.N.C. 27010, SPESSA, PV","prices":[{"type":"petrol","price":1.799,"self":true,"updatedAt":"25/06/2026 14:46:34"},{"type":"diesel","price":1.869,"self":true,"updatedAt":"25/06/2026 14:46:34"},{"type":"lpg","price":0.799,"self":false,"updatedAt":"25/06/2026 14:46:34"}]},{"id":"50202","lat":45.07880512830635,"lon":9.301466034918533,"name":"2604 – Stradella","brand":"Agip Eni","address":"SS 10  27049, STRADELLA, PV","prices":[{"type":"petrol","price":1.819,"self":true,"updatedAt":"26/06/2026 00:23:12"},{"type":"diesel","price":1.909,"self":true,"updatedAt":"26/06/2026 00:23:12"}]},{"id":"28396","lat":45.067441882497185,"lon":9.329160153865814,"name":"7580","brand":"Tamoil","address":"N.10, KM. 160+00 SNC 27049, STRADELLA, PV","prices":[{"type":"petrol","price":1.779,"self":true,"updatedAt":"25/06/2026 12:15:41"},{"type":"diesel","price":1.869,"self":true,"updatedAt":"25/06/2026 23:12:57"}]},{"id":"10565","lat":45.06030235916558,"lon":9.303132121972794,"name":"gabriele cassi","brand":"Q8","address":"VIA REPUBBLICA 88 27049, STRADELLA, PV","prices":[{"type":"petrol","price":1.799,"self":true,"updatedAt":"24/06/2026 07:23:10"},{"type":"diesel","price":1.899,"self":true,"updatedAt":"24/06/2026 07:23:10"},{"type":"lpg","price":0.789,"self":false,"updatedAt":"24/06/2026 07:23:10"}]},{"id":"51159","lat":45.07546541536235,"lon":9.277524012484907,"name":"KEROPETROL SPA STRADELLA","brand":"KEROPETROL","address":"BIVIO MADONNINA SNC 27049, STRADELLA (PV) SNC 27049, STRADELLA, PV","prices":[{"type":"petrol","price":1.779,"self":true,"updatedAt":"25/06/2026 14:50:39"},{"type":"diesel","price":1.879,"self":true,"updatedAt":"25/06/2026 14:50:39"},{"type":"lpg","price":0.799,"self":false,"updatedAt":"25/06/2026 14:50:39"}]},{"id":"3935","lat":45.08366300263686,"lon":9.315570741891861,"name":"STRADELLA NORD","brand":"Agip Eni","address":"Autostrada A21 TORINO-PIACENZA, Km. 130.222, dir. Ovest - 27049, STRADELLA, PV","prices":[{"type":"petrol","price":1.905,"self":true,"updatedAt":"25/06/2026 00:32:52"},{"type":"diesel","price":1.974,"self":true,"updatedAt":"26/06/2026 05:50:03"},{"type":"lpg","price":0.89,"self":false,"updatedAt":"25/06/2026 00:32:52"}]},{"id":"3763","lat":45.08284826823672,"lon":9.318460822105408,"name":"STRADELLA SUD","brand":"Api-Ip","address":"Autostrada A21 TORINO-PIACENZA, Km. 130.222, dir. Est - -, STRADELLA, PV","prices":[{"type":"petrol","price":1.969,"self":true,"updatedAt":"23/06/2026 18:48:11"},{"type":"diesel","price":2.049,"self":true,"updatedAt":"23/06/2026 18:48:11"},{"type":"lpg","price":0.97,"self":false,"updatedAt":"23/06/2026 18:48:11"}]},{"id":"31519","lat":45.073069791772134,"lon":9.314316809177399,"name":"VEGA STRADELLA","brand":"Vega","address":"VIA EMILIA 36 27049, STRADELLA, PV","prices":[{"type":"petrol","price":1.779,"self":true,"updatedAt":"24/06/2026 08:00:45"},{"type":"diesel","price":1.859,"self":true,"updatedAt":"26/06/2026 07:10:45"},{"type":"lpg","price":0.799,"self":false,"updatedAt":"07/06/2026 21:24:42"}]},{"id":"37247","lat":45.210234436927145,"lon":9.352825284004211,"name":"6200","brand":"Tamoil","address":"235 KM 16 + 880 SNC 27019, VILLANTERIO, PV","prices":[{"type":"petrol","price":1.789,"self":true,"updatedAt":"25/06/2026 12:11:50"},{"type":"diesel","price":1.869,"self":true,"updatedAt":"25/06/2026 12:11:50"}]}]