[{"id":"20380","lat":45.159221520294615,"lon":8.17576004299167,"name":"GARIMANNO FRANCESCO","brand":"Tamoil","address":"VIA TORINO 22 15020, GABIANO, AL","prices":[{"type":"petrol","price":1.879,"self":true,"updatedAt":"22/06/2026 00:15:15"},{"type":"diesel","price":1.999,"self":true,"updatedAt":"22/06/2026 00:15:15"}]},{"id":"10825","lat":45.1191227064854,"lon":8.246226984130885,"name":"eni 1445","brand":"Agip Eni","address":"GAMINELLA 17/B 15020, MOMBELLO MONFERRATO, AL","prices":[{"type":"petrol","price":1.849,"self":true,"updatedAt":"21/06/2026 18:38:17"},{"type":"diesel","price":1.954,"self":true,"updatedAt":"21/06/2026 18:38:17"}]},{"id":"47834","lat":45.087995921619594,"lon":8.129345691104518,"name":"6014","brand":"Tamoil","address":"TORINO 79 15020, MURISENGO, AL","prices":[{"type":"petrol","price":1.819,"self":true,"updatedAt":"21/06/2026 12:30:10"},{"type":"diesel","price":1.919,"self":true,"updatedAt":"21/06/2026 12:30:10"}]},{"id":"59110","lat":45.039576,"lon":8.031861,"name":"6882","brand":"Tamoil","address":"V. Torino  30172, CERRETO D'ASTI, AT","prices":[{"type":"petrol","price":1.779,"self":true,"updatedAt":"21/06/2026 01:03:55"},{"type":"diesel","price":1.879,"self":true,"updatedAt":"21/06/2026 01:03:55"},{"type":"lpg","price":0.719,"self":false,"updatedAt":"21/06/2026 23:27:12"}]},{"id":"44616","lat":45.008673000123,"lon":8.183205000123,"name":"staroil FRINCO","brand":"Pompe Bianche","address":"S.P. 22 KM 3+900  14030, FRINCO, AT","prices":[{"type":"petrol","price":1.949,"self":true,"updatedAt":"19/06/2026 16:43:46"},{"type":"diesel","price":2.04,"self":true,"updatedAt":"19/06/2026 16:43:46"}]},{"id":"60618","lat":45.15610526685613,"lon":8.06094897751863,"name":"Brusasco Economy","brand":"Economysrl","address":"SP 107 BRUSASCO / CRESCENTINO KM 0+875 10020, BRUSASCO, TO","prices":[{"type":"petrol","price":1.899,"self":true,"updatedAt":"19/06/2026 15:12:08"},{"type":"diesel","price":2.099,"self":true,"updatedAt":"19/06/2026 15:12:08"}]},{"id":"60584","lat":45.151604169562745,"lon":8.052130087247965,"name":"Economy srl - Cavagnolo","brand":"Economysrl","address":"Via C.Colombo 227  10020, CAVAGNOLO, TO","prices":[{"type":"petrol","price":1.899,"self":true,"updatedAt":"20/06/2026 21:30:07"},{"type":"diesel","price":2.099,"self":true,"updatedAt":"20/06/2026 21:30:07"}]},{"id":"41091","lat":45.159847628273994,"lon":8.022052883372908,"name":"3385","brand":"Tamoil","address":"S.S. 590 KM. 32+500 S.N. 10020, MONTEU DA PO, TO","prices":[{"type":"petrol","price":1.819,"self":true,"updatedAt":"21/06/2026 23:16:26"},{"type":"diesel","price":1.919,"self":true,"updatedAt":"21/06/2026 23:16:26"}]},{"id":"40491","lat":45.15855561959544,"lon":8.030732274055481,"name":"KEROPETROL SPA MONTEU DA PO","brand":"KEROPETROL","address":"590 KM 32+865 SNC 10020, MONTEU DA PO, TO","prices":[{"type":"petrol","price":1.799,"self":true,"updatedAt":"19/06/2026 17:05:41"},{"type":"diesel","price":1.927,"self":true,"updatedAt":"19/06/2026 17:05:41"}]},{"id":"56688","lat":45.19314779904249,"lon":8.095642318956642,"name":"ENI 00139","brand":"Agip Eni","address":"GIOTTO 32 13044, CRESCENTINO, VC","prices":[{"type":"petrol","price":1.824,"self":true,"updatedAt":"21/06/2026 00:44:51"},{"type":"diesel","price":1.914,"self":true,"updatedAt":"21/06/2026 00:44:51"}]},{"id":"54660","lat":45.1932617,"lon":8.093053,"name":"esso synergy","brand":"Esso","address":"GIOTTO 45 13044, CRESCENTINO, VC","prices":[{"type":"petrol","price":1.869,"self":true,"updatedAt":"17/06/2026 18:49:57"},{"type":"diesel","price":1.979,"self":true,"updatedAt":"17/06/2026 18:49:57"}]},{"id":"61797","lat":45.19357108673267,"lon":8.068959520908905,"name":"iplanet","brand":"Itala Petroli","address":"PROVINCIALE 31 BIS-KM 12 SNC 13044, CRESCENTINO, VC","prices":[{"type":"petrol","price":1.819,"self":true,"updatedAt":"22/06/2026 06:34:18"},{"type":"diesel","price":1.919,"self":true,"updatedAt":"22/06/2026 06:34:18"},{"type":"methane","price":1.449,"self":false,"updatedAt":"21/06/2026 23:32:00"},{"type":"lpg","price":0.768,"self":false,"updatedAt":"21/06/2026 00:58:12"}]},{"id":"62904","lat":45.24141891902875,"lon":8.180505643589997,"name":"Economy srl - Livorno Ferraris","brand":"Economysrl","address":"Strada Provinciale delle Grange  13046, LIVORNO FERRARIS, VC","prices":[{"type":"petrol","price":1.959,"self":true,"updatedAt":"21/06/2026 14:24:14"},{"type":"diesel","price":2.069,"self":true,"updatedAt":"21/06/2026 14:24:14"}]},{"id":"12632","lat":45.23191425646079,"lon":8.02081514945985,"name":"BONINO ALDO SRL","brand":"Pompe Bianche","address":"CRESCENTINO 31 13040, SALUGGIA, VC","prices":[{"type":"petrol","price":1.819,"self":true,"updatedAt":"22/06/2026 07:31:01"},{"type":"diesel","price":1.939,"self":true,"updatedAt":"22/06/2026 07:31:01"}]}]