[{"id":"20380","lat":45.159221520294615,"lon":8.17576004299167,"name":"GARIMANNO FRANCESCO","brand":"Tamoil","address":"VIA TORINO 22 15020, GABIANO, AL","prices":[{"type":"petrol","price":1.849,"self":true,"updatedAt":"29/06/2026 00:20:24"},{"type":"diesel","price":1.929,"self":true,"updatedAt":"29/06/2026 14:05:04"}]},{"id":"10825","lat":45.1191227064854,"lon":8.246226984130885,"name":"eni 1445","brand":"Agip Eni","address":"GAMINELLA 17/B 15020, MOMBELLO MONFERRATO, AL","prices":[{"type":"petrol","price":1.849,"self":true,"updatedAt":"29/06/2026 23:17:57"},{"type":"diesel","price":1.924,"self":true,"updatedAt":"29/06/2026 18:34:14"}]},{"id":"47834","lat":45.087995921619594,"lon":8.129345691104518,"name":"6014","brand":"Tamoil","address":"TORINO 79 15020, MURISENGO, AL","prices":[{"type":"petrol","price":1.759,"self":true,"updatedAt":"29/06/2026 12:33:33"},{"type":"diesel","price":1.849,"self":true,"updatedAt":"29/06/2026 23:30:45"}]},{"id":"59110","lat":45.039576,"lon":8.031861,"name":"6882","brand":"Tamoil","address":"V. Torino  30172, CERRETO D'ASTI, AT","prices":[{"type":"petrol","price":1.739,"self":true,"updatedAt":"29/06/2026 15:04:17"},{"type":"diesel","price":1.819,"self":true,"updatedAt":"29/06/2026 15:04:17"},{"type":"lpg","price":0.719,"self":false,"updatedAt":"29/06/2026 08:04:18"}]},{"id":"44616","lat":45.008673000123,"lon":8.183205000123,"name":"staroil FRINCO","brand":"Pompe Bianche","address":"S.P. 22 KM 3+900  14030, FRINCO, AT","prices":[{"type":"petrol","price":1.899,"self":true,"updatedAt":"26/06/2026 16:18:19"},{"type":"diesel","price":1.999,"self":true,"updatedAt":"26/06/2026 16:18:19"}]},{"id":"60618","lat":45.15610526685613,"lon":8.06094897751863,"name":"Brusasco Economy","brand":"Economysrl","address":"SP 107 BRUSASCO / CRESCENTINO KM 0+875 10020, BRUSASCO, TO","prices":[{"type":"petrol","price":1.799,"self":true,"updatedAt":"26/06/2026 11:13:48"},{"type":"diesel","price":1.999,"self":true,"updatedAt":"26/06/2026 11:13:47"}]},{"id":"60584","lat":45.151604169562745,"lon":8.052130087247965,"name":"Economy srl - Cavagnolo","brand":"Economysrl","address":"Via C.Colombo 227  10020, CAVAGNOLO, TO","prices":[{"type":"petrol","price":1.799,"self":true,"updatedAt":"28/06/2026 23:18:18"},{"type":"diesel","price":1.999,"self":true,"updatedAt":"28/06/2026 23:18:18"}]},{"id":"41091","lat":45.159847628273994,"lon":8.022052883372908,"name":"3385","brand":"Tamoil","address":"S.S. 590 KM. 32+500 S.N. 10020, MONTEU DA PO, TO","prices":[{"type":"petrol","price":1.759,"self":true,"updatedAt":"29/06/2026 12:36:18"},{"type":"diesel","price":1.849,"self":true,"updatedAt":"29/06/2026 12:04:15"}]},{"id":"40491","lat":45.15855561959544,"lon":8.030732274055481,"name":"KEROPETROL SPA MONTEU DA PO","brand":"KEROPETROL","address":"590 KM 32+865 SNC 10020, MONTEU DA PO, TO","prices":[{"type":"petrol","price":1.767,"self":true,"updatedAt":"26/06/2026 13:34:39"},{"type":"diesel","price":1.847,"self":true,"updatedAt":"26/06/2026 13:34:39"}]},{"id":"56688","lat":45.19314779904249,"lon":8.095642318956642,"name":"ENI 00139","brand":"Agip Eni","address":"GIOTTO 32 13044, CRESCENTINO, VC","prices":[{"type":"petrol","price":1.824,"self":true,"updatedAt":"30/06/2026 00:24:54"},{"type":"diesel","price":1.884,"self":true,"updatedAt":"30/06/2026 00:24:54"}]},{"id":"54660","lat":45.1932617,"lon":8.093053,"name":"esso synergy","brand":"Esso","address":"GIOTTO 45 13044, CRESCENTINO, VC","prices":[{"type":"petrol","price":1.799,"self":true,"updatedAt":"29/06/2026 14:22:17"},{"type":"diesel","price":1.899,"self":true,"updatedAt":"29/06/2026 14:22:17"}]},{"id":"61797","lat":45.19357108673267,"lon":8.068959520908905,"name":"iplanet","brand":"Itala Petroli","address":"PROVINCIALE 31 BIS-KM 12 SNC 13044, CRESCENTINO, VC","prices":[{"type":"petrol","price":1.799,"self":true,"updatedAt":"29/06/2026 23:33:40"},{"type":"diesel","price":1.899,"self":true,"updatedAt":"29/06/2026 23:33:40"},{"type":"methane","price":1.449,"self":false,"updatedAt":"29/06/2026 23:33:40"},{"type":"lpg","price":0.709,"self":false,"updatedAt":"29/06/2026 23:33:40"}]},{"id":"62904","lat":45.24141891902875,"lon":8.180505643589997,"name":"Economy srl - Livorno Ferraris","brand":"Economysrl","address":"Strada Provinciale delle Grange  13046, LIVORNO FERRARIS, VC","prices":[{"type":"petrol","price":1.899,"self":true,"updatedAt":"28/06/2026 16:56:15"},{"type":"diesel","price":2.069,"self":true,"updatedAt":"28/06/2026 16:56:15"}]},{"id":"12632","lat":45.23191425646079,"lon":8.02081514945985,"name":"BONINO ALDO SRL","brand":"Pompe Bianche","address":"CRESCENTINO 31 13040, SALUGGIA, VC","prices":[{"type":"petrol","price":1.789,"self":true,"updatedAt":"29/06/2026 09:10:34"},{"type":"diesel","price":1.879,"self":true,"updatedAt":"29/06/2026 09:10:33"}]}]