[{"id":"11874","lat":45.362277267760085,"lon":7.7594934699059195,"name":"AGLIE'-S.P. 41 VIA CIRCONVALLAZIONE","brand":"Q8","address":"S.P. 41 VIA CIRCONVALLAZIONE  AGLIE' S/N 10011, AGLIÈ, TO","prices":[{"type":"petrol","price":1.779,"self":true,"updatedAt":"26/06/2026 07:43:52"},{"type":"diesel","price":1.889,"self":true,"updatedAt":"26/06/2026 07:43:52"}]},{"id":"52112","lat":45.44472620074555,"lon":7.921724617481232,"name":"ITALIANA PETROLI","brand":"Api-Ip","address":"STRADA PROVINCIALE IVREA/CIGLIANO  KM 5 10010, ALBIANO D'IVREA, TO","prices":[{"type":"petrol","price":1.799,"self":true,"updatedAt":"25/06/2026 11:22:51"},{"type":"diesel","price":1.899,"self":true,"updatedAt":"25/06/2026 11:22:51"},{"type":"lpg","price":0.729,"self":false,"updatedAt":"25/06/2026 11:22:51"}]},{"id":"40943","lat":45.4273623316446,"lon":7.948179915547371,"name":"luisa zanetto","brand":"Pompe Bianche","address":"VIA CARAVINO 18 10010, ALBIANO D'IVREA, TO","prices":[{"type":"petrol","price":1.788,"self":true,"updatedAt":"26/06/2026 09:12:13"},{"type":"diesel","price":1.868,"self":true,"updatedAt":"26/06/2026 09:12:13"}]},{"id":"51630","lat":45.38199565176413,"lon":7.761563411045063,"name":"Economy Bairo","brand":"Tamoil","address":"S.P. Bairo-Agliè Km 9+809  10010, BAIRO, TO","prices":[{"type":"petrol","price":1.789,"self":true,"updatedAt":"28/06/2026 16:34:15"},{"type":"diesel","price":1.999,"self":true,"updatedAt":"28/06/2026 16:34:15"}]},{"id":"42893","lat":45.45790831166072,"lon":7.859473247672099,"name":"2522","brand":"Tamoil","address":"S.C. BANCHETTE/SAMONE 11 10010, BANCHETTE, TO","prices":[{"type":"petrol","price":1.779,"self":true,"updatedAt":"28/06/2026 23:47:39"},{"type":"diesel","price":1.879,"self":true,"updatedAt":"28/06/2026 12:10:11"}]},{"id":"6228","lat":45.47008530653909,"lon":7.937876880168915,"name":"OIL SERVICE SNC DI MEDRI FABRIZIO & ROSSI MAURIZIO","brand":"Tamoil","address":"228 del Lago di Viverone, Km. 5.4, IVREA - 10012, BOLLENGO, TO","prices":[{"type":"petrol","price":1.739,"self":true,"updatedAt":"28/06/2026 01:16:45"},{"type":"diesel","price":1.829,"self":true,"updatedAt":"28/06/2026 01:16:45"}]},{"id":"5702","lat":45.46559371465181,"lon":7.958162426948547,"name":"viotto VIOTTO","brand":"Q8","address":"Statale 228 del Lago di Viverone, Km. 7+100, dir. Viverone - 10012, BOLLENGO, TO","prices":[{"type":"petrol","price":1.859,"self":false,"updatedAt":"25/06/2026 16:05:03"},{"type":"diesel","price":1.899,"self":false,"updatedAt":"25/06/2026 16:05:03"},{"type":"lpg","price":0.759,"self":false,"updatedAt":"25/06/2026 16:05:03"}]},{"id":"39875","lat":45.36901265951655,"lon":7.98198799292707,"name":"Economy-Borgomasino","brand":"Api-Ip","address":"Strada Statale Km. 15+370, dir. Cigliano-Ivrea  10031, BORGOMASINO, TO","prices":[{"type":"petrol","price":1.799,"self":true,"updatedAt":"26/06/2026 09:58:43"},{"type":"diesel","price":1.899,"self":true,"updatedAt":"26/06/2026 09:58:43"},{"type":"lpg","price":0.789,"self":false,"updatedAt":"26/06/2026 09:58:43"}]},{"id":"48734","lat":45.484171784087565,"lon":7.9315376482155076,"name":"Carrefor Tamoil Burolo","brand":"Tamoil","address":"Via Friuli snc  10010, BUROLO, TO","prices":[{"type":"petrol","price":1.769,"self":true,"updatedAt":"26/06/2026 17:17:13"},{"type":"diesel","price":1.859,"self":true,"updatedAt":"26/06/2026 17:17:13"}]},{"id":"11875","lat":45.30341353803404,"lon":7.879050672054291,"name":"CALUSO-NUOVA CIRCONVALLAZIONE KM 1+39","brand":"Q8","address":"NUOVA CIRCONVALLAZIONE KM 1+39 S/N 10014, CALUSO, TO","prices":[{"type":"petrol","price":1.809,"self":true,"updatedAt":"27/06/2026 07:40:23"},{"type":"diesel","price":1.899,"self":true,"updatedAt":"27/06/2026 07:40:23"}]},{"id":"12470","lat":45.30167468874566,"lon":7.889766744180292,"name":"IMPIANTO IP","brand":"Europam","address":"CORSO TORINO 33 10014, CALUSO, TO","prices":[{"type":"petrol","price":1.817,"self":true,"updatedAt":"27/06/2026 07:15:10"},{"type":"diesel","price":1.897,"self":true,"updatedAt":"27/06/2026 07:15:10"}]},{"id":"62419","lat":45.3087,"lon":7.8854,"name":"SOCOGAS RETE CALUSO","brand":"Bianco Carburanti","address":"Via Charles de Cossé de Brissac 26 10014, CALUSO, TO","prices":[{"type":"petrol","price":1.749,"self":true,"updatedAt":"26/06/2026 15:12:05"},{"type":"diesel","price":1.859,"self":true,"updatedAt":"26/06/2026 15:12:05"}]},{"id":"60630","lat":45.322718025412826,"lon":7.878940498750178,"name":"ECONOMY - CANDIA CANAVESE","brand":"Economysrl","address":"Via Roma  73 10010, CANDIA CANAVESE, TO","prices":[{"type":"petrol","price":1.749,"self":true,"updatedAt":"29/06/2026 07:53:24"},{"type":"diesel","price":1.859,"self":true,"updatedAt":"29/06/2026 07:53:24"}]},{"id":"21509","lat":45.436691344239414,"lon":7.826479375362396,"name":"Petroltermica Colleretto","brand":"Pompe Bianche","address":"SSP 565 KM 2+993  10010, COLLERETTO GIACOSA, TO","prices":[{"type":"petrol","price":1.789,"self":true,"updatedAt":"26/06/2026 16:24:23"},{"type":"diesel","price":1.869,"self":true,"updatedAt":"26/06/2026 16:24:23"},{"type":"lpg","price":0.699,"self":false,"updatedAt":"26/06/2026 16:24:23"}]},{"id":"12019","lat":45.26902536102089,"lon":7.818280245926985,"name":"indipendente","brand":"Pompe Bianche","address":"VIA UMBERTO I 160 10090, FOGLIZZO, TO","prices":[{"type":"petrol","price":1.79,"self":true,"updatedAt":"26/06/2026 21:54:48"},{"type":"diesel","price":1.89,"self":true,"updatedAt":"26/06/2026 21:54:48"}]},{"id":"63036","lat":45.4547011,"lon":7.879238099999999,"name":"00516 IVREA","brand":"Agip Eni","address":"Via Torino 155 10015, IVREA, TO","prices":[{"type":"petrol","price":1.815,"self":true,"updatedAt":"28/06/2026 23:58:14"},{"type":"diesel","price":1.885,"self":true,"updatedAt":"28/06/2026 23:58:14"}]},{"id":"39635","lat":45.47027347173395,"lon":7.876779246627052,"name":"chiuni luciano","brand":"Agip Eni","address":"via circonvallazione  60 10015, IVREA, TO","prices":[{"type":"petrol","price":1.814,"self":true,"updatedAt":"28/06/2026 01:20:54"},{"type":"diesel","price":1.884,"self":true,"updatedAt":"29/06/2026 07:15:30"}]},{"id":"25209","lat":45.47017380312816,"lon":7.912785451916989,"name":"CONAD SUPERMERCATO","brand":"CONAD","address":"CORSO VERCELLI 131 10015, IVREA, TO","prices":[{"type":"petrol","price":1.718,"self":true,"updatedAt":"27/06/2026 09:05:33"},{"type":"diesel","price":1.788,"self":true,"updatedAt":"27/06/2026 09:05:33"},{"type":"methane","price":1.548,"self":false,"updatedAt":"27/06/2026 09:05:33"}]},{"id":"57293","lat":45.456997045930144,"lon":7.878866158237465,"name":"CPP-IVREA","brand":"Costantin","address":"TORINO 58 10015, IVREA, TO","prices":[{"type":"petrol","price":1.759,"self":true,"updatedAt":"28/06/2026 23:55:28"},{"type":"diesel","price":1.839,"self":true,"updatedAt":"28/06/2026 23:55:28"}]},{"id":"53886","lat":45.45744,"lon":7.8669112,"name":"ENI","brand":"Agip Eni","address":"JERVIS 84 10015, IVREA, TO","prices":[{"type":"petrol","price":1.819,"self":true,"updatedAt":"28/06/2026 01:20:42"},{"type":"diesel","price":1.903,"self":true,"updatedAt":"29/06/2026 07:50:10"}]},{"id":"54295","lat":45.468358725152314,"lon":7.8942252695560455,"name":"Esso","brand":"Esso","address":"VERCELLI 220 10015, IVREA, TO","prices":[{"type":"petrol","price":1.729,"self":true,"updatedAt":"29/06/2026 07:11:33"},{"type":"diesel","price":1.819,"self":true,"updatedAt":"29/06/2026 07:11:33"}]},{"id":"15418","lat":45.468509020130114,"lon":7.891446501016617,"name":"IP Corso Vercelli 17 Ivrea","brand":"Api-Ip","address":"CORSO VERCELLI 17 10015, IVREA, TO","prices":[{"type":"petrol","price":1.789,"self":true,"updatedAt":"23/06/2026 18:22:18"},{"type":"diesel","price":1.859,"self":true,"updatedAt":"23/06/2026 18:22:18"}]},{"id":"7491","lat":45.44668155411896,"lon":7.877922539286828,"name":"IVREA STRADALE TORINO 200","brand":"Q8","address":"STRADALE TORINO 200 10015, IVREA, TO","prices":[{"type":"petrol","price":1.769,"self":true,"updatedAt":"27/06/2026 01:38:57"},{"type":"diesel","price":1.849,"self":true,"updatedAt":"27/06/2026 01:38:57"}]},{"id":"11853","lat":45.46857900348342,"lon":7.894059416007963,"name":"IVREA-CORSO VERCELLI 25","brand":"Q8","address":"CORSO VERCELLI 25 10015, IVREA, TO","prices":[{"type":"petrol","price":1.718,"self":true,"updatedAt":"27/06/2026 01:39:03"},{"type":"diesel","price":1.799,"self":true,"updatedAt":"27/06/2026 01:39:03"}]},{"id":"22557","lat":45.476917753887456,"lon":7.865856885910034,"name":"Vargas S.r.l. - Ivrea","brand":"Pompe Bianche","address":"26 della Valle d'Aosta, Km. 34, Aosta - 10015, IVREA, TO","prices":[{"type":"petrol","price":1.779,"self":true,"updatedAt":"28/06/2026 01:22:48"},{"type":"diesel","price":1.879,"self":true,"updatedAt":"28/06/2026 01:22:48"},{"type":"lpg","price":0.739,"self":false,"updatedAt":"28/06/2026 23:20:16"}]},{"id":"49833","lat":45.29430718684107,"lon":7.937207662209027,"name":"6228","brand":"Tamoil","address":"S.P. 81 KM. 12+682 S.N. 10035, MAZZÈ, TO","prices":[{"type":"petrol","price":1.789,"self":true,"updatedAt":"29/06/2026 00:15:11"},{"type":"diesel","price":1.889,"self":true,"updatedAt":"29/06/2026 00:15:11"}]},{"id":"11877","lat":45.33777452096672,"lon":7.835840284824371,"name":"MONTALENGHE-S.P. 82 KM 17+ 235","brand":"Q8","address":"S.P. 82 KM 17+ 235 S/N 10090, MONTALENGHE, TO","prices":[{"type":"petrol","price":1.819,"self":true,"updatedAt":"27/06/2026 07:40:25"},{"type":"diesel","price":1.909,"self":true,"updatedAt":"27/06/2026 07:40:25"}]},{"id":"6032","lat":45.48590314364823,"lon":7.863144937434413,"name":"zancanella massimo","brand":"Agip Eni","address":"STRADA IVREA 67 10016, MONTALTO DORA, TO","prices":[{"type":"petrol","price":1.814,"self":true,"updatedAt":"28/06/2026 01:18:39"},{"type":"diesel","price":1.884,"self":true,"updatedAt":"29/06/2026 07:16:53"},{"type":"methane","price":1.541,"self":false,"updatedAt":"28/06/2026 23:46:47"}]},{"id":"45515","lat":45.34331777529063,"lon":7.7648393902129555,"name":"EASY SERVICE S.R.L. / OZEGNA","brand":"Energas","address":"S.P. FELETTO AGLIE' KM 5+668  10080, OZEGNA, TO","prices":[{"type":"petrol","price":1.799,"self":true,"updatedAt":"29/06/2026 00:36:33"},{"type":"diesel","price":1.899,"self":true,"updatedAt":"29/06/2026 00:36:33"},{"type":"lpg","price":0.659,"self":false,"updatedAt":"29/06/2026 00:36:33"}]},{"id":"35308","lat":45.34802448167371,"lon":7.7533697336912155,"name":"eni ozegna","brand":"Agip Eni","address":"strada provinciale chivasso ozegna km 22 10080, OZEGNA, TO","prices":[{"type":"petrol","price":1.794,"self":true,"updatedAt":"28/06/2026 23:47:16"},{"type":"diesel","price":1.864,"self":true,"updatedAt":"28/06/2026 23:47:16"},{"type":"methane","price":1.554,"self":false,"updatedAt":"29/06/2023 10:16:17"}]},{"id":"5549","lat":45.44667964529431,"lon":7.857340411045016,"name":"PAVONE CANAVESE","brand":"Api-Ip","address":"S.P. IVREA SCARMAGNO VIA CIRCONVALLAZIONE 123 10018, PAVONE CANAVESE, TO","prices":[{"type":"petrol","price":1.789,"self":true,"updatedAt":"28/06/2026 09:14:40"},{"type":"diesel","price":1.889,"self":true,"updatedAt":"28/06/2026 09:14:40"}]},{"id":"37608","lat":45.38638625024504,"lon":7.862624153494835,"name":"CENTRO CALOR OLICARB ROMANO C.SE","brand":"Centro Calor","address":"VIALE MARCONI 4 10090, ROMANO CANAVESE, TO","prices":[{"type":"petrol","price":1.775,"self":true,"updatedAt":"26/06/2026 15:43:47"},{"type":"diesel","price":1.875,"self":true,"updatedAt":"26/06/2026 15:43:47"},{"type":"lpg","price":0.729,"self":false,"updatedAt":"26/06/2026 15:43:47"}]},{"id":"50705","lat":45.38464484398404,"lon":7.861838482717357,"name":"EUROPAM - ROMANO CANAVESE","brand":"Europam","address":"SP. STRAMBINO KM 3  10090, ROMANO CANAVESE, TO","prices":[{"type":"petrol","price":1.777,"self":true,"updatedAt":"26/06/2026 12:38:49"},{"type":"diesel","price":1.877,"self":true,"updatedAt":"26/06/2026 12:38:49"}]},{"id":"32248","lat":45.40116986749198,"lon":7.868578542327896,"name":"ROMANO CANAVESE - CASCINE45.4012","brand":"Api-Ip","address":"VIA PONTE CHIUSELLA 55 10090, ROMANO CANAVESE, TO","prices":[{"type":"petrol","price":1.799,"self":true,"updatedAt":"28/06/2026 09:02:07"},{"type":"diesel","price":1.899,"self":true,"updatedAt":"28/06/2026 09:02:07"}]},{"id":"48906","lat":45.44570193499552,"lon":7.848085887988296,"name":"IP SNACK BAR","brand":"Api-Ip","address":"SS565 1  10010, SAMONE, TO","prices":[{"type":"petrol","price":1.789,"self":true,"updatedAt":"26/06/2026 17:23:42"},{"type":"diesel","price":1.889,"self":true,"updatedAt":"26/06/2026 17:23:42"},{"type":"lpg","price":0.729,"self":false,"updatedAt":"26/06/2026 17:23:42"}]},{"id":"29812","lat":45.32336469347867,"lon":7.813349962234497,"name":"8255","brand":"Tamoil","address":"S.P.SAN GIUSTO/CIGLIANO KM.1+544 10090, SAN GIUSTO CANAVESE, TO","prices":[{"type":"petrol","price":1.829,"self":true,"updatedAt":"28/06/2026 12:02:29"},{"type":"diesel","price":1.879,"self":true,"updatedAt":"28/06/2026 12:02:29"}]},{"id":"15025","lat":45.314610920751335,"lon":7.808724614646735,"name":"SAN GIUSTO C.SE","brand":"Api-Ip","address":"VIA XXV LUGLIO 54 10090, SAN GIUSTO CANAVESE, TO","prices":[{"type":"petrol","price":1.829,"self":true,"updatedAt":"23/06/2026 12:14:27"},{"type":"diesel","price":1.929,"self":true,"updatedAt":"23/06/2026 12:14:27"}]},{"id":"3468","lat":45.40805737483786,"lon":7.84822940826416,"name":"SCARMAGNO EST","brand":"Api-Ip","address":"Autostrada A5 QUINCINETTO-TORINO,  Km. 35.12, dir. Nord - 10010, SCARMAGNO, TO","prices":[{"type":"petrol","price":1.844,"self":true,"updatedAt":"28/06/2026 11:16:20"},{"type":"diesel","price":1.917,"self":true,"updatedAt":"28/06/2026 11:16:20"},{"type":"lpg","price":0.902,"self":false,"updatedAt":"28/06/2026 11:16:20"}]},{"id":"35933","lat":45.40682848112129,"lon":7.8465718030929565,"name":"SCARMAGNO OVEST","brand":"Esso","address":"Autostrada A5 QUINCINETTO-TORINO, Km. 35+500, dir. Ovest - 10010, SCARMAGNO, TO","prices":[{"type":"petrol","price":2.092,"self":true,"updatedAt":"29/06/2026 07:40:01"},{"type":"diesel","price":2.242,"self":true,"updatedAt":"29/06/2026 07:40:01"}]},{"id":"59109","lat":45.395382,"lon":7.8844333,"name":"00782 Strambino","brand":"Agip Eni","address":"S.S.26  KM 24+460  S.N., STRAMBINO, TO","prices":[{"type":"petrol","price":1.809,"self":true,"updatedAt":"29/06/2026 00:46:13"},{"type":"diesel","price":1.889,"self":true,"updatedAt":"29/06/2026 00:46:13"}]},{"id":"24207","lat":45.407655906446394,"lon":7.8826528787612915,"name":"NI006685 STRAMBINO","brand":"Api-Ip","address":"S.S. 26 km. 25+880  10019, STRAMBINO, TO","prices":[{"type":"petrol","price":1.789,"self":true,"updatedAt":"28/06/2026 23:52:39"},{"type":"diesel","price":1.889,"self":true,"updatedAt":"28/06/2026 23:52:39"},{"type":"lpg","price":0.729,"self":false,"updatedAt":"28/06/2026 23:52:39"}]},{"id":"53382","lat":45.30867,"lon":7.88538,"name":"544 Caluso","brand":"Agip Eni","address":"Via Piave  10014, TORINO, TO","prices":[{"type":"petrol","price":1.809,"self":true,"updatedAt":"29/06/2026 00:20:11"},{"type":"diesel","price":1.889,"self":true,"updatedAt":"29/06/2026 00:20:11"},{"type":"methane","price":1.546,"self":false,"updatedAt":"29/06/2026 00:20:11"},{"type":"lpg","price":0.677,"self":false,"updatedAt":"29/06/2026 00:20:11"}]},{"id":"30833","lat":45.45803957603844,"lon":7.767264988183115,"name":"ALICE SUPERIORE - SP VALCHIUSELLA","brand":"Api-Ip","address":"S.P. VALCHIUSELLA KM 6,955  10010, VAL DI CHY, TO","prices":[{"type":"petrol","price":1.799,"self":true,"updatedAt":"28/06/2026 09:02:05"},{"type":"diesel","price":1.899,"self":true,"updatedAt":"28/06/2026 09:02:05"}]},{"id":"60450","lat":45.48980681963867,"lon":7.779132400000001,"name":"Economy srl - Valchiusa","brand":"Economy","address":"Valchiusa Via Provinciale 1, KM 11+776   10089, VALCHIUSA, TO","prices":[{"type":"petrol","price":1.899,"self":true,"updatedAt":"24/06/2026 21:30:31"},{"type":"diesel","price":1.999,"self":true,"updatedAt":"24/06/2026 21:30:31"}]},{"id":"60808","lat":45.396892404781006,"lon":7.941114955661853,"name":"Economy srl - Vestignè","brand":"Economysrl","address":"SP56  10030, VESTIGNÈ, TO","prices":[{"type":"petrol","price":1.899,"self":true,"updatedAt":"26/06/2026 09:18:44"},{"type":"diesel","price":1.999,"self":true,"updatedAt":"26/06/2026 09:18:44"}]},{"id":"10558","lat":45.2802934524368,"lon":7.986746728420258,"name":"CENTRO CALOR VILLAREGGIA","brand":"Centro Calor","address":"STRADA PROV.LE 11 PADANA SUP. KM.36,7  10030, VILLAREGGIA, TO","prices":[{"type":"petrol","price":1.785,"self":true,"updatedAt":"25/06/2026 15:55:35"},{"type":"diesel","price":1.879,"self":true,"updatedAt":"25/06/2026 15:55:35"},{"type":"lpg","price":0.719,"self":false,"updatedAt":"25/06/2026 15:55:35"}]},{"id":"51629","lat":45.31050302328368,"lon":7.983904139881144,"name":"Economy Villareggia","brand":"Tamoil","address":"595 di Mazze', Km. 9+300, Est -, VILLAREGGIA, TO","prices":[{"type":"petrol","price":1.899,"self":true,"updatedAt":"27/06/2026 21:30:16"},{"type":"diesel","price":1.968,"self":true,"updatedAt":"27/06/2026 21:30:16"}]},{"id":"38782","lat":45.44160725419862,"lon":7.767050288360451,"name":"Tamoil","brand":"Tamoil","address":"via valchiusella  20 10080, VISTRORIO, TO","prices":[{"type":"petrol","price":1.799,"self":true,"updatedAt":"29/06/2026 00:47:28"},{"type":"diesel","price":1.889,"self":true,"updatedAt":"29/06/2026 00:47:28"}]}]