[{"id":"53321","lat":45.5913588,"lon":7.7793792,"name":"ENJOY WASH","brand":"Agip Eni","address":"VIA ROMA 192 - S.S. 26 - 11020, DONNAS, AO","prices":[{"type":"petrol","price":1.829,"self":true,"updatedAt":"21/06/2026 20:38:02"},{"type":"diesel","price":1.919,"self":true,"updatedAt":"21/06/2026 20:38:02"}]},{"id":"46472","lat":45.599862920347896,"lon":7.788326285582002,"name":"7412","brand":"Tamoil","address":"CIRCONVALLAZIONE 18 11026, PONT-SAINT-MARTIN, AO","prices":[{"type":"petrol","price":1.859,"self":true,"updatedAt":"22/06/2026 00:30:16"},{"type":"diesel","price":1.969,"self":true,"updatedAt":"22/06/2026 00:30:16"}]},{"id":"40298","lat":45.59577444485858,"lon":7.798196700089079,"name":"EUROPAM","brand":"Europam","address":"VIA RESISTENZA 46 11026, PONT-SAINT-MARTIN, AO","prices":[{"type":"petrol","price":1.897,"self":false,"updatedAt":"19/06/2026 09:37:15"},{"type":"diesel","price":1.987,"self":false,"updatedAt":"19/06/2026 09:37:15"}]},{"id":"56250","lat":45.51591701947719,"lon":7.858086860462183,"name":"CPP - BORGOFRANCO","brand":"Centro Calor","address":"MARCONI/VIA CAVOUR 21 10013, BORGOFRANCO D'IVREA, TO","prices":[{"type":"petrol","price":1.779,"self":true,"updatedAt":"21/06/2026 00:29:36"},{"type":"diesel","price":1.879,"self":true,"updatedAt":"21/06/2026 00:29:36"}]},{"id":"19328","lat":45.56313284860322,"lon":7.809237027890276,"name":"tamoil di mangaretto flavio","brand":"Tamoil","address":"LARGO EUROPA 5 10010, QUINCINETTO, TO","prices":[{"type":"petrol","price":1.789,"self":true,"updatedAt":"21/06/2026 01:08:38"},{"type":"diesel","price":1.889,"self":true,"updatedAt":"21/06/2026 01:08:38"}]},{"id":"4141","lat":45.533222773345756,"lon":7.843243328681183,"name":"DALLE SETTIMO VITTONE","brand":"Dalle petroli","address":"FRAZIONE MONTESTRUTTO SNC 10010, SETTIMO VITTONE, TO","prices":[{"type":"petrol","price":1.778,"self":true,"updatedAt":"19/06/2026 17:44:12"},{"type":"diesel","price":1.878,"self":true,"updatedAt":"19/06/2026 17:44:12"},{"type":"lpg","price":0.728,"self":false,"updatedAt":"19/06/2026 17:44:12"}]},{"id":"11881","lat":45.54472987620788,"lon":7.8347768578952355,"name":"SETTIMO VITTONE-S.S.26 KM 42+475 TRAV. INT.","brand":"Q8","address":"S.S.26 KM 42+475 TRAV. INT. S/N 10010, SETTIMO VITTONE, TO","prices":[{"type":"petrol","price":1.789,"self":true,"updatedAt":"20/06/2026 08:11:24"},{"type":"diesel","price":1.888,"self":true,"updatedAt":"20/06/2026 08:11:24"}]}]