[{"id":"59657","lat":45.590893,"lon":12.853421,"name":"52802 CAORLE","brand":"Agip Eni","address":"LOC. PORTO SANTA MARGHERITA - C.SO  VENEZIA  SENZA, CAORLE, VE","prices":[{"type":"petrol","price":1.799,"self":true,"updatedAt":"22/06/2026 00:34:57"},{"type":"diesel","price":1.899,"self":true,"updatedAt":"22/06/2026 00:34:57"}]},{"id":"11945","lat":45.60169342801975,"lon":12.871005447885182,"name":"CAORLE-SP. 54 VL. PANAMA 49","brand":"Q8","address":"SP. 54 VL. PANAMA 49 30021, CAORLE, VE","prices":[{"type":"petrol","price":1.829,"self":true,"updatedAt":"20/06/2026 08:13:13"},{"type":"diesel","price":1.919,"self":true,"updatedAt":"20/06/2026 08:13:13"}]},{"id":"25135","lat":45.602506876559495,"lon":12.884171000000038,"name":"IP","brand":"Api-Ip","address":"corso chiggiato 3 30021, CAORLE, VE","prices":[{"type":"petrol","price":1.819,"self":true,"updatedAt":"19/06/2026 12:36:09"},{"type":"diesel","price":1.919,"self":true,"updatedAt":"19/06/2026 12:36:09"}]},{"id":"49878","lat":45.72146984979191,"lon":12.915125489234919,"name":"ESSO 9775 - LUGUGNANA DI PORTOGRUARO","brand":"Esso","address":"VIA FAUSTA 133 30026, PORTOGRUARO, VE","prices":[{"type":"petrol","price":1.809,"self":true,"updatedAt":"22/06/2026 00:48:33"},{"type":"diesel","price":1.909,"self":true,"updatedAt":"22/06/2026 00:48:33"}]},{"id":"7284","lat":45.74573974352555,"lon":12.990383271163978,"name":"SAN M AL TAGLIAMENTO -CASE BRUCIATE","brand":"Q8","address":"LOC.CASE BRUCIATE SN 30028, SAN MICHELE AL TAGLIAMENTO, VE","prices":[{"type":"petrol","price":1.839,"self":true,"updatedAt":"19/06/2026 01:40:18"},{"type":"diesel","price":1.939,"self":true,"updatedAt":"19/06/2026 01:40:18"},{"type":"lpg","price":0.799,"self":false,"updatedAt":"19/06/2026 01:40:18"}]},{"id":"37293","lat":45.65293931783306,"lon":12.833163812756538,"name":"Sia Fuel Ottava Presa","brand":"Sia fuel","address":"Via Volta La Salute di Livenza 8 30029, SAN STINO DI LIVENZA, VE","prices":[{"type":"petrol","price":1.849,"self":true,"updatedAt":"19/06/2026 15:59:18"},{"type":"diesel","price":1.979,"self":true,"updatedAt":"19/06/2026 15:59:18"},{"type":"lpg","price":0.799,"self":false,"updatedAt":"19/06/2026 15:59:18"}]},{"id":"26159","lat":45.661448527190814,"lon":12.802551090717316,"name":"Sia Fuel San Stino","brand":"Sia fuel","address":"CORSO CAVOUR SP 42 30020, SAN STINO DI LIVENZA, VE","prices":[{"type":"petrol","price":1.849,"self":true,"updatedAt":"19/06/2026 15:55:09"},{"type":"diesel","price":1.979,"self":true,"updatedAt":"19/06/2026 15:55:09"}]},{"id":"10826","lat":45.647984492662324,"lon":12.794631982803367,"name":"stazione di servizio Saltarel s.n.c. di Saltarel Michele & c.","brand":"Agip Eni","address":"VIA S.PELLICO 15 30020, SAN STINO DI LIVENZA, VE","prices":[{"type":"petrol","price":1.809,"self":true,"updatedAt":"21/06/2026 20:28:09"},{"type":"diesel","price":1.919,"self":true,"updatedAt":"21/06/2026 20:28:09"}]}]