[{"id":"53321","lat":45.5913588,"lon":7.7793792,"name":"ENJOY WASH","brand":"Agip Eni","address":"VIA ROMA 192 - S.S. 26 - 11020, DONNAS, AO","prices":[{"type":"petrol","price":1.829,"self":true,"updatedAt":"01/07/2026 00:37:22"},{"type":"diesel","price":1.889,"self":true,"updatedAt":"01/07/2026 00:37:22"}]},{"id":"46472","lat":45.599862920347896,"lon":7.788326285582002,"name":"7412","brand":"Tamoil","address":"CIRCONVALLAZIONE 18 11026, PONT-SAINT-MARTIN, AO","prices":[{"type":"petrol","price":1.829,"self":true,"updatedAt":"30/06/2026 00:10:33"},{"type":"diesel","price":1.889,"self":true,"updatedAt":"01/07/2026 00:18:26"}]},{"id":"40298","lat":45.59577444485858,"lon":7.798196700089079,"name":"EUROPAM","brand":"Europam","address":"VIA RESISTENZA 46 11026, PONT-SAINT-MARTIN, AO","prices":[{"type":"petrol","price":1.827,"self":false,"updatedAt":"30/06/2026 09:00:18"},{"type":"diesel","price":1.917,"self":false,"updatedAt":"30/06/2026 09:00:18"}]},{"id":"56250","lat":45.51591701947719,"lon":7.858086860462183,"name":"CPP - BORGOFRANCO","brand":"Centro Calor","address":"MARCONI/VIA CAVOUR 21 10013, BORGOFRANCO D'IVREA, TO","prices":[{"type":"petrol","price":1.729,"self":true,"updatedAt":"30/06/2026 00:04:57"},{"type":"diesel","price":1.829,"self":true,"updatedAt":"30/06/2026 00:04:57"}]},{"id":"19328","lat":45.56313284860322,"lon":7.809237027890276,"name":"tamoil di mangaretto flavio","brand":"Tamoil","address":"LARGO EUROPA 5 10010, QUINCINETTO, TO","prices":[{"type":"petrol","price":1.739,"self":true,"updatedAt":"30/06/2026 23:27:20"},{"type":"diesel","price":1.839,"self":true,"updatedAt":"30/06/2026 14:04:22"}]},{"id":"4141","lat":45.533222773345756,"lon":7.843243328681183,"name":"DALLE SETTIMO VITTONE","brand":"Dalle petroli","address":"FRAZIONE MONTESTRUTTO SNC 10010, SETTIMO VITTONE, TO","prices":[{"type":"petrol","price":1.728,"self":true,"updatedAt":"29/06/2026 14:47:41"},{"type":"diesel","price":1.808,"self":true,"updatedAt":"29/06/2026 14:47:41"},{"type":"lpg","price":0.728,"self":false,"updatedAt":"29/06/2026 14:47:41"}]},{"id":"11881","lat":45.54472987620788,"lon":7.8347768578952355,"name":"SETTIMO VITTONE-S.S.26 KM 42+475 TRAV. INT.","brand":"Q8","address":"S.S.26 KM 42+475 TRAV. INT. S/N 10010, SETTIMO VITTONE, TO","prices":[{"type":"petrol","price":1.779,"self":true,"updatedAt":"01/07/2026 07:42:33"},{"type":"diesel","price":1.848,"self":true,"updatedAt":"01/07/2026 07:42:33"}]}]