[{"id":"13344","lat":45.7294670402226,"lon":10.949904397130013,"name":"EMANUELLI GIORGIO","brand":"Pompe Bianche","address":"VIA NAZIONALE 66 38063, AVIO, TN","prices":[{"type":"petrol","price":1.999,"self":true,"updatedAt":"22/06/2026 08:08:48"},{"type":"diesel","price":2.048,"self":true,"updatedAt":"22/06/2026 08:08:48"}]},{"id":"18263","lat":45.73514561635401,"lon":10.942164431877131,"name":"total erg","brand":"Api-Ip","address":"VIALE DEGASPERI 13 38063, AVIO, TN","prices":[{"type":"petrol","price":1.839,"self":true,"updatedAt":"25/06/2026 15:23:12"},{"type":"diesel","price":1.939,"self":true,"updatedAt":"25/06/2026 15:23:12"}]},{"id":"34433","lat":45.55232841245597,"lon":10.78605830669403,"name":"AFFI","brand":"Agip Eni","address":"Strada Provinciale  29 37010, AFFI, VR","prices":[{"type":"petrol","price":1.825,"self":true,"updatedAt":"26/06/2026 23:43:01"},{"type":"diesel","price":1.884,"self":true,"updatedAt":"26/06/2026 23:43:01"},{"type":"lpg","price":0.792,"self":false,"updatedAt":"26/06/2026 23:43:01"}]},{"id":"38340","lat":45.51997435890414,"lon":10.757520943880081,"name":"Alan di Allegrini Nicola e c sas","brand":"Esso","address":"VIA VERONA 50 37011, BARDOLINO, VR","prices":[{"type":"petrol","price":1.829,"self":true,"updatedAt":"23/06/2026 10:13:03"},{"type":"diesel","price":1.929,"self":true,"updatedAt":"23/06/2026 10:13:03"}]},{"id":"62757","lat":45.695186920076786,"lon":10.91671273112297,"name":"ADIGE EST","brand":"Agip Eni","address":"Autostrada A22 BRENNERO-MODENA, Km. 186.98, dir. NORD - 37020, BRENTINO BELLUNO, VR","prices":[{"type":"petrol","price":1.889,"self":true,"updatedAt":"25/06/2026 12:07:58"},{"type":"diesel","price":1.959,"self":true,"updatedAt":"25/06/2026 12:07:58"}]},{"id":"62756","lat":45.695186920076786,"lon":10.91671273112297,"name":"ADIGE EST","brand":"Agip Eni","address":"Autostrada A22 BRENNERO-MODENA, Km. 186.98, dir. NORD - 37020, BRENTINO BELLUNO, VR","prices":[{"type":"diesel","price":1.899,"self":true,"updatedAt":"25/06/2026 12:07:14"}]},{"id":"40236","lat":45.695186920076786,"lon":10.91671273112297,"name":"ADIGE EST","brand":"Agip Eni","address":"Autostrada A22 BRENNERO-MODENA, Km. 186.98, dir. NORD - 37020, BRENTINO BELLUNO, VR","prices":[{"type":"petrol","price":1.899,"self":true,"updatedAt":"25/06/2026 12:06:28"},{"type":"diesel","price":1.979,"self":true,"updatedAt":"25/06/2026 12:06:28"}]},{"id":"62753","lat":45.69251155945151,"lon":10.911194086074829,"name":"ADIGE OVEST","brand":"Sarni Oil","address":"Autostrada A22 BRENNERO-MODENA, Km. 187,400, dir. SUD - 37020, BRENTINO BELLUNO, VR","prices":[{"type":"diesel","price":1.899,"self":true,"updatedAt":"25/06/2026 11:38:06"}]},{"id":"40428","lat":45.69251155945151,"lon":10.911194086074829,"name":"ADIGE OVEST","brand":"Sarni Oil","address":"Autostrada A22 BRENNERO-MODENA, Km. 187,400, dir. SUD - 37020, BRENTINO BELLUNO, VR","prices":[{"type":"petrol","price":1.899,"self":true,"updatedAt":"24/06/2026 14:10:55"},{"type":"diesel","price":1.999,"self":true,"updatedAt":"24/06/2026 14:10:55"},{"type":"lpg","price":0.899,"self":false,"updatedAt":"24/06/2026 14:10:55"}]},{"id":"44070","lat":45.60326681480114,"lon":10.795107046626981,"name":"B-PETROL - CAPRINO","brand":"bpetrol","address":"VIA SAN PANCRAZIO 41 37013, CAPRINO VERONESE, VR","prices":[{"type":"petrol","price":1.779,"self":true,"updatedAt":"28/06/2026 00:44:49"}]},{"id":"11957","lat":45.606430165311245,"lon":10.796036765175472,"name":"CAPRINO VERONESE-VIA GIULIO SANDRI 8","brand":"Q8","address":"VIA GIULIO SANDRI 8 37013, CAPRINO VERONESE, VR","prices":[{"type":"petrol","price":1.799,"self":true,"updatedAt":"27/06/2026 07:41:29"},{"type":"diesel","price":1.869,"self":true,"updatedAt":"27/06/2026 07:41:29"}]},{"id":"60093","lat":45.60043723210262,"lon":10.783930617643724,"name":"GIULIANO","brand":"Pompe Bianche","address":"PROVINCIALE DEL BALDO 8 37013, CAPRINO VERONESE, VR","prices":[{"type":"petrol","price":1.899,"self":true,"updatedAt":"26/06/2026 07:39:12"},{"type":"diesel","price":1.999,"self":true,"updatedAt":"26/06/2026 07:39:12"},{"type":"lpg","price":0.799,"self":false,"updatedAt":"26/06/2026 07:39:12"}]},{"id":"32856","lat":45.54035675673299,"lon":10.780409574508667,"name":"GARDA EST","brand":"Tamoil","address":"A22 BRENNERO-MODENA, Km. 108, NORD - 37010, CAVAION VERONESE, VR","prices":[{"type":"petrol","price":1.866,"self":true,"updatedAt":"28/06/2026 07:44:07"},{"type":"diesel","price":1.938,"self":true,"updatedAt":"28/06/2026 07:44:07"},{"type":"lpg","price":0.999,"self":false,"updatedAt":"28/06/2026 00:14:16"}]},{"id":"32857","lat":45.54073248291409,"lon":10.779545903205872,"name":"GARDA OVEST","brand":"Esso","address":"A22 BRENNERO-MODENA, Km. 207, SUD - 37010, CAVAION VERONESE, VR","prices":[{"type":"petrol","price":1.777,"self":true,"updatedAt":"27/06/2026 21:52:05"},{"type":"diesel","price":1.877,"self":true,"updatedAt":"27/06/2026 21:52:05"}]},{"id":"13137","lat":45.54386481436464,"lon":10.802103281021118,"name":"Metanauto Garda Sud S.r.l.","brand":"Costantin","address":"LOCALITA' CAMPOREGGIO 6 37010, CAVAION VERONESE, VR","prices":[{"type":"petrol","price":1.799,"self":true,"updatedAt":"28/06/2026 00:38:25"},{"type":"diesel","price":1.889,"self":true,"updatedAt":"28/06/2026 00:38:25"},{"type":"methane","price":1.597,"self":false,"updatedAt":"28/06/2026 00:38:25"}]},{"id":"22436","lat":45.536544496934255,"lon":10.775741189718246,"name":"TAMOIL","brand":"Tamoil","address":"POZZO DELL'AMORE S.P. 29 37010, CAVAION VERONESE, VR","prices":[{"type":"petrol","price":1.789,"self":true,"updatedAt":"28/06/2026 00:26:31"},{"type":"diesel","price":1.859,"self":true,"updatedAt":"28/06/2026 00:26:31"}]},{"id":"61711","lat":45.56954995892262,"lon":10.760706067085266,"name":"SMP ALBARE' DI COSTERMANO (VR)","brand":"San Marco Petroli","address":"Via Costabella 1 37010, COSTERMANO SUL GARDA, VR","prices":[{"type":"petrol","price":1.789,"self":true,"updatedAt":"28/06/2026 01:13:22"},{"type":"diesel","price":1.865,"self":true,"updatedAt":"28/06/2026 01:13:22"},{"type":"lpg","price":0.775,"self":false,"updatedAt":"27/06/2026 00:36:14"}]},{"id":"9930","lat":45.657085818387415,"lon":10.90243935585022,"name":"ENI-Agip Chiodi Maria 13763","brand":"Agip Eni","address":"BRENNERO 170 37020, DOLCÈ, VR","prices":[{"type":"petrol","price":1.905,"self":true,"updatedAt":"27/06/2026 23:49:23"},{"type":"diesel","price":1.974,"self":true,"updatedAt":"27/06/2026 23:49:23"}]},{"id":"6260","lat":45.6276158141193,"lon":10.985824565606663,"name":"UGOLINI ERBEZZO","brand":"Pompe Bianche","address":"LOC. CAPPELLA FASANI 33 37020, ERBEZZO, VR","prices":[{"type":"petrol","price":1.829,"self":true,"updatedAt":"25/06/2026 18:11:44"},{"type":"diesel","price":1.899,"self":true,"updatedAt":"25/06/2026 18:11:44"}]},{"id":"35165","lat":45.54092016558819,"lon":10.885678309192599,"name":"UGOLINI FUMANE","brand":"Pompe Bianche","address":"VERONA 38 37022, FUMANE, VR","prices":[{"type":"petrol","price":1.799,"self":true,"updatedAt":"24/06/2026 18:24:24"}]},{"id":"40212","lat":45.573099881545026,"lon":10.99198695671771,"name":"EUROPAM - GREZZANA","brand":"Europam","address":"VIA CROSARA FZ LUGO  37020, GREZZANA, VR","prices":[{"type":"petrol","price":1.727,"self":true,"updatedAt":"25/06/2026 21:30:42"},{"type":"diesel","price":1.647,"self":true,"updatedAt":"25/06/2026 21:30:42"}]},{"id":"55243","lat":45.51098786982397,"lon":10.93402236700058,"name":"eni f.lli degani snc","brand":"Agip Eni","address":"SAN VITO 64 37024, NEGRAR DI VALPOLICELLA, VR","prices":[{"type":"petrol","price":1.799,"self":true,"updatedAt":"27/06/2026 23:25:40"},{"type":"diesel","price":1.899,"self":true,"updatedAt":"27/06/2026 23:25:40"},{"type":"methane","price":1.547,"self":false,"updatedAt":"27/06/2026 23:25:40"},{"type":"lpg","price":0.799,"self":false,"updatedAt":"27/06/2026 23:25:40"}]},{"id":"48799","lat":45.50077936012293,"lon":10.937353364418033,"name":"ESSOTRUCK SERVICE 3","brand":"Esso","address":"STRADA NUOVA 5 37024, NEGRAR DI VALPOLICELLA, VR","prices":[{"type":"petrol","price":1.799,"self":true,"updatedAt":"25/06/2026 19:36:33"},{"type":"diesel","price":1.859,"self":true,"updatedAt":"25/06/2026 19:36:33"}]},{"id":"48319","lat":45.52265705957659,"lon":10.941192287265764,"name":"Righetti Carburanti","brand":"Pompe Bianche","address":"VIA PAPA GIOVANNI 10 37024, NEGRAR DI VALPOLICELLA, VR","prices":[{"type":"petrol","price":1.789,"self":true,"updatedAt":"26/06/2026 09:33:20"},{"type":"diesel","price":1.849,"self":true,"updatedAt":"26/06/2026 09:33:20"}]},{"id":"54874","lat":45.50303165220306,"lon":10.851918760981757,"name":"GNP PESCANTINA","brand":"GNP","address":"LOC. OSPEDALETTO SS12 KM 301 . 37026, PESCANTINA, VR","prices":[{"type":"petrol","price":1.787,"self":true,"updatedAt":"28/06/2026 00:41:17"},{"type":"diesel","price":1.867,"self":true,"updatedAt":"28/06/2026 00:41:17"}]},{"id":"42763","lat":45.542402000000024,"lon":10.802542915344247,"name":"B-PETROL - RIVOLI V.SE","brand":"bpetrol","address":"VIA DELL'INDUSTRIA OVEST 11 37010, RIVOLI VERONESE, VR","prices":[{"type":"petrol","price":1.779,"self":true,"updatedAt":"27/06/2026 23:57:47"},{"type":"lpg","price":0.779,"self":false,"updatedAt":"27/06/2026 23:57:47"}]},{"id":"22292","lat":45.57645970374895,"lon":10.804309397935867,"name":"STAZIONE SHELL VIA SABBIONI 7","brand":"Shell","address":"VIA SABBIONI 7 37010, RIVOLI VERONESE, VR","prices":[{"type":"petrol","price":1.839,"self":true,"updatedAt":"19/06/2026 07:21:47"},{"type":"diesel","price":1.969,"self":true,"updatedAt":"19/06/2026 07:21:47"}]},{"id":"48857","lat":45.51840718094441,"lon":10.890001645403652,"name":"3434","brand":"Tamoil","address":"VALPOLICELLA 18 37029, SAN PIETRO IN CARIANO, VR","prices":[{"type":"petrol","price":1.779,"self":true,"updatedAt":"28/06/2026 00:44:59"},{"type":"diesel","price":1.839,"self":true,"updatedAt":"28/06/2026 00:44:59"}]},{"id":"6509","lat":45.52366047450068,"lon":10.87503657301636,"name":"SAN PIETRO IN CARIANO DANTE 91","brand":"Q8","address":"VIA DANTE 91 37029, SAN PIETRO IN CARIANO, VR","prices":[{"type":"petrol","price":1.799,"self":true,"updatedAt":"27/06/2026 01:40:31"},{"type":"diesel","price":1.819,"self":true,"updatedAt":"27/06/2026 01:40:31"}]},{"id":"19976","lat":45.51763192806844,"lon":10.911719799041748,"name":"Tamoil","brand":"Tamoil","address":"Via Don Cesare Biasi 45C 37029, SAN PIETRO IN CARIANO, VR","prices":[{"type":"petrol","price":1.789,"self":true,"updatedAt":"27/06/2026 23:45:20"},{"type":"diesel","price":1.849,"self":true,"updatedAt":"27/06/2026 23:45:20"}]},{"id":"53316","lat":45.51978943369677,"lon":10.872859954833984,"name":"TAP SAN PIETRO","brand":"Pompe Bianche","address":"PROVINCIALE 1 KM 2,4  37029, SAN PIETRO IN CARIANO, VR","prices":[{"type":"petrol","price":1.799,"self":true,"updatedAt":"28/06/2026 00:08:51"},{"type":"diesel","price":1.839,"self":true,"updatedAt":"28/06/2026 00:08:50"},{"type":"methane","price":1.547,"self":false,"updatedAt":"28/06/2026 00:08:51"},{"type":"lpg","price":0.799,"self":false,"updatedAt":"28/06/2026 00:08:50"}]},{"id":"6264","lat":45.51455564808569,"lon":10.89343786239624,"name":"UGOLINI S.PIETRO IN CARIANO","brand":"Pompe Bianche","address":"VIA MARCONI 6 37029, SAN PIETRO IN CARIANO, VR","prices":[{"type":"petrol","price":1.799,"self":true,"updatedAt":"25/06/2026 18:09:38"}]},{"id":"44952","lat":45.511823000123,"lon":10.827161000123,"name":"6995 TAMOIL","brand":"Tamoil","address":"ALCIDE DE GASPERI KM 303 37015, SANT'AMBROGIO DI VALPOLICELLA, VR","prices":[{"type":"petrol","price":1.82,"self":true,"updatedAt":"26/06/2026 07:31:39"},{"type":"diesel","price":1.89,"self":true,"updatedAt":"26/06/2026 07:31:39"},{"type":"lpg","price":0.8,"self":false,"updatedAt":"26/06/2026 07:31:39"}]},{"id":"46675","lat":45.50724631107397,"lon":10.837933013074803,"name":"ENI","brand":"Agip Eni","address":"VIA A DE GASPERI 10/12 37015, SANT'AMBROGIO DI VALPOLICELLA, VR","prices":[{"type":"petrol","price":1.814,"self":true,"updatedAt":"27/06/2026 12:48:46"},{"type":"diesel","price":1.854,"self":true,"updatedAt":"27/06/2026 12:48:45"}]},{"id":"55360","lat":45.52583900408913,"lon":10.816680718307516,"name":"ENI","brand":"Agip Eni","address":"NAPOLEONE 36 37015, SANT'AMBROGIO DI VALPOLICELLA, VR","prices":[{"type":"petrol","price":1.829,"self":true,"updatedAt":"28/06/2026 01:26:00"},{"type":"diesel","price":1.899,"self":true,"updatedAt":"28/06/2026 01:25:59"}]},{"id":"45690","lat":45.52126656318516,"lon":10.853886008262634,"name":"KEROPETROL SPA SANT'AMBROGIO DI VALPOLICELLA","brand":"KEROPETROL","address":"VIA FRAZ. GARGAGNAGO VIA CASE SPARSE PIGNA N. 13 37010, SANT'AMBROGIO DI VALPOLICELLA (VR) 13 37015, SANT'AMBROGIO DI VALPOLICELLA, VR","prices":[{"type":"petrol","price":1.819,"self":true,"updatedAt":"25/06/2026 16:35:34"},{"type":"diesel","price":1.929,"self":true,"updatedAt":"25/06/2026 16:35:34"}]},{"id":"61701","lat":45.521715332226776,"lon":10.835774391889572,"name":"SMP SANT'AMBROGIO DI VALPOLICELLA","brand":"San Marco Petroli","address":"Via Giacomo Matteotti 8  37015, SANT'AMBROGIO DI VALPOLICELLA, VR","prices":[{"type":"petrol","price":1.799,"self":true,"updatedAt":"28/06/2026 00:00:49"},{"type":"diesel","price":1.855,"self":true,"updatedAt":"27/06/2026 12:14:17"}]},{"id":"30979","lat":45.59542966678144,"lon":10.959282738510524,"name":"STAZIONE DI SERVIZIO MAROGNA ANGELO","brand":"Api-Ip","address":"VIA CORRUBIO 26 37020, SANT'ANNA D'ALFAEDO, VR","prices":[{"type":"petrol","price":1.827,"self":true,"updatedAt":"26/06/2026 14:24:02"},{"type":"diesel","price":1.937,"self":true,"updatedAt":"26/06/2026 14:24:02"}]}]