[{"id":"18073","lat":45.72999744582221,"lon":12.391555948410087,"name":"distributore eni di daniel valter","brand":"Agip Eni","address":"MOLINETTO 52/A 31030, BREDA DI PIAVE, TV","prices":[{"type":"petrol","price":1.839,"self":true,"updatedAt":"21/06/2026 01:02:33"},{"type":"diesel","price":1.939,"self":true,"updatedAt":"21/06/2026 01:02:33"}]},{"id":"46140","lat":45.67989583519664,"lon":12.296049567394595,"name":"Bioil","brand":"bioil","address":"via salvo d'acquisto 22/1 31030, CARBONERA, TV","prices":[{"type":"petrol","price":1.799,"self":true,"updatedAt":"19/06/2026 11:13:33"},{"type":"diesel","price":1.899,"self":true,"updatedAt":"19/06/2026 11:13:33"},{"type":"lpg","price":0.749,"self":true,"updatedAt":"19/06/2026 11:13:33"}]},{"id":"28539","lat":45.74003222527309,"lon":12.292904555797577,"name":"COSTANTIN - CARBONERA","brand":"Costantin","address":"via postioma   31030, CARBONERA, TV","prices":[{"type":"petrol","price":1.799,"self":true,"updatedAt":"20/06/2026 08:41:01"},{"type":"diesel","price":1.899,"self":true,"updatedAt":"20/06/2026 08:41:01"}]},{"id":"61518","lat":45.740233729910976,"lon":12.291215028863668,"name":"Q8","brand":"Q8","address":"VIA POSTIOMA 27 31030, CARBONERA, TV","prices":[{"type":"petrol","price":1.873,"self":true,"updatedAt":"20/06/2026 12:58:57"},{"type":"diesel","price":1.963,"self":true,"updatedAt":"20/06/2026 12:58:57"},{"type":"lpg","price":0.829,"self":false,"updatedAt":"20/06/2026 12:58:57"}]},{"id":"61759","lat":45.690788,"lon":12.292548,"name":"SMP CARBONERA","brand":"San Marco Petroli","address":"Via IV Novembre 111 31030, CARBONERA, TV","prices":[{"type":"petrol","price":1.799,"self":true,"updatedAt":"22/06/2026 00:18:37"},{"type":"diesel","price":1.899,"self":true,"updatedAt":"22/06/2026 00:18:37"}]},{"id":"39951","lat":45.60229763489399,"lon":12.330111747126807,"name":"Casale sul Sile","brand":"Pompe Bianche","address":"BELVEDERE 17 31032, CASALE SUL SILE, TV","prices":[{"type":"petrol","price":1.799,"self":true,"updatedAt":"22/06/2026 00:20:56"},{"type":"diesel","price":1.899,"self":true,"updatedAt":"22/06/2026 00:20:56"}]},{"id":"39711","lat":45.59586109727592,"lon":12.266635000705719,"name":"Casale sul Sile","brand":"Api-Ip","address":"S.p. 107 snc 31032, CASALE SUL SILE, TV","prices":[{"type":"petrol","price":1.789,"self":true,"updatedAt":"21/06/2026 09:10:45"},{"type":"diesel","price":1.889,"self":true,"updatedAt":"21/06/2026 09:10:45"}]},{"id":"15168","lat":45.60176111424057,"lon":12.326436618385287,"name":"esso","brand":"Esso","address":"VIA NUOVA TREVIGIANA 45 31032, CASALE SUL SILE, TV","prices":[{"type":"petrol","price":1.779,"self":true,"updatedAt":"22/06/2026 07:25:26"},{"type":"diesel","price":1.869,"self":true,"updatedAt":"22/06/2026 07:25:26"}]},{"id":"53234","lat":45.589026885178676,"lon":12.338556299255353,"name":"IP Italiana Petroli - Casale Sul Sile","brand":"Api-Ip","address":"SAN MICHELE 62 31032, CASALE SUL SILE, TV","prices":[{"type":"petrol","price":1.799,"self":true,"updatedAt":"19/06/2026 16:32:02"},{"type":"diesel","price":1.899,"self":true,"updatedAt":"19/06/2026 16:32:02"},{"type":"lpg","price":0.809,"self":false,"updatedAt":"19/06/2026 16:32:02"}]},{"id":"26155","lat":45.60117889394231,"lon":12.27622389793396,"name":"Sia Fuel Casale","brand":"Sia fuel","address":"VIA SCHIAVONIA 24 31032, CASALE SUL SILE, TV","prices":[{"type":"petrol","price":1.789,"self":true,"updatedAt":"19/06/2026 17:37:20"},{"type":"diesel","price":1.859,"self":true,"updatedAt":"19/06/2026 17:37:20"},{"type":"lpg","price":0.759,"self":false,"updatedAt":"19/06/2026 17:37:20"}]},{"id":"49281","lat":45.60781498444197,"lon":12.299148565239788,"name":"SILE EST","brand":"Q8","address":"A27 MESTRE-BELLUNO, Km. 8+900, Belluno - 31032, CASALE SUL SILE, TV","prices":[{"type":"petrol","price":1.859,"self":true,"updatedAt":"22/06/2026 00:20:27"},{"type":"diesel","price":2.109,"self":true,"updatedAt":"22/06/2026 00:20:27"},{"type":"lpg","price":0.821,"self":false,"updatedAt":"16/11/2021 07:15:28"}]},{"id":"48847","lat":45.59907744426375,"lon":12.296323776245112,"name":"SILE OVEST","brand":"Tamoil","address":"A27 MESTRE-BELLUNO, Km. 8+894, SUD - 31032, CASALE SUL SILE, TV","prices":[{"type":"petrol","price":1.879,"self":true,"updatedAt":"21/06/2026 18:30:06"},{"type":"diesel","price":1.979,"self":true,"updatedAt":"21/06/2026 18:30:06"},{"type":"lpg","price":0.891,"self":false,"updatedAt":"21/06/2026 18:30:10"}]},{"id":"61720","lat":45.611657622022605,"lon":12.328164875507355,"name":"SMP CASALE SUL SILE VIA NUOVA TREVIGIANA","brand":"San Marco Petroli","address":"Via Nuova Trevigiana Casale 125  31032, CASALE SUL SILE, TV","prices":[{"type":"petrol","price":1.799,"self":true,"updatedAt":"21/06/2026 23:43:34"},{"type":"diesel","price":1.895,"self":true,"updatedAt":"21/06/2026 23:43:34"}]},{"id":"17032","lat":45.612514838120156,"lon":12.264320254325867,"name":"Dinagas","brand":"Pompe Bianche","address":"Viale delle Industrie, Dosson di Casier 137 31030, CASIER, TV","prices":[{"type":"petrol","price":1.839,"self":true,"updatedAt":"17/06/2026 08:46:58"},{"type":"diesel","price":1.939,"self":true,"updatedAt":"17/06/2026 08:46:57"},{"type":"lpg","price":0.779,"self":false,"updatedAt":"17/06/2026 08:46:58"}]},{"id":"43619","lat":45.74751664148511,"lon":12.32189841104514,"name":"DA OIL - MASERADA","brand":"Pompe Bianche","address":"VIALE CACCIANIGA 109 31052, MASERADA SUL PIAVE, TV","prices":[{"type":"petrol","price":1.839,"self":true,"updatedAt":"20/06/2026 13:00:35"},{"type":"diesel","price":1.939,"self":true,"updatedAt":"20/06/2026 13:00:35"}]},{"id":"61728","lat":45.74258944315922,"lon":12.32569120824337,"name":"SMP MASERADA SUL PIAVE","brand":"San Marco Petroli","address":"Via Papadopoli Sud 2  31052, MASERADA SUL PIAVE, TV","prices":[{"type":"petrol","price":1.847,"self":true,"updatedAt":"21/06/2026 23:21:10"},{"type":"diesel","price":1.945,"self":true,"updatedAt":"21/06/2026 23:21:10"}]},{"id":"60729","lat":45.58865,"lon":12.30757,"name":"13618 MOGLIANO VENETO","brand":"Agip Eni","address":"VIA CASALE SUL SILE 14 SP64, MOGLIANO VENETO, TV","prices":[{"type":"petrol","price":1.829,"self":true,"updatedAt":"22/06/2026 00:27:01"},{"type":"diesel","price":1.919,"self":true,"updatedAt":"22/06/2026 00:27:01"},{"type":"lpg","price":0.727,"self":false,"updatedAt":"22/06/2026 00:27:01"}]},{"id":"6489","lat":45.56738985547974,"lon":12.259905338287354,"name":"MOGLIANO VENETO VIA ZERMANESA 116 SP 64","brand":"Q8","address":"VIA ZERMANESA SP 64 116 31021, MOGLIANO VENETO, TV","prices":[{"type":"petrol","price":1.829,"self":true,"updatedAt":"20/06/2026 08:13:29"},{"type":"diesel","price":1.919,"self":true,"updatedAt":"20/06/2026 08:13:29"},{"type":"lpg","price":0.787,"self":false,"updatedAt":"20/06/2026 08:13:29"}]},{"id":"61723","lat":45.57148729663653,"lon":12.264465093612671,"name":"SMP MOGLIANO VENETO","brand":"San Marco Petroli","address":"Via Zermanesa 83  31021, MOGLIANO VENETO, TV","prices":[{"type":"petrol","price":1.845,"self":true,"updatedAt":"22/06/2026 00:25:14"},{"type":"diesel","price":1.935,"self":true,"updatedAt":"22/06/2026 00:25:14"}]},{"id":"50731","lat":45.65125106139745,"lon":12.424584792625062,"name":"4727","brand":"Tamoil","address":"LOMBARDIA 1 31050, MONASTIER DI TREVISO, TV","prices":[{"type":"petrol","price":1.799,"self":true,"updatedAt":"22/06/2026 00:24:37"},{"type":"diesel","price":1.879,"self":true,"updatedAt":"22/06/2026 00:24:37"},{"type":"methane","price":1.399,"self":true,"updatedAt":"22/06/2026 00:24:37"},{"type":"lpg","price":0.759,"self":false,"updatedAt":"22/06/2026 00:24:37"}]},{"id":"34460","lat":45.72742150597593,"lon":12.473470866680145,"name":"Esso","brand":"Agip Eni","address":"VIA POSTUMIA 50/C 31047, PONTE DI PIAVE, TV","prices":[{"type":"petrol","price":1.809,"self":true,"updatedAt":"22/06/2026 00:18:58"},{"type":"diesel","price":1.909,"self":true,"updatedAt":"22/06/2026 00:18:58"}]},{"id":"36186","lat":45.71273438325514,"lon":12.464432142206192,"name":"GNP PONTE DI PIAVE","brand":"GNP","address":"VIA JESOLO 20 31047, PONTE DI PIAVE (TV) 20 31047, PONTE DI PIAVE, TV","prices":[{"type":"petrol","price":1.797,"self":true,"updatedAt":"21/06/2026 10:04:17"},{"type":"diesel","price":1.897,"self":true,"updatedAt":"21/06/2026 10:04:17"}]},{"id":"42368","lat":45.733575669625964,"lon":12.432668432593346,"name":"NOALOIL PV13 Negrisia","brand":"Noaloil","address":"Via San Romano 64 31047, PONTE DI PIAVE, TV","prices":[{"type":"petrol","price":1.799,"self":true,"updatedAt":"19/06/2026 10:53:47"},{"type":"diesel","price":1.899,"self":true,"updatedAt":"19/06/2026 10:53:47"}]},{"id":"12084","lat":45.71547053161837,"lon":12.462795674800873,"name":"PONTE DI PIAVE","brand":"Api-Ip","address":"VIA POSTUMIA  31047, PONTE DI PIAVE, TV","prices":[{"type":"petrol","price":1.817,"self":true,"updatedAt":"21/06/2026 09:15:45"},{"type":"diesel","price":1.897,"self":true,"updatedAt":"21/06/2026 09:15:45"}]},{"id":"56928","lat":45.6267695,"lon":12.3724819,"name":"4782","brand":"Tamoil","address":"VIA GIOVANNI XXIII 22, RONCADE, TV","prices":[{"type":"petrol","price":1.799,"self":true,"updatedAt":"21/06/2026 12:30:07"},{"type":"diesel","price":1.899,"self":true,"updatedAt":"21/06/2026 12:30:07"}]},{"id":"9968","lat":45.62345304570195,"lon":12.37603209762267,"name":"RONCADE VIA GARIBALDI N. 17","brand":"Q8","address":"VIA GARIBALDI 17 31056, RONCADE, TV","prices":[{"type":"petrol","price":1.814,"self":true,"updatedAt":"20/06/2026 01:39:32"},{"type":"diesel","price":1.919,"self":true,"updatedAt":"20/06/2026 01:39:32"}]},{"id":"11902","lat":45.6354725422649,"lon":12.42563988227846,"name":"RONCADE-VIA E. HEMINGWAY 1/A","brand":"Q8","address":"VIA E. HEMINGWAY 1/A 31056, RONCADE, TV","prices":[{"type":"petrol","price":1.814,"self":true,"updatedAt":"20/06/2026 01:39:30"},{"type":"diesel","price":1.919,"self":true,"updatedAt":"20/06/2026 01:39:30"}]},{"id":"31531","lat":45.63798165553188,"lon":12.396373450756073,"name":"VEGA RONCADE","brand":"Vega","address":"S.R. 89 KM 9+223 VIA TREVISO MARE 40 31056, RONCADE, TV","prices":[{"type":"petrol","price":1.799,"self":true,"updatedAt":"19/06/2026 08:10:46"},{"type":"diesel","price":1.899,"self":true,"updatedAt":"19/06/2026 08:10:46"}]},{"id":"38333","lat":45.67558833673567,"lon":12.335780900000032,"name":"03627","brand":"Agip Eni","address":"VIA POSTUMIA OVEST 82 31048, SAN BIAGIO DI CALLALTA, TV","prices":[{"type":"petrol","price":1.814,"self":true,"updatedAt":"22/06/2026 07:38:31"},{"type":"diesel","price":1.919,"self":true,"updatedAt":"22/06/2026 07:38:31"}]},{"id":"34265","lat":45.68648073682865,"lon":12.385526597499847,"name":"2547","brand":"Tamoil","address":"S.S. N 53 KM 72+255 SNC 31048, SAN BIAGIO DI CALLALTA, TV","prices":[{"type":"petrol","price":1.789,"self":true,"updatedAt":"22/06/2026 00:35:13"},{"type":"diesel","price":1.859,"self":true,"updatedAt":"22/06/2026 00:35:13"}]},{"id":"56567","lat":45.689238,"lon":12.392237,"name":"AREA DI SERVIO SHELL DI URBAN GIANNI","brand":"Shell","address":"POSTUMIA EST 5 31048, SAN BIAGIO DI CALLALTA, TV","prices":[{"type":"petrol","price":1.789,"self":true,"updatedAt":"20/06/2026 06:14:48"},{"type":"diesel","price":1.859,"self":true,"updatedAt":"20/06/2026 06:14:48"}]},{"id":"10752","lat":45.6819917680725,"lon":12.359233000802647,"name":"FORCOLIN STEFANO","brand":"Agip Eni","address":"VIA POSTUMIA OVEST 37 31048, SAN BIAGIO DI CALLALTA, TV","prices":[{"type":"petrol","price":1.789,"self":true,"updatedAt":"21/06/2026 23:20:01"},{"type":"diesel","price":1.864,"self":true,"updatedAt":"21/06/2026 23:20:01"}]},{"id":"54862","lat":45.6462097,"lon":12.3240312,"name":"IP 46140","brand":"Api-Ip","address":"Via Treviso Mare 12  31048, SAN BIAGIO DI CALLALTA, TV","prices":[{"type":"petrol","price":1.879,"self":true,"updatedAt":"21/06/2026 23:25:37"},{"type":"diesel","price":2.139,"self":true,"updatedAt":"21/06/2026 23:25:37"}]},{"id":"32470","lat":45.70618938869083,"lon":12.443084418385297,"name":"OIL ITALIA SAN BIAGIO DI CALLALTA","brand":"Oil Italia","address":"VIA POSTUMIA EST, 159 31048, SAN BIAGIO DI CALLALTA, TV","prices":[{"type":"petrol","price":1.785,"self":true,"updatedAt":"21/06/2026 15:55:03"},{"type":"diesel","price":1.905,"self":true,"updatedAt":"21/06/2026 16:00:09"}]},{"id":"35741","lat":45.680745947993124,"lon":12.349931001663208,"name":"STAZ. ENI MARCON ALDO DI MORENO E RENZO MARCON SNC","brand":"Agip Eni","address":"VIA POSTUMIA OVEST 65 31048, SAN BIAGIO DI CALLALTA, TV","prices":[{"type":"petrol","price":1.819,"self":true,"updatedAt":"22/06/2026 00:05:41"},{"type":"diesel","price":1.914,"self":true,"updatedAt":"22/06/2026 00:05:41"},{"type":"lpg","price":0.749,"self":false,"updatedAt":"22/06/2026 00:05:41"}]},{"id":"15470","lat":45.66046196980168,"lon":12.331281153442433,"name":"XOil","brand":"Xoil","address":"Via Agozzo 43/C (S.P. 167)  31048, SAN BIAGIO DI CALLALTA, TV","prices":[{"type":"petrol","price":1.759,"self":true,"updatedAt":"22/06/2026 08:01:07"},{"type":"diesel","price":1.859,"self":true,"updatedAt":"22/06/2026 08:01:07"},{"type":"lpg","price":0.749,"self":false,"updatedAt":"22/06/2026 08:01:06"}]},{"id":"13667","lat":45.627024282942344,"lon":12.335528880357742,"name":"ENERGYCA BACCHIN Sas","brand":"Energyca","address":"VIA S. ELENA 60 31057, SILEA, TV","prices":[{"type":"petrol","price":1.858,"self":true,"updatedAt":"18/06/2026 22:21:24"},{"type":"diesel","price":1.958,"self":true,"updatedAt":"18/06/2026 22:21:24"}]},{"id":"57352","lat":45.70092,"lon":12.259352,"name":"3618 TREVISO FELISSENT","brand":"Agip Eni","address":"Viale G. G. Felissent 118, TREVISO, TV","prices":[{"type":"petrol","price":1.829,"self":true,"updatedAt":"21/06/2026 00:44:17"},{"type":"diesel","price":1.919,"self":true,"updatedAt":"21/06/2026 00:44:17"}]},{"id":"58590","lat":45.665493,"lon":12.258606,"name":"3621 TREVISO","brand":"Agip Eni","address":"VIA  IV NOVEMBRE  32, TREVISO, TV","prices":[{"type":"petrol","price":1.829,"self":true,"updatedAt":"21/06/2026 23:18:19"},{"type":"diesel","price":1.919,"self":true,"updatedAt":"21/06/2026 23:18:19"}]},{"id":"55945","lat":45.65470560677336,"lon":12.272071838378906,"name":"Eni GNC - GNL Tangenziale","brand":"Agip Eni","address":"via Livenza, 4  31100, TREVISO, TV","prices":[{"type":"petrol","price":1.849,"self":true,"updatedAt":"22/06/2026 00:38:58"},{"type":"diesel","price":1.959,"self":true,"updatedAt":"22/06/2026 00:38:57"},{"type":"methane","price":1.399,"self":true,"updatedAt":"22/06/2026 00:38:58"},{"type":"lpg","price":0.789,"self":false,"updatedAt":"22/06/2026 06:58:16"}]},{"id":"10751","lat":45.655554259422665,"lon":12.25378791527487,"name":"impianto ENI FORCOLIN STEFANO","brand":"Agip Eni","address":"VIA SANT'ANTONINO 126 31100, TREVISO, TV","prices":[{"type":"petrol","price":1.824,"self":true,"updatedAt":"22/06/2026 07:44:15"},{"type":"diesel","price":1.919,"self":true,"updatedAt":"22/06/2026 07:44:15"}]},{"id":"21113","lat":45.678778842619984,"lon":12.26578615650078,"name":"metanotv1","brand":"Pompe Bianche","address":"BIBANO, 17 31100, TREVISO, TV","prices":[{"type":"methane","price":1.299,"self":false,"updatedAt":"19/06/2026 13:54:15"}]},{"id":"55658","lat":45.655565,"lon":12.273435,"name":"Stazione di servizio IP","brand":"Api-Ip","address":"LIVENZA 1 31100, TREVISO, TV","prices":[{"type":"petrol","price":1.859,"self":true,"updatedAt":"17/06/2026 08:50:07"},{"type":"diesel","price":1.959,"self":true,"updatedAt":"17/06/2026 08:50:07"},{"type":"lpg","price":0.799,"self":false,"updatedAt":"17/06/2026 08:50:07"}]},{"id":"5551","lat":45.662896118084696,"lon":12.266703341104517,"name":"TREVISO","brand":"Api-Ip","address":"Via Postumia 2 31100, TREVISO, TV","prices":[{"type":"petrol","price":1.799,"self":true,"updatedAt":"21/06/2026 09:16:20"},{"type":"diesel","price":1.899,"self":true,"updatedAt":"21/06/2026 09:16:20"}]},{"id":"30832","lat":45.66420367247441,"lon":12.261784768717234,"name":"TREVISO - VIA IV NOVEMBRE 78","brand":"Q8","address":"VIA IV NOVEMBRE  78 31100, TREVISO, TV","prices":[{"type":"petrol","price":1.819,"self":true,"updatedAt":"20/06/2026 08:13:29"},{"type":"diesel","price":1.909,"self":true,"updatedAt":"20/06/2026 08:13:29"}]},{"id":"6490","lat":45.697623812998906,"lon":12.259260053967296,"name":"TREVISO V.LE FELISSENT 104","brand":"Q8","address":"V.LE FELISSENT 104 31100, TREVISO, TV","prices":[{"type":"petrol","price":1.824,"self":true,"updatedAt":"20/06/2026 01:39:33"},{"type":"diesel","price":1.924,"self":true,"updatedAt":"20/06/2026 01:39:33"}]},{"id":"62296","lat":45.6809721,"lon":12.2521944,"name":"TREVISO VIA BRIGATA TREVISO 23","brand":"Q8","address":"VIA BRIGATA TREVISO 23, TREVISO, TV","prices":[{"type":"petrol","price":1.829,"self":true,"updatedAt":"20/06/2026 08:13:27"},{"type":"diesel","price":1.929,"self":true,"updatedAt":"20/06/2026 08:13:27"}]},{"id":"4353","lat":45.702982393387536,"lon":12.259179800748825,"name":"EUROGAS","brand":"Pompe Bianche","address":"VIA CAVE 2 31050, VILLORBA, TV","prices":[{"type":"lpg","price":0.769,"self":false,"updatedAt":"21/06/2026 23:35:16"}]},{"id":"34170","lat":45.735427028339394,"lon":12.259364873170853,"name":"Sia Fuel Villorba","brand":"Sia fuel","address":"Via Postioma 45/A 31020, VILLORBA, TV","prices":[{"type":"petrol","price":1.845,"self":true,"updatedAt":"19/06/2026 15:57:20"},{"type":"diesel","price":1.955,"self":true,"updatedAt":"19/06/2026 15:57:20"}]},{"id":"43207","lat":45.73515115094308,"lon":12.250231084655752,"name":"Sia Fuel Villorba 2 Castrette","brand":"Sia fuel","address":"Via Roma 177 31020, VILLORBA, TV","prices":[{"type":"petrol","price":1.845,"self":true,"updatedAt":"19/06/2026 15:57:30"},{"type":"diesel","price":1.955,"self":true,"updatedAt":"19/06/2026 15:57:30"}]},{"id":"31162","lat":45.73653755203557,"lon":12.280418872833252,"name":"Stazione di servizio Eni 13638","brand":"Agip Eni","address":"Via Liviana Scattolon 4 31020, VILLORBA, TV","prices":[{"type":"petrol","price":1.829,"self":true,"updatedAt":"22/06/2026 06:58:08"},{"type":"diesel","price":1.924,"self":true,"updatedAt":"22/06/2026 06:58:08"},{"type":"methane","price":1.323,"self":false,"updatedAt":"21/06/2026 23:52:25"},{"type":"lpg","price":0.769,"self":false,"updatedAt":"21/06/2026 23:52:25"}]},{"id":"42118","lat":45.71929733438696,"lon":12.285195203596459,"name":"TAMOIL DI EL ZAATARI SOBHI","brand":"Tamoil","address":"PIAVE 219/B 31020, VILLORBA, TV","prices":[{"type":"petrol","price":1.859,"self":true,"updatedAt":"22/06/2026 00:00:51"},{"type":"diesel","price":1.939,"self":true,"updatedAt":"22/06/2026 00:00:51"}]},{"id":"48226","lat":45.548018296965076,"lon":12.30475570022091,"name":"MARCON VIA MATTEI 9/A","brand":"Q8","address":"VIA MATTEI 9/A 30020, MARCON, VE","prices":[{"type":"petrol","price":1.779,"self":true,"updatedAt":"20/06/2026 01:39:23"},{"type":"diesel","price":1.899,"self":true,"updatedAt":"20/06/2026 01:39:23"}]},{"id":"11944","lat":45.55483005046449,"lon":12.298438309192647,"name":"MARCON-VIALE SAN MARCO 1","brand":"Q8","address":"VIALE SAN MARCO 1 30020, MARCON, VE","prices":[{"type":"petrol","price":1.799,"self":true,"updatedAt":"20/06/2026 08:13:16"},{"type":"diesel","price":1.929,"self":true,"updatedAt":"20/06/2026 08:13:16"}]},{"id":"39158","lat":45.54983322489029,"lon":12.294860157008316,"name":"VEGA MARCON","brand":"Vega","address":"VIA DELLA COSTITUZIONE  30020, MARCON, VE","prices":[{"type":"petrol","price":1.779,"self":true,"updatedAt":"19/06/2026 09:20:51"},{"type":"diesel","price":1.899,"self":true,"updatedAt":"22/06/2026 07:50:47"},{"type":"lpg","price":0.799,"self":false,"updatedAt":"15/06/2026 09:00:50"}]},{"id":"61698","lat":45.623019061430824,"lon":12.472625970840454,"name":"SMP MEOLO","brand":"San Marco Petroli","address":"Via Treviso Mare 26  30020, MEOLO, VE","prices":[{"type":"petrol","price":1.799,"self":true,"updatedAt":"21/06/2026 00:39:32"},{"type":"diesel","price":1.899,"self":true,"updatedAt":"21/06/2026 00:39:32"},{"type":"lpg","price":0.785,"self":false,"updatedAt":"21/06/2026 23:57:13"}]},{"id":"56404","lat":45.559858151723994,"lon":12.458843703926563,"name":"BENZA Quarto d'Altino","brand":"Benza","address":"TREZZE 26 30020, QUARTO D'ALTINO, VE","prices":[{"type":"petrol","price":1.785,"self":true,"updatedAt":"22/06/2026 00:48:20"},{"type":"diesel","price":1.887,"self":true,"updatedAt":"22/06/2026 00:48:20"},{"type":"lpg","price":0.759,"self":false,"updatedAt":"22/06/2026 00:44:06"}]},{"id":"16813","lat":45.5816103928115,"lon":12.367015043944093,"name":"Stazione di Servizio Eni di Massimo Baroni","brand":"Agip Eni","address":"via Roma 32, 30020 32 30020, QUARTO D'ALTINO, VE","prices":[{"type":"petrol","price":1.824,"self":true,"updatedAt":"22/06/2026 07:44:09"},{"type":"diesel","price":1.919,"self":true,"updatedAt":"22/06/2026 07:44:09"}]},{"id":"46104","lat":45.50449331934095,"lon":12.33558385767219,"name":"3891","brand":"Tamoil","address":"GALILEI TESSERA 64A 30173, VENEZIA, VE","prices":[{"type":"petrol","price":1.799,"self":true,"updatedAt":"21/06/2026 00:53:43"}]},{"id":"40134","lat":45.52548613951412,"lon":12.260113954544067,"name":"BAZZERA NORD","brand":"Q8","address":"Autostrada A57 TANGENZIALE DI MESTRE, Km. 18, dir. Venezia - 30173, VENEZIA, VE","prices":[{"type":"petrol","price":1.924,"self":true,"updatedAt":"20/06/2026 10:08:00"},{"type":"diesel","price":2.034,"self":true,"updatedAt":"20/06/2026 10:08:00"},{"type":"lpg","price":0.879,"self":false,"updatedAt":"20/06/2026 10:08:01"}]},{"id":"3588","lat":45.52598132225429,"lon":12.262659966945648,"name":"BAZZERA SUD","brand":"Agip Eni","address":"Autostrada A57 TANGENZIALE DI MESTRE,  Km. 18.4, dir. Est -, VENEZIA, VE","prices":[{"type":"petrol","price":1.879,"self":true,"updatedAt":"22/06/2026 00:16:10"},{"type":"diesel","price":1.974,"self":true,"updatedAt":"22/06/2026 00:16:09"},{"type":"lpg","price":0.842,"self":false,"updatedAt":"22/06/2026 00:16:09"}]},{"id":"50917","lat":45.50239984169346,"lon":12.27415108602841,"name":"Eni","brand":"Agip Eni","address":"VIA SAN DONA' 330 30173, VENEZIA, VE","prices":[{"type":"petrol","price":1.879,"self":true,"updatedAt":"22/06/2026 00:35:11"},{"type":"diesel","price":1.994,"self":true,"updatedAt":"22/06/2026 00:35:11"}]},{"id":"52081","lat":45.53864094967987,"lon":12.301306246777868,"name":"PV 13741","brand":"Agip Eni","address":"VIA ALTINIA FAVARO VENETO 282V 30173, VENEZIA, VE","prices":[{"type":"petrol","price":1.824,"self":true,"updatedAt":"22/06/2026 00:46:05"},{"type":"diesel","price":1.919,"self":true,"updatedAt":"22/06/2026 00:46:05"},{"type":"methane","price":1.393,"self":false,"updatedAt":"22/06/2026 00:46:05"},{"type":"lpg","price":0.747,"self":false,"updatedAt":"22/06/2026 00:46:05"}]},{"id":"36981","lat":45.52673367219533,"lon":12.379411160945892,"name":"SHELL","brand":"Shell","address":"VIA TRIESTINA 234 30173, VENEZIA, VE","prices":[{"type":"petrol","price":1.799,"self":true,"updatedAt":"12/05/2026 23:28:27"},{"type":"diesel","price":2.249,"self":true,"updatedAt":"12/05/2026 23:28:27"},{"type":"lpg","price":0.799,"self":false,"updatedAt":"12/05/2026 23:28:27"}]},{"id":"62884","lat":45.526719,"lon":12.379413,"name":"SHELL VENEZIA VIA TRIESTINA N. 234 LOC. FAVARO","brand":"Shell","address":"Via Triestina - Loc. FAVARO 234  30173, VENEZIA, VE","prices":[{"type":"petrol","price":1.819,"self":true,"updatedAt":"22/06/2026 07:33:48"},{"type":"diesel","price":1.899,"self":true,"updatedAt":"22/06/2026 07:33:48"},{"type":"lpg","price":0.789,"self":false,"updatedAt":"22/06/2026 07:33:48"}]},{"id":"33464","lat":45.50290353136229,"lon":12.268662794859324,"name":"Sia Fuel Mestre","brand":"Sia fuel","address":"Via San Donà  287/C 30173, VENEZIA, VE","prices":[{"type":"petrol","price":1.879,"self":true,"updatedAt":"19/06/2026 15:59:34"},{"type":"diesel","price":1.949,"self":true,"updatedAt":"19/06/2026 15:59:34"}]},{"id":"40539","lat":45.5025644823188,"lon":12.27027341723442,"name":"TAMOIL CATASSO","brand":"Tamoil","address":"VIA SAN DONA'  296 30173, VENEZIA, VE","prices":[{"type":"petrol","price":1.789,"self":true,"updatedAt":"22/06/2026 00:26:42"}]},{"id":"49249","lat":45.509390923508015,"lon":12.28264644742012,"name":"TOTALERG","brand":"Api-Ip","address":"via altinia 114-c 30173, VENEZIA, VE","prices":[{"type":"petrol","price":1.919,"self":true,"updatedAt":"21/06/2026 21:30:25"},{"type":"diesel","price":2.019,"self":true,"updatedAt":"21/06/2026 21:30:25"}]},{"id":"41111","lat":45.50306434537017,"lon":12.291318029165268,"name":"VEGA FAVARO","brand":"Vega","address":"VIA VALLENARI  150 30173, VENEZIA, VE","prices":[{"type":"petrol","price":1.769,"self":true,"updatedAt":"20/06/2026 08:00:50"},{"type":"diesel","price":1.849,"self":true,"updatedAt":"20/06/2026 08:00:50"},{"type":"lpg","price":0.789,"self":false,"updatedAt":"17/06/2026 08:00:49"}]},{"id":"38120","lat":45.50889356020374,"lon":12.266385555267334,"name":"Venezia Martiri della Libertà","brand":"Api-Ip","address":"via Martiri della Libertà snc 30170, VENEZIA, VE","prices":[{"type":"petrol","price":1.769,"self":true,"updatedAt":"21/06/2026 09:09:54"},{"type":"diesel","price":1.849,"self":true,"updatedAt":"21/06/2026 09:09:54"},{"type":"lpg","price":0.789,"self":false,"updatedAt":"21/06/2026 09:09:54"}]}]