[{"id":"21273","lat":45.57933059708864,"lon":8.259285986423492,"name":"IGAS","brand":"Pompe Bianche","address":"TORINO 12 13862, BRUSNENGO, BI","prices":[{"type":"petrol","price":1.799,"self":true,"updatedAt":"21/06/2026 08:16:54"},{"type":"diesel","price":1.929,"self":true,"updatedAt":"21/06/2026 08:16:52"},{"type":"lpg","price":0.759,"self":false,"updatedAt":"21/06/2026 08:56:37"}]},{"id":"51115","lat":45.660898531298635,"lon":8.435487747192377,"name":"IP-ITALIANA PETROLI","brand":"Api-Ip","address":"S.S. 142 BIELLESE KM 37+860 - KM 37+820 SNC 28010, BOCA, NO","prices":[{"type":"petrol","price":1.824,"self":true,"updatedAt":"19/06/2026 14:17:34"},{"type":"diesel","price":1.944,"self":true,"updatedAt":"19/06/2026 14:17:34"}]},{"id":"60823","lat":45.70851394765081,"lon":8.470500750036923,"name":"106546 BORGOMANERO CRISTINETTA","brand":"Esso","address":"SANTA CRISTINETTA 1 28021, BORGOMANERO, NO","prices":[{"type":"petrol","price":1.839,"self":true,"updatedAt":"22/06/2026 00:46:19"},{"type":"diesel","price":1.939,"self":true,"updatedAt":"22/06/2026 00:46:19"}]},{"id":"29422","lat":45.693422095711874,"lon":8.457353711128235,"name":"2177","brand":"Tamoil","address":"MATTEOTTI 75 28021, BORGOMANERO, NO","prices":[{"type":"petrol","price":1.839,"self":true,"updatedAt":"21/06/2026 12:30:19"},{"type":"diesel","price":1.929,"self":true,"updatedAt":"21/06/2026 12:30:19"}]},{"id":"47652","lat":45.71594996380735,"lon":8.448210475819682,"name":"7753","brand":"Tamoil","address":"CASCINA BEATRICE SN 28021, BORGOMANERO, NO","prices":[{"type":"petrol","price":1.839,"self":true,"updatedAt":"21/06/2026 23:25:27"},{"type":"diesel","price":1.929,"self":true,"updatedAt":"21/06/2026 23:25:27"}]},{"id":"49672","lat":45.677647348333736,"lon":8.48326581457737,"name":"borgomanero","brand":"Esso","address":"VIA NOVARA 326 28021, BORGOMANERO, NO","prices":[{"type":"petrol","price":1.909,"self":true,"updatedAt":"10/06/2026 12:07:03"},{"type":"diesel","price":2.039,"self":true,"updatedAt":"10/06/2026 12:07:03"},{"type":"lpg","price":0.789,"self":false,"updatedAt":"10/06/2026 12:07:03"}]},{"id":"51377","lat":45.692636378971585,"lon":8.463558895700846,"name":"BORGOMANERO (NO) VIALE MARCONI 16","brand":"Q8","address":"VIALE MARCONI 16 28021, BORGOMANERO, NO","prices":[{"type":"petrol","price":1.869,"self":true,"updatedAt":"19/06/2026 07:10:53"},{"type":"diesel","price":1.959,"self":true,"updatedAt":"19/06/2026 07:10:53"}]},{"id":"11750","lat":45.70641961491004,"lon":8.456394262017966,"name":"BORGOMANERO -VIALE KENNEDY - VIA GOZZANO","brand":"Q8","address":"VIALE KENNEDY - VIA GOZZANO S/N 28021, BORGOMANERO, NO","prices":[{"type":"petrol","price":1.849,"self":true,"updatedAt":"20/06/2026 01:38:46"},{"type":"diesel","price":1.939,"self":true,"updatedAt":"20/06/2026 01:38:46"}]},{"id":"11745","lat":45.702662535881196,"lon":8.446847872352578,"name":"BORGOMANERO-VIA MAGGIORA 70","brand":"Q8","address":"VIA MAGGIORA 70 28021, BORGOMANERO, NO","prices":[{"type":"petrol","price":1.879,"self":true,"updatedAt":"19/06/2026 07:10:55"},{"type":"diesel","price":1.969,"self":true,"updatedAt":"19/06/2026 07:10:55"}]},{"id":"63090","lat":45.67758503304538,"lon":8.483184089119348,"name":"ESSO - BORGOMANERO NOVARA","brand":"Esso","address":"V. Novara 326  28021, BORGOMANERO, NO","prices":[{"type":"petrol","price":1.819,"self":true,"updatedAt":"20/06/2026 07:10:54"},{"type":"diesel","price":1.919,"self":true,"updatedAt":"20/06/2026 07:10:54"},{"type":"lpg","price":0.759,"self":false,"updatedAt":"13/06/2026 22:01:03"}]},{"id":"49148","lat":45.68752718464642,"lon":8.472279561060846,"name":"Vargas S.r.l. - Borgomanero","brand":"Pompe Bianche","address":"Via Novara 188 28021, BORGOMANERO, NO","prices":[{"type":"lpg","price":0.759,"self":false,"updatedAt":"14/06/2026 22:54:36"}]},{"id":"31441","lat":45.681836945658766,"lon":8.456677794456482,"name":"VEGA BORGOMANERO","brand":"Vega","address":"VIA MATTEOTTI S.R. 142 KM.41+32 183 28021, BORGOMANERO, NO","prices":[{"type":"petrol","price":1.819,"self":true,"updatedAt":"20/06/2026 07:40:50"},{"type":"diesel","price":1.919,"self":true,"updatedAt":"20/06/2026 07:40:50"}]},{"id":"35221","lat":45.71430939769307,"lon":8.452392965555191,"name":"VEGA VIA GOZZANO","brand":"Vega","address":"VIA GOZZANO  28021, BORGOMANERO, NO","prices":[{"type":"petrol","price":1.819,"self":true,"updatedAt":"20/06/2026 07:50:53"},{"type":"diesel","price":1.919,"self":true,"updatedAt":"20/06/2026 07:50:53"},{"type":"lpg","price":0.759,"self":false,"updatedAt":"13/06/2026 09:10:50"}]},{"id":"6422","lat":45.727098422551144,"lon":8.445178175532533,"name":"BRIGA NOVARESE VIA BORGOMANERO 47","brand":"Q8","address":"VIA BORGOMANERO 47 28010, BRIGA NOVARESE, NO","prices":[{"type":"petrol","price":1.839,"self":true,"updatedAt":"19/06/2026 01:39:25"},{"type":"diesel","price":1.959,"self":true,"updatedAt":"19/06/2026 01:39:25"}]},{"id":"57541","lat":45.53616,"lon":8.486165,"name":"378 BRIONA","brand":"Agip Eni","address":"S.P. 299 DELLA VALSESIA KM 14 +  00, BRIONA, NO","prices":[{"type":"petrol","price":1.829,"self":true,"updatedAt":"21/06/2026 00:54:02"},{"type":"diesel","price":1.919,"self":true,"updatedAt":"21/06/2026 00:54:02"},{"type":"lpg","price":0.747,"self":false,"updatedAt":"21/06/2026 23:21:21"}]},{"id":"40495","lat":45.6613289284367,"lon":8.499645441770554,"name":"AGOGNA OVEST","brand":"Tamoil","address":"A26 (GE) VOLTRI-GRAVELLONA T., Km. 154, Genova  - 28012, CRESSA, NO","prices":[{"type":"petrol","price":2.098,"self":true,"updatedAt":"22/06/2026 00:06:56"},{"type":"diesel","price":2.149,"self":true,"updatedAt":"22/06/2026 00:06:56"},{"type":"lpg","price":0.949,"self":false,"updatedAt":"22/06/2026 00:06:56"}]},{"id":"44584","lat":45.72560291782744,"lon":8.494067192077637,"name":"STAZIONE DI SERVIZIO IP 45538 GATTICO-VERUNO (NO)","brand":"Api-Ip","address":"SS. 142 DEL BIELLESE KM42+910 28013, GATTICO-VERUNO, NO","prices":[{"type":"petrol","price":1.839,"self":true,"updatedAt":"20/06/2026 10:15:03"},{"type":"diesel","price":1.939,"self":true,"updatedAt":"20/06/2026 10:15:03"},{"type":"methane","price":1.605,"self":false,"updatedAt":"20/06/2026 10:15:03"}]},{"id":"54457","lat":45.6014053,"lon":8.4243892,"name":"Distributore Q8","brand":"Q8","address":"PAPA GIOVANNI XXIII 5 28074, GHEMME, NO","prices":[{"type":"petrol","price":1.839,"self":true,"updatedAt":"19/06/2026 11:08:01"},{"type":"diesel","price":1.969,"self":true,"updatedAt":"19/06/2026 11:08:01"},{"type":"lpg","price":0.749,"self":false,"updatedAt":"19/06/2026 11:08:01"}]},{"id":"8278","lat":45.587958163623924,"lon":8.429453372955322,"name":"ENI 397","brand":"Agip Eni","address":"Statale 299 di Alagna, Km. 21,3, dir. Alagna  28074, GHEMME, NO","prices":[{"type":"petrol","price":1.829,"self":true,"updatedAt":"21/06/2026 19:56:02"},{"type":"diesel","price":1.919,"self":true,"updatedAt":"21/06/2026 19:56:02"}]},{"id":"51418","lat":45.58960550792159,"lon":8.427906910458432,"name":"OIL SERVICE SNC DI MEDRI FABRIZIO & ROSSI MAURIZIO","brand":"Tamoil","address":"VIA NOVARA 160 28074, GHEMME, NO","prices":[{"type":"petrol","price":1.819,"self":true,"updatedAt":"22/06/2026 00:46:01"},{"type":"diesel","price":1.949,"self":true,"updatedAt":"22/06/2026 00:46:01"}]},{"id":"29804","lat":45.73764767924596,"lon":8.439315855503082,"name":"2527","brand":"Tamoil","address":"SS 229 KM. 36,020 - 28024, GOZZANO, NO","prices":[{"type":"petrol","price":1.839,"self":true,"updatedAt":"21/06/2026 12:30:25"},{"type":"diesel","price":1.929,"self":true,"updatedAt":"21/06/2026 12:30:25"}]},{"id":"39420","lat":45.743771515559374,"lon":8.433543741703033,"name":"ENI DI DRAGO MASSIMILIANO","brand":"Agip Eni","address":"VIALE PARONA 3 28024, GOZZANO, NO","prices":[{"type":"petrol","price":1.824,"self":true,"updatedAt":"21/06/2026 20:34:21"},{"type":"diesel","price":1.919,"self":true,"updatedAt":"21/06/2026 20:34:21"}]},{"id":"28175","lat":45.74276521133686,"lon":8.435453474521637,"name":"GOZZANO","brand":"Api-Ip","address":"Via XXV Aprile 8 28024, GOZZANO, NO","prices":[{"type":"petrol","price":1.839,"self":true,"updatedAt":"21/06/2026 09:15:23"},{"type":"diesel","price":1.939,"self":true,"updatedAt":"21/06/2026 09:15:23"}]},{"id":"33169","lat":45.67927667542936,"lon":8.34009849933625,"name":"DUEMME SERVICE SNC STAZIONE ESSO","brand":"Esso","address":"VIA IV NOVEMBRE 22 28075, GRIGNASCO, NO","prices":[{"type":"petrol","price":1.799,"self":true,"updatedAt":"20/06/2026 08:03:24"},{"type":"diesel","price":1.929,"self":true,"updatedAt":"20/06/2026 08:03:24"}]},{"id":"51824","lat":45.68030986666079,"lon":8.339023070699104,"name":"Economy - VIA IV NOVEMBRE 29, GRIGNASCO (NO), 28075","brand":"Tamoil","address":"VIA IV NOVEMBRE 29 28075, GRIGNASCO, NO","prices":[{"type":"petrol","price":1.799,"self":true,"updatedAt":"20/06/2026 12:08:02"},{"type":"diesel","price":1.899,"self":true,"updatedAt":"20/06/2026 12:08:02"}]},{"id":"25502","lat":45.67393863150705,"lon":8.345312476158142,"name":"eni di mauro masserano","brand":"Agip Eni","address":"PERETTI 11 28075, GRIGNASCO, NO","prices":[{"type":"petrol","price":1.814,"self":true,"updatedAt":"21/06/2026 00:55:03"},{"type":"diesel","price":1.919,"self":true,"updatedAt":"21/06/2026 00:55:03"}]},{"id":"62958","lat":45.68846,"lon":8.474639,"name":"352 BORGOMANERO","brand":"Agip Eni","address":"BORGOMANERO, NOVARA, NO","prices":[{"type":"petrol","price":1.824,"self":true,"updatedAt":"21/06/2026 00:36:41"},{"type":"diesel","price":1.919,"self":true,"updatedAt":"21/06/2026 00:36:41"}]},{"id":"43634","lat":45.53682794605346,"lon":8.423163620272476,"name":"EUROPAM - CARPIGNANO SESIA","brand":"Europam","address":"STRADA PROV. PER FARA  28064, NOVARA, NO","prices":[{"type":"petrol","price":1.797,"self":true,"updatedAt":"20/06/2026 06:11:03"},{"type":"diesel","price":1.897,"self":true,"updatedAt":"20/06/2026 06:11:03"}]},{"id":"31442","lat":45.72843463993083,"lon":8.497560024261475,"name":"VEGA PARUZZARO","brand":"Vega","address":"VIA BORGOMANERO S.S.142KM 47+600 9/A 28040, PARUZZARO, NO","prices":[{"type":"petrol","price":1.819,"self":true,"updatedAt":"20/06/2026 07:30:50"},{"type":"diesel","price":1.919,"self":true,"updatedAt":"20/06/2026 07:30:50"},{"type":"lpg","price":0.759,"self":false,"updatedAt":"13/06/2026 09:20:49"}]},{"id":"5760","lat":45.656855225748025,"lon":8.361800014972687,"name":"Api-Ip","brand":"Api-Ip","address":"VIA S.P. NOVARA/VALSESIA KM. 2+480 - 28077, PRATO SESIA (NO)  28077, PRATO SESIA, NO","prices":[{"type":"petrol","price":1.826,"self":true,"updatedAt":"22/06/2026 07:59:03"},{"type":"diesel","price":1.946,"self":true,"updatedAt":"22/06/2026 07:59:03"},{"type":"lpg","price":0.789,"self":false,"updatedAt":"22/06/2026 07:59:03"}]},{"id":"54302","lat":45.63960905322052,"lon":8.377316507649757,"name":"KEROPETROL SPA - PRATO SESIA","brand":"KEROPETROL","address":"FRA DOLCINO 83 28077, PRATO SESIA, NO","prices":[{"type":"petrol","price":1.799,"self":true,"updatedAt":"18/06/2026 14:15:39"},{"type":"diesel","price":1.899,"self":true,"updatedAt":"18/06/2026 14:15:39"},{"type":"lpg","price":0.749,"self":false,"updatedAt":"18/06/2026 14:15:39"}]},{"id":"54524","lat":45.63821487340359,"lon":8.377467972216778,"name":"Distributore di Romagnano","brand":"Gamma Petroli","address":"ROMA 109 28078, ROMAGNANO SESIA, NO","prices":[{"type":"petrol","price":1.829,"self":true,"updatedAt":"18/06/2026 11:37:54"},{"type":"diesel","price":1.949,"self":true,"updatedAt":"18/06/2026 11:37:54"}]},{"id":"11749","lat":45.61891500808657,"lon":8.403135626983612,"name":"ROMAGNANO SESIA-C/O CENTRO COMMLE BENNET","brand":"Q8","address":"C/O CENTRO COMMLE BENNET S/N 28078, ROMAGNANO SESIA, NO","prices":[{"type":"petrol","price":1.809,"self":true,"updatedAt":"19/06/2026 01:39:24"},{"type":"diesel","price":1.929,"self":true,"updatedAt":"19/06/2026 01:39:24"}]},{"id":"11935","lat":45.71376446489995,"lon":8.28096507472992,"name":"BORGOSESIA-VIA V. VENETO 56","brand":"Q8","address":"VIA V. VENETO 56 13011, BORGOSESIA, VC","prices":[{"type":"petrol","price":1.859,"self":true,"updatedAt":"20/06/2026 08:11:38"},{"type":"diesel","price":1.969,"self":true,"updatedAt":"20/06/2026 08:11:38"}]},{"id":"51436","lat":45.71278858831169,"lon":8.283151499467236,"name":"eni 00146","brand":"Agip Eni","address":"VIA VITTORIO VENETO 104 13011, BORGOSESIA, VC","prices":[{"type":"petrol","price":1.829,"self":true,"updatedAt":"22/06/2026 07:44:26"},{"type":"diesel","price":1.919,"self":true,"updatedAt":"22/06/2026 07:44:26"}]},{"id":"47502","lat":45.72624281921695,"lon":8.266592892910122,"name":"EUROPAM - BORGOSESIA","brand":"Europam","address":"Via varallo 136 A 13011, BORGOSESIA, VC","prices":[{"type":"petrol","price":1.837,"self":true,"updatedAt":"19/06/2026 13:43:50"},{"type":"diesel","price":1.947,"self":true,"updatedAt":"19/06/2026 13:43:50"}]},{"id":"49210","lat":45.71060502117219,"lon":8.292548425131258,"name":"Francesco Re La Rocca","brand":"Api-Ip","address":"via MONTRIGONE  78 13011, BORGOSESIA, VC","prices":[{"type":"petrol","price":1.826,"self":true,"updatedAt":"20/06/2026 09:34:08"},{"type":"diesel","price":1.946,"self":true,"updatedAt":"20/06/2026 09:34:08"}]},{"id":"56828","lat":45.706943,"lon":8.286269,"name":"SHELL BORGOSESIA CORSO VERCELLI 212","brand":"Shell","address":"VERCELLI 212 13011, BORGOSESIA, VC","prices":[{"type":"petrol","price":1.849,"self":true,"updatedAt":"22/06/2026 07:29:05"},{"type":"diesel","price":1.959,"self":true,"updatedAt":"22/06/2026 07:29:05"}]},{"id":"59423","lat":45.6010662,"lon":8.3681607,"name":"EUROPAM - GATTINARA","brand":"Europam","address":"Corso Vercelli 286  13045, GATTINARA, VC","prices":[{"type":"petrol","price":1.797,"self":true,"updatedAt":"19/06/2026 11:21:53"},{"type":"diesel","price":1.917,"self":true,"updatedAt":"19/06/2026 11:21:53"}]},{"id":"11936","lat":45.63411500401757,"lon":8.371957084655833,"name":"GATTINARA-C.S VALSESIA 299","brand":"Q8","address":"C.S VALSESIA 299 13045, GATTINARA, VC","prices":[{"type":"petrol","price":1.769,"self":true,"updatedAt":"20/06/2026 01:38:43"},{"type":"diesel","price":1.879,"self":true,"updatedAt":"20/06/2026 01:38:43"}]},{"id":"39893","lat":45.61465577695121,"lon":8.365809144180275,"name":"STAZIONE SERVIZIO ENI 56862","brand":"Agip Eni","address":"G. MARCONI 26 13045, GATTINARA, VC","prices":[{"type":"petrol","price":1.829,"self":true,"updatedAt":"22/06/2026 07:58:25"},{"type":"diesel","price":1.919,"self":true,"updatedAt":"22/06/2026 07:58:25"}]},{"id":"46061","lat":45.530478000123,"lon":8.399355000123,"name":"GNP GHISLARENGO","brand":"GNP","address":"VIA VIA PER CARPIGNANO SN 13030, GHISLARENGO (VC) SN 13030, GHISLARENGO, VC","prices":[{"type":"petrol","price":1.797,"self":true,"updatedAt":"21/06/2026 23:37:03"},{"type":"diesel","price":1.897,"self":true,"updatedAt":"21/06/2026 23:37:03"}]},{"id":"35693","lat":45.55973531590041,"lon":8.380469530820847,"name":"IP LENTA","brand":"Api-Ip","address":"Statale 594 Destra Sesia, Km. 6+700 2, dir. Gattinara - 13035, LENTA, VC","prices":[{"type":"petrol","price":1.789,"self":true,"updatedAt":"18/06/2026 12:51:31"},{"type":"diesel","price":1.919,"self":true,"updatedAt":"18/06/2026 12:51:31"}]},{"id":"52034","lat":45.69235506322406,"lon":8.299306752149572,"name":"6985","brand":"Tamoil","address":"XXV APRILE 8 13037, SERRAVALLE SESIA, VC","prices":[{"type":"petrol","price":1.859,"self":true,"updatedAt":"22/06/2026 07:36:16"},{"type":"diesel","price":1.969,"self":true,"updatedAt":"22/06/2026 07:36:16"},{"type":"methane","price":1.499,"self":false,"updatedAt":"21/06/2026 23:42:32"},{"type":"lpg","price":0.749,"self":false,"updatedAt":"21/06/2026 23:42:32"}]},{"id":"26850","lat":45.6973578399154,"lon":8.28647956252098,"name":"DUEMME SERVICE SNC di Delmastro Mussa Michela & C.","brand":"Esso","address":"VIA PER CREVACUORE 1 13037, SERRAVALLE SESIA, VC","prices":[{"type":"petrol","price":1.869,"self":true,"updatedAt":"20/06/2026 08:02:16"},{"type":"diesel","price":1.979,"self":true,"updatedAt":"20/06/2026 08:02:16"}]},{"id":"61458","lat":45.682955902095316,"lon":8.311977488087104,"name":"ENILIVE STATION","brand":"Agip Eni","address":"CORSO XXV APRILE 90/A 13037, SERRAVALLE SESIA, VC","prices":[{"type":"petrol","price":1.829,"self":true,"updatedAt":"21/06/2026 18:56:08"},{"type":"diesel","price":1.919,"self":true,"updatedAt":"21/06/2026 18:56:08"}]},{"id":"47096","lat":45.68329076949886,"lon":8.324762165181662,"name":"PITSTOP","brand":"Pompe Bianche","address":"MONTE FENERA 30 13018, VALDUGGIA, VC","prices":[{"type":"petrol","price":1.95,"self":true,"updatedAt":"18/06/2026 17:30:05"},{"type":"diesel","price":1.998,"self":true,"updatedAt":"18/06/2026 17:30:05"}]},{"id":"5657","lat":45.72306300443579,"lon":8.323331773281097,"name":"TRAPELLA ALESSANDRO","brand":"Tamoil","address":"VIA G.FERRARI (VIA DELLA CREMOSINA) 120 13018, VALDUGGIA, VC","prices":[{"type":"petrol","price":1.889,"self":true,"updatedAt":"22/06/2026 00:33:54"},{"type":"diesel","price":1.989,"self":true,"updatedAt":"22/06/2026 00:33:54"}]}]