[{"id":"22642","lat":45.5254015683529,"lon":11.940207481384277,"name":"6175","brand":"Tamoil","address":"S.R. 308 KM 12+533  35010, BORGORICCO, PD","prices":[{"type":"petrol","price":1.779,"self":true,"updatedAt":"23/06/2026 00:05:12"},{"type":"diesel","price":1.859,"self":true,"updatedAt":"23/06/2026 00:05:12"}]},{"id":"23788","lat":45.525714878882994,"lon":11.939678271163984,"name":"Borgoricco (PD)","brand":"Api-Ip","address":"Strada Statale 308 Km. 12.540  35010, BORGORICCO, PD","prices":[{"type":"petrol","price":1.779,"self":true,"updatedAt":"22/06/2026 13:09:32"},{"type":"diesel","price":1.859,"self":true,"updatedAt":"22/06/2026 13:09:32"}]},{"id":"30931","lat":45.556942455105556,"lon":11.966658216671703,"name":"EREDI DI CARMINATO RINO S.A.S. DI CARMINATO GIGLIOLA & C.","brand":"Esso","address":"VIA STRAELLE, 89 35010, BORGORICCO, PD","prices":[{"type":"petrol","price":1.625,"self":true,"updatedAt":"22/06/2026 11:38:02"},{"type":"diesel","price":1.739,"self":true,"updatedAt":"22/06/2026 11:38:02"}]},{"id":"56219","lat":45.534770821277455,"lon":11.944521814584732,"name":"NOALOIL","brand":"Noaloil","address":"DESMAN 284 35010, BORGORICCO, PD","prices":[{"type":"petrol","price":1.829,"self":true,"updatedAt":"18/06/2026 20:55:03"},{"type":"diesel","price":1.929,"self":true,"updatedAt":"18/06/2026 20:55:03"}]},{"id":"61694","lat":45.53139051574747,"lon":11.963312595245384,"name":"SMP BORGORICCO","brand":"San Marco Petroli","address":"Via Desman 192  35010, BORGORICCO, PD","prices":[{"type":"petrol","price":1.789,"self":true,"updatedAt":"22/06/2026 23:53:36"},{"type":"diesel","price":1.865,"self":true,"updatedAt":"22/06/2026 23:53:36"},{"type":"methane","price":1.499,"self":false,"updatedAt":"22/06/2026 23:53:36"},{"type":"lpg","price":0.779,"self":false,"updatedAt":"22/06/2026 23:53:36"}]},{"id":"57960","lat":45.52754144894497,"lon":11.984336391857141,"name":"Vega BORGORICCO","brand":"Vega","address":"VIA DESMAN  90 35010, BORGORICCO, PD","prices":[{"type":"petrol","price":1.789,"self":true,"updatedAt":"18/06/2026 12:20:45"},{"type":"diesel","price":1.869,"self":true,"updatedAt":"19/06/2026 10:20:46"},{"type":"lpg","price":0.779,"self":false,"updatedAt":"19/06/2026 10:20:46"}]},{"id":"36403","lat":45.56102097281433,"lon":11.852078139781952,"name":"AUTOBERNARDELLO","brand":"Pompe Bianche","address":"PIAZZA SERRES CASTET 7 35010, CAMPO SAN MARTINO, PD","prices":[{"type":"petrol","price":1.849,"self":true,"updatedAt":"19/06/2026 10:58:05"},{"type":"diesel","price":1.949,"self":true,"updatedAt":"19/06/2026 10:58:05"}]},{"id":"18489","lat":45.5531636582834,"lon":11.817345544695854,"name":"ENI","brand":"Agip Eni","address":"VIA PROVINCIALE 30 35010, CAMPO SAN MARTINO, PD","prices":[{"type":"petrol","price":1.808,"self":true,"updatedAt":"22/06/2026 07:21:45"},{"type":"diesel","price":1.914,"self":true,"updatedAt":"22/06/2026 07:21:45"},{"type":"methane","price":1.469,"self":false,"updatedAt":"22/06/2026 07:21:45"},{"type":"lpg","price":0.762,"self":false,"updatedAt":"22/06/2026 07:21:45"}]},{"id":"61966","lat":45.5035742,"lon":11.9037509,"name":"A.F. PETROLI SPA","brand":"AF Petroli","address":"DE TONI 113/A 35011, CAMPODARSEGO, PD","prices":[{"type":"petrol","price":1.754,"self":true,"updatedAt":"22/06/2026 14:15:38"},{"type":"diesel","price":1.844,"self":true,"updatedAt":"22/06/2026 14:15:38"}]},{"id":"17584","lat":45.55772147400759,"lon":11.928656548261642,"name":"TAMOIL CAMPOSAMPIERO","brand":"Tamoil","address":"VIA BORGO PADOVA 46 - -, CAMPOSAMPIERO, PD","prices":[{"type":"petrol","price":1.799,"self":true,"updatedAt":"22/06/2026 00:01:10"},{"type":"diesel","price":1.879,"self":true,"updatedAt":"22/06/2026 00:01:10"}]},{"id":"57356","lat":45.641700288452775,"lon":11.773679627938359,"name":"105482 CITTADELLA","brand":"Esso","address":"CRISTOFORO COLOMBO 2 35013, CITTADELLA, PD","prices":[{"type":"petrol","price":1.839,"self":true,"updatedAt":"22/06/2026 09:38:06"},{"type":"diesel","price":1.919,"self":true,"updatedAt":"22/06/2026 09:38:06"}]},{"id":"58821","lat":45.64374531456819,"lon":11.767366500000001,"name":"105907 CITTADELLA 2 B.GO VICENZA","brand":"Esso","address":"BORGO VICENZA 201 35013, CITTADELLA, PD","prices":[{"type":"petrol","price":1.839,"self":true,"updatedAt":"22/06/2026 09:38:13"},{"type":"diesel","price":1.919,"self":true,"updatedAt":"22/06/2026 09:38:13"}]},{"id":"28312","lat":45.6751740698698,"lon":11.77597850561142,"name":"Agip","brand":"Agip Eni","address":"VIA CA' MORO 40/A 35013, CITTADELLA, PD","prices":[{"type":"petrol","price":1.862,"self":true,"updatedAt":"22/06/2026 00:41:38"},{"type":"diesel","price":1.948,"self":true,"updatedAt":"22/06/2026 00:41:38"},{"type":"lpg","price":0.839,"self":false,"updatedAt":"22/06/2026 00:41:38"}]},{"id":"39668","lat":45.655304321612846,"lon":11.782169405793638,"name":"BC BORGO BASSANO","brand":"BC","address":"BORGO BASSANO 74 35013, CITTADELLA, PD","prices":[{"type":"petrol","price":1.798,"self":true,"updatedAt":"22/06/2026 09:15:04"},{"type":"diesel","price":1.898,"self":true,"updatedAt":"22/06/2026 09:15:04"}]},{"id":"10486","lat":45.658575201128045,"lon":11.786561343408266,"name":"BC Cittadella","brand":"BC","address":"VIA COPERNICO S.R. N. 53 KM 23 1, 35013, CITTADELLA, PD","prices":[{"type":"petrol","price":1.798,"self":true,"updatedAt":"20/06/2026 11:03:04"},{"type":"diesel","price":1.898,"self":true,"updatedAt":"20/06/2026 11:03:04"},{"type":"lpg","price":0.789,"self":false,"updatedAt":"17/06/2026 11:54:06"}]},{"id":"23874","lat":45.643791633429515,"lon":11.774307489395142,"name":"CITTADELLA CRISTOFORO COLOMBO 1","brand":"Q8","address":"CRISTOFORO COLOMBO 1  35013, CITTADELLA, PD","prices":[{"type":"petrol","price":1.799,"self":true,"updatedAt":"23/06/2026 07:14:10"},{"type":"diesel","price":1.899,"self":true,"updatedAt":"23/06/2026 07:14:10"},{"type":"lpg","price":0.789,"self":false,"updatedAt":"23/06/2026 07:14:10"}]},{"id":"23875","lat":45.62416121002495,"lon":11.793154318385291,"name":"CITTADELLA SS.47 VALSUGANA","brand":"Q8","address":"SS.47 VALSUGANA  35013, CITTADELLA, PD","prices":[{"type":"petrol","price":1.809,"self":true,"updatedAt":"20/06/2026 01:39:36"},{"type":"diesel","price":1.899,"self":true,"updatedAt":"20/06/2026 01:39:36"}]},{"id":"21124","lat":45.6222937826969,"lon":11.793902095383157,"name":"Q8","brand":"Q8","address":"47 della Valsugana, Km. 25, SUD - 35013, CITTADELLA, PD","prices":[{"type":"petrol","price":1.799,"self":true,"updatedAt":"23/06/2026 07:34:01"},{"type":"diesel","price":1.899,"self":true,"updatedAt":"23/06/2026 07:34:01"}]},{"id":"53983","lat":45.650509559145725,"lon":11.796489593917867,"name":"Stazione Servizio Tamoil Cittadella","brand":"Tamoil","address":"BORGO TREVISO 174 35013, CITTADELLA, PD","prices":[{"type":"petrol","price":1.839,"self":true,"updatedAt":"22/06/2026 18:16:55"},{"type":"diesel","price":1.939,"self":true,"updatedAt":"22/06/2026 18:16:57"}]},{"id":"60922","lat":45.66468175280039,"lon":11.779433159686734,"name":"VEGA - CITTADELLA","brand":"Vega","address":"Via Pozzetto 109  35013, CITTADELLA, PD","prices":[{"type":"petrol","price":1.799,"self":true,"updatedAt":"19/06/2026 09:50:55"},{"type":"diesel","price":1.889,"self":true,"updatedAt":"20/06/2026 07:50:58"}]},{"id":"34098","lat":45.544598334061476,"lon":11.821071803569794,"name":"2135","brand":"Tamoil","address":"VALSUGANA 114 35010, CURTAROLO, PD","prices":[{"type":"petrol","price":1.799,"self":true,"updatedAt":"22/06/2026 13:42:59"},{"type":"diesel","price":1.899,"self":true,"updatedAt":"22/06/2026 13:42:59"}]},{"id":"4486","lat":45.52603182672285,"lon":11.830664724111557,"name":"NOALOIL PV5","brand":"Noaloil","address":"VIA VALSUGANA 9/A 35010, CURTAROLO, PD","prices":[{"type":"petrol","price":1.799,"self":true,"updatedAt":"19/06/2026 09:04:18"},{"type":"diesel","price":1.899,"self":true,"updatedAt":"19/06/2026 09:04:18"},{"type":"lpg","price":0.809,"self":false,"updatedAt":"19/06/2026 09:04:18"}]},{"id":"42233","lat":45.640160551707496,"lon":11.761891294442762,"name":"BCFONTANIVA","brand":"BC","address":"VIA G. MARCONI 76 35014, FONTANIVA, PD","prices":[{"type":"petrol","price":1.838,"self":true,"updatedAt":"20/06/2026 11:33:05"},{"type":"diesel","price":1.949,"self":true,"updatedAt":"20/06/2026 11:33:05"},{"type":"lpg","price":0.798,"self":false,"updatedAt":"16/06/2026 15:15:05"}]},{"id":"11193","lat":45.613970994772096,"lon":11.777905404633202,"name":"IP","brand":"Api-Ip","address":"VIALE DEI BORROMEO 39 35014, FONTANIVA, PD","prices":[{"type":"petrol","price":1.879,"self":false,"updatedAt":"22/06/2026 23:23:49"},{"type":"diesel","price":1.939,"self":false,"updatedAt":"22/06/2026 23:23:49"}]},{"id":"35377","lat":45.662565769911325,"lon":11.819217056035995,"name":"Beyfin","brand":"Beyfin","address":"Via degli Alberi 3 35015, GALLIERA VENETA, PD","prices":[{"type":"petrol","price":1.829,"self":true,"updatedAt":"20/06/2026 18:55:32"},{"type":"diesel","price":1.919,"self":true,"updatedAt":"20/06/2026 18:55:32"},{"type":"methane","price":1.599,"self":false,"updatedAt":"20/06/2026 18:55:32"},{"type":"lpg","price":0.779,"self":false,"updatedAt":"20/06/2026 18:55:32"}]},{"id":"57865","lat":45.66712128725676,"lon":11.839464790821092,"name":"Q8","brand":"Q8","address":"EUROPA 59/BIS 35015, GALLIERA VENETA, PD","prices":[{"type":"petrol","price":1.829,"self":true,"updatedAt":"20/06/2026 12:21:05"},{"type":"diesel","price":1.919,"self":true,"updatedAt":"20/06/2026 12:21:05"}]},{"id":"61744","lat":45.60961731976986,"lon":11.919009874834057,"name":"SMP LOREGGIA","brand":"San Marco Petroli","address":"Via S. Pio X 38  35010, LOREGGIA, PD","prices":[{"type":"petrol","price":1.799,"self":true,"updatedAt":"22/06/2026 16:32:08"},{"type":"diesel","price":1.879,"self":true,"updatedAt":"22/06/2026 16:32:08"}]},{"id":"61625","lat":45.6021488,"lon":11.9464927,"name":"Tamoil","brand":"Tamoil","address":"Ss307 Loreggia  Ss 307 35010, LOREGGIA, PD","prices":[{"type":"petrol","price":1.799,"self":true,"updatedAt":"22/06/2026 00:25:38"},{"type":"diesel","price":1.879,"self":true,"updatedAt":"22/06/2026 00:25:38"},{"type":"lpg","price":0.669,"self":false,"updatedAt":"23/06/2026 00:03:33"}]},{"id":"16566","lat":45.53827744264647,"lon":11.774963289499283,"name":"autolavaggio sprint snc","brand":"Tamoil","address":"via corsica 46 35016, PIAZZOLA SUL BRENTA, PD","prices":[{"type":"petrol","price":1.819,"self":true,"updatedAt":"23/06/2026 00:18:48"},{"type":"diesel","price":1.919,"self":true,"updatedAt":"23/06/2026 00:18:48"}]},{"id":"49355","lat":45.51592978774564,"lon":11.807391899990192,"name":"Eni-Tremignon","brand":"Agip Eni","address":"VIA Guglielmo Marconi 139 35016, PIAZZOLA SUL BRENTA (PD) 139/B 35016, PIAZZOLA SUL BRENTA, PD","prices":[{"type":"petrol","price":1.849,"self":true,"updatedAt":"23/06/2026 00:20:47"},{"type":"diesel","price":1.969,"self":true,"updatedAt":"23/06/2026 00:20:47"},{"type":"methane","price":1.469,"self":false,"updatedAt":"22/06/2026 15:08:28"},{"type":"lpg","price":0.779,"self":false,"updatedAt":"22/06/2026 00:23:48"}]},{"id":"9748","lat":45.53834832045472,"lon":11.780172080356579,"name":"ESSO","brand":"Esso","address":"VIA NIZZA 56 35016, PIAZZOLA SUL BRENTA, PD","prices":[{"type":"petrol","price":1.819,"self":true,"updatedAt":"22/06/2026 15:42:49"},{"type":"diesel","price":1.909,"self":true,"updatedAt":"22/06/2026 15:42:49"}]},{"id":"36773","lat":45.50024943648537,"lon":11.829480626099578,"name":"REDREZZA GAS SERVICE S.N.C.","brand":"Q8","address":"47 della Valsugana, Km. 12+100, BASSANO DEL GRAPPA - 35016, PIAZZOLA SUL BRENTA, PD","prices":[{"type":"petrol","price":1.874,"self":true,"updatedAt":"22/06/2026 07:04:01"},{"type":"diesel","price":1.939,"self":true,"updatedAt":"22/06/2026 07:04:01"},{"type":"lpg","price":0.799,"self":false,"updatedAt":"22/06/2026 07:04:01"}]},{"id":"53717","lat":45.61139326490226,"lon":11.986910739703358,"name":"RESOIL ITALIA","brand":"RESOIL","address":"PACINOTTI, 6 35017, PIOMBINO DESE, PD","prices":[{"type":"petrol","price":1.799,"self":true,"updatedAt":"18/06/2026 19:27:49"},{"type":"diesel","price":1.879,"self":true,"updatedAt":"18/06/2026 19:27:49"}]},{"id":"20364","lat":45.53925361016335,"lon":11.92109540104866,"name":"SG Carburanti","brand":"Pompe Bianche","address":"VIA DEL SANTO 39 35010, SAN GIORGIO DELLE PERTICHE, PD","prices":[{"type":"petrol","price":1.777,"self":false,"updatedAt":"22/06/2026 12:10:47"},{"type":"diesel","price":1.867,"self":false,"updatedAt":"22/06/2026 12:10:47"}]},{"id":"47556","lat":45.53802556498996,"lon":11.873346693989081,"name":"SIA FUEL SAN GIORGIO DELLE PERTICHE","brand":"Sia fuel","address":"VIA PIOVEGO 59 35010, SAN GIORGIO DELLE PERTICHE, PD","prices":[{"type":"petrol","price":1.775,"self":true,"updatedAt":"22/06/2026 16:30:07"},{"type":"diesel","price":1.865,"self":true,"updatedAt":"22/06/2026 16:30:07"}]},{"id":"41109","lat":45.547340720220255,"lon":11.924053877592087,"name":"VEGA SAN GIORGIO DELLE PERTICHE","brand":"Vega","address":"VIA DEL SANTO 2/I 35010, SAN GIORGIO DELLE PERTICHE, PD","prices":[{"type":"petrol","price":1.789,"self":true,"updatedAt":"18/06/2026 11:00:45"},{"type":"diesel","price":1.869,"self":true,"updatedAt":"19/06/2026 10:10:48"}]},{"id":"15960","lat":45.540319796347035,"lon":11.90690323544311,"name":"ZULIAN SERVIZI","brand":"Pompe Bianche","address":"Via Roma 176 35010, SAN GIORGIO DELLE PERTICHE, PD","prices":[{"type":"petrol","price":1.768,"self":true,"updatedAt":"23/06/2026 07:42:43"},{"type":"diesel","price":1.858,"self":true,"updatedAt":"23/06/2026 07:42:43"}]},{"id":"38703","lat":45.586931034639406,"lon":11.806422919034958,"name":"costantin di brugnaro srl","brand":"Costantin","address":"VIA VALSUGANA 183 35010, SAN GIORGIO IN BOSCO, PD","prices":[{"type":"petrol","price":1.839,"self":true,"updatedAt":"22/06/2026 07:50:26"},{"type":"diesel","price":1.939,"self":true,"updatedAt":"22/06/2026 07:50:26"}]},{"id":"19945","lat":45.59922869338027,"lon":11.803406774997711,"name":"SAN GIORGIO CARBURANTI DI RAMINA TIZIANO & C S.N.C.","brand":"Api-Ip","address":"VIA VALSUGANA 21 35010, SAN GIORGIO IN BOSCO, PD","prices":[{"type":"petrol","price":1.799,"self":true,"updatedAt":"23/06/2026 07:21:18"},{"type":"diesel","price":1.899,"self":true,"updatedAt":"23/06/2026 07:21:18"},{"type":"lpg","price":0.799,"self":false,"updatedAt":"23/06/2026 07:21:18"}]},{"id":"31487","lat":45.64057649202524,"lon":11.858428322753866,"name":"Costantin - San Martino di Lupari","brand":"Costantin","address":"Via del Confine  35018, SAN MARTINO DI LUPARI, PD","prices":[{"type":"petrol","price":1.859,"self":true,"updatedAt":"20/06/2026 10:31:02"},{"type":"diesel","price":1.899,"self":true,"updatedAt":"20/06/2026 10:31:02"},{"type":"lpg","price":0.789,"self":false,"updatedAt":"20/06/2026 10:31:03"}]},{"id":"46091","lat":45.619054653263426,"lon":11.853186284024673,"name":"NB POWER DI BAGGIO NICOLA","brand":"Beyfin","address":"VIA CADORNA 44 35018, SAN MARTINO DI LUPARI, PD","prices":[{"type":"petrol","price":1.839,"self":true,"updatedAt":"20/06/2026 23:10:37"},{"type":"diesel","price":1.939,"self":true,"updatedAt":"20/06/2026 23:10:37"},{"type":"methane","price":1.599,"self":false,"updatedAt":"20/06/2026 23:10:37"},{"type":"lpg","price":0.799,"self":false,"updatedAt":"20/06/2026 23:10:37"}]},{"id":"36245","lat":45.575118448082954,"lon":11.887155410922707,"name":"Franzon snc","brand":"Franzon snc","address":"DANTE 95/BIS 35010, SANTA GIUSTINA IN COLLE, PD","prices":[{"type":"petrol","price":1.858,"self":true,"updatedAt":"20/06/2026 16:33:04"},{"type":"diesel","price":1.939,"self":true,"updatedAt":"20/06/2026 16:33:04"}]},{"id":"40330","lat":45.58478567845364,"lon":11.893600076436996,"name":"TAMOIL","brand":"Tamoil","address":"via commerciale n108  35010, SANTA GIUSTINA IN COLLE, PD","prices":[{"type":"petrol","price":1.999,"self":true,"updatedAt":"22/06/2026 23:27:33"},{"type":"diesel","price":2.099,"self":true,"updatedAt":"22/06/2026 23:27:33"},{"type":"lpg","price":0.839,"self":false,"updatedAt":"22/06/2026 23:27:33"}]},{"id":"61008","lat":45.652294,"lon":11.840454,"name":"13241  TOMBOLO","brand":"Agip Eni","address":"Via Sommavilla 109  35019, TOMBOLO, PD","prices":[{"type":"petrol","price":1.819,"self":true,"updatedAt":"23/06/2026 00:00:47"},{"type":"diesel","price":1.919,"self":true,"updatedAt":"23/06/2026 00:00:47"}]},{"id":"52664","lat":45.64514125079855,"lon":11.815869999999986,"name":"TONIATO CARBURANTI S.N.C DI TONIATO MANUELA & C.","brand":"Esso","address":"VIA VITTORIO VENETO 93/A 35019, TOMBOLO, PD","prices":[{"type":"petrol","price":1.799,"self":true,"updatedAt":"22/06/2026 10:06:15"},{"type":"diesel","price":1.889,"self":true,"updatedAt":"22/06/2026 10:06:15"}]},{"id":"21158","lat":45.59209877445849,"lon":11.857720166444778,"name":"GIERRESSE VILLA DEL CONTE","brand":"Esso","address":"VIA RETTILINEO 10 35010, VILLA DEL CONTE, PD","prices":[{"type":"petrol","price":1.959,"self":true,"updatedAt":"18/06/2026 07:37:57"},{"type":"diesel","price":2.099,"self":true,"updatedAt":"18/06/2026 07:37:57"}]},{"id":"16506","lat":45.60903598970489,"lon":11.859258701713543,"name":"TOMBOLATO","brand":"Pompe Bianche","address":"VIA COMMERCIALE 22 35010, VILLA DEL CONTE, PD","prices":[{"type":"petrol","price":1.795,"self":true,"updatedAt":"22/06/2026 08:47:51"},{"type":"diesel","price":1.895,"self":true,"updatedAt":"22/06/2026 08:47:51"}]},{"id":"48421","lat":45.50929054896866,"lon":11.975800395011902,"name":"Euro Petrol","brand":"Europetrol","address":"VIA ROMA 100 35010, VILLANOVA DI CAMPOSAMPIERO, PD","prices":[{"type":"petrol","price":1.789,"self":true,"updatedAt":"22/06/2026 08:41:28"},{"type":"diesel","price":1.869,"self":true,"updatedAt":"22/06/2026 08:41:28"}]},{"id":"60766","lat":45.7370872,"lon":11.9640416,"name":"IP Altivole","brand":"Api-Ip","address":"Via Vallà 23  31030, ALTIVOLE, TV","prices":[{"type":"petrol","price":1.799,"self":true,"updatedAt":"19/06/2026 13:33:06"},{"type":"diesel","price":1.899,"self":true,"updatedAt":"19/06/2026 13:33:06"},{"type":"lpg","price":0.802,"self":false,"updatedAt":"19/06/2026 13:33:06"}]},{"id":"62410","lat":45.7463756,"lon":11.9749568,"name":"VEGA ALTIVOLE","brand":"Vega","address":"Via Piave 21  31030, ALTIVOLE, TV","prices":[{"type":"petrol","price":1.789,"self":true,"updatedAt":"20/06/2026 08:40:46"},{"type":"diesel","price":1.869,"self":true,"updatedAt":"19/06/2026 09:50:58"}]},{"id":"61853","lat":45.685683938744745,"lon":11.948736906051636,"name":"01784 ESSO - CASTEFRANCO VENETO","brand":"Esso","address":"Via Circonvallazione Est 31 31033, CASTELFRANCO VENETO, TV","prices":[{"type":"petrol","price":1.879,"self":true,"updatedAt":"22/06/2026 15:40:09"},{"type":"diesel","price":1.979,"self":true,"updatedAt":"22/06/2026 15:40:09"}]},{"id":"55939","lat":45.66929473052875,"lon":11.916975080978089,"name":"105970 CASTELFRANCO VENETO","brand":"Esso","address":"BRENTA 2 31033, CASTELFRANCO VENETO, TV","prices":[{"type":"petrol","price":1.869,"self":true,"updatedAt":"08/06/2026 17:51:35"},{"type":"diesel","price":1.919,"self":true,"updatedAt":"08/06/2026 17:51:35"}]},{"id":"33546","lat":45.672258816882476,"lon":11.939426792659788,"name":"3623 Castelfranco Veneto","brand":"Agip Eni","address":"Borgo Treviso  150 31033, CASTELFRANCO VENETO, TV","prices":[{"type":"petrol","price":1.784,"self":true,"updatedAt":"22/06/2026 23:25:03"},{"type":"diesel","price":1.849,"self":true,"updatedAt":"22/06/2026 23:25:03"}]},{"id":"57393","lat":45.658993,"lon":11.937538,"name":"55888 CASTEL FRANCO VENETO","brand":"Agip Eni","address":"Via Borgo Padova, CASTELFRANCO VENETO, TV","prices":[{"type":"petrol","price":1.814,"self":true,"updatedAt":"23/06/2026 00:01:18"},{"type":"diesel","price":1.919,"self":true,"updatedAt":"23/06/2026 00:01:18"}]},{"id":"50528","lat":45.6608320287229,"lon":11.912427641128488,"name":"BC Castelfranco Veneto","brand":"BC","address":"VIA CASTELLANA 115 31033, CASTELFRANCO VENETO, TV","prices":[{"type":"petrol","price":1.764,"self":true,"updatedAt":"22/06/2026 16:36:03"},{"type":"diesel","price":1.848,"self":true,"updatedAt":"22/06/2026 16:36:03"}]},{"id":"47939","lat":45.68002485093764,"lon":11.917591094970703,"name":"Castelfranco Veneto Azzalini Energie","brand":"AZZALINI ENERGIE","address":"Via Circonvallazione Ovest 18 31033, CASTELFRANCO VENETO, TV","prices":[{"type":"petrol","price":1.765,"self":true,"updatedAt":"22/06/2026 10:05:07"},{"type":"diesel","price":1.849,"self":true,"updatedAt":"22/06/2026 10:05:07"},{"type":"methane","price":1.497,"self":true,"updatedAt":"22/06/2026 10:05:07"}]},{"id":"23423","lat":45.679786660274274,"lon":11.918138496958932,"name":"CASTELFRANCO VENETO CIRCONVALLAZIONE OVEST,23","brand":"Q8","address":"CIRCONVALLAZIONE OVEST 23 31033, CASTELFRANCO VENETO, TV","prices":[{"type":"petrol","price":1.765,"self":true,"updatedAt":"23/06/2026 01:39:26"},{"type":"diesel","price":1.849,"self":true,"updatedAt":"23/06/2026 01:39:26"}]},{"id":"28408","lat":45.68509182259654,"lon":11.987427771091461,"name":"Distibutore ENI Via Circonvallazione Est","brand":"Agip Eni","address":"VIA CIRCONVALLAZIONE EST 85 31033, CASTELFRANCO VENETO, TV","prices":[{"type":"petrol","price":1.809,"self":true,"updatedAt":"23/06/2026 00:26:28"},{"type":"diesel","price":1.914,"self":true,"updatedAt":"23/06/2026 00:26:28"},{"type":"lpg","price":0.782,"self":false,"updatedAt":"22/06/2026 23:24:38"}]},{"id":"63093","lat":45.66926141259574,"lon":11.916883952408789,"name":"ESSO - CASTELFRANCO VENETO","brand":"Esso","address":"Via Brenta 2  31033, CASTELFRANCO VENETO, TV","prices":[{"type":"petrol","price":1.769,"self":true,"updatedAt":"22/06/2026 10:10:45"},{"type":"diesel","price":1.849,"self":true,"updatedAt":"19/06/2026 22:01:06"}]},{"id":"60489","lat":45.662502982796056,"lon":11.934953456448758,"name":"EUROPAM - CASTELFRANCO VENETO","brand":"Europam","address":"Via Borgo Padova 50  31033, CASTELFRANCO VENETO, TV","prices":[{"type":"petrol","price":1.647,"self":true,"updatedAt":"20/06/2026 21:30:10"},{"type":"diesel","price":1.597,"self":true,"updatedAt":"20/06/2026 21:30:10"}]},{"id":"15034","lat":45.68131337432542,"lon":11.939668357372284,"name":"IPER STATION CASTELFRANCO","brand":"Iper Station","address":"VIALE EUROPA 4 31033, CASTELFRANCO VENETO, TV","prices":[{"type":"petrol","price":1.765,"self":true,"updatedAt":"22/06/2026 23:37:56"},{"type":"diesel","price":1.849,"self":true,"updatedAt":"22/06/2026 23:37:56"}]},{"id":"47940","lat":45.67785382047328,"lon":11.910337060689926,"name":"OIL ITALIA VILLARAZZO","brand":"Oil Italia","address":"Loc. Villarazzo - Via Valsugana  52 31033, CASTELFRANCO VENETO, TV","prices":[{"type":"petrol","price":1.759,"self":true,"updatedAt":"22/06/2026 16:00:08"},{"type":"diesel","price":1.839,"self":true,"updatedAt":"22/06/2026 16:00:08"}]},{"id":"58110","lat":45.6728335,"lon":11.9485396,"name":"Q8","brand":"Q8","address":"Borgo Treviso 204  31033, CASTELFRANCO VENETO, TV","prices":[{"type":"petrol","price":1.799,"self":true,"updatedAt":"22/06/2026 09:24:49"},{"type":"diesel","price":1.899,"self":true,"updatedAt":"22/06/2026 09:24:49"}]},{"id":"55233","lat":45.66593,"lon":11.88792,"name":"Trivengas","brand":"Trivengas","address":"BRENTA 132 31033, CASTELFRANCO VENETO, TV","prices":[{"type":"petrol","price":1.789,"self":true,"updatedAt":"20/06/2026 08:03:00"},{"type":"diesel","price":1.869,"self":true,"updatedAt":"20/06/2026 08:03:00"},{"type":"lpg","price":0.739,"self":false,"updatedAt":"20/06/2026 08:03:00"}]},{"id":"49746","lat":45.67211228609701,"lon":11.93561547783247,"name":"Unocinquezero IP","brand":"Api-Ip","address":"BORGO TREVISO 126 31033, CASTELFRANCO VENETO, TV","prices":[{"type":"petrol","price":1.999,"self":false,"updatedAt":"19/06/2026 10:35:51"},{"type":"diesel","price":2.248,"self":false,"updatedAt":"19/06/2026 10:35:51"}]},{"id":"19062","lat":45.68815368954309,"lon":11.884719669311494,"name":"CASTELLO DI GODEGO VIA CAPRERA 20/A","brand":"Q8","address":"VIA CAPRERA 20/A 31030, CASTELLO DI GODEGO, TV","prices":[{"type":"petrol","price":1.819,"self":true,"updatedAt":"23/06/2026 01:39:24"},{"type":"diesel","price":1.889,"self":true,"updatedAt":"23/06/2026 01:39:24"}]},{"id":"52267","lat":45.684958413699704,"lon":11.893147994819255,"name":"GNP - CASTELLO DI GODEGO","brand":"GNP","address":"CAPRERA 45/D 31030, CASTELLO DI GODEGO, TV","prices":[{"type":"petrol","price":1.759,"self":true,"updatedAt":"22/06/2026 15:22:12"},{"type":"diesel","price":1.839,"self":true,"updatedAt":"22/06/2026 15:18:10"}]},{"id":"61509","lat":45.6887115178583,"lon":11.883081247225018,"name":"IP 41203 - CASTELLO DI GODEGO","brand":"Api-Ip","address":"Via Caprera 8/a  31030, CASTELLO DI GODEGO, TV","prices":[{"type":"petrol","price":1.809,"self":true,"updatedAt":"22/06/2026 00:50:31"},{"type":"diesel","price":1.909,"self":true,"updatedAt":"22/06/2026 00:50:31"}]},{"id":"43818","lat":45.693927942784285,"lon":11.857777833938599,"name":"NOALOIL PV15 CASTELLO DI GODEGO","brand":"Noaloil","address":"Via Chioggia 45/A 31030, CASTELLO DI GODEGO, TV","prices":[{"type":"petrol","price":1.799,"self":true,"updatedAt":"19/06/2026 15:20:28"},{"type":"diesel","price":1.899,"self":true,"updatedAt":"19/06/2026 15:20:28"},{"type":"lpg","price":0.809,"self":false,"updatedAt":"19/06/2026 15:20:28"}]},{"id":"30572","lat":45.741068039858355,"lon":11.8665779239426,"name":"BERMAX2000 LORIA","brand":"Pompe Bianche","address":"VIA MANZOLINO 16 31037, LORIA, TV","prices":[{"type":"petrol","price":1.784,"self":true,"updatedAt":"22/06/2026 21:53:32"},{"type":"diesel","price":1.884,"self":true,"updatedAt":"22/06/2026 21:53:32"},{"type":"lpg","price":0.794,"self":false,"updatedAt":"22/06/2026 14:13:32"}]},{"id":"55408","lat":45.711626,"lon":11.8683638,"name":"Bragagnolo S.LLE","brand":"Loro","address":"Via Castellana 36 31037, LORIA, TV","prices":[{"type":"petrol","price":1.799,"self":true,"updatedAt":"20/06/2026 11:23:01"},{"type":"diesel","price":1.899,"self":true,"updatedAt":"20/06/2026 11:23:01"}]},{"id":"13284","lat":45.63562778038879,"lon":11.97447131318404,"name":"BENOIL","brand":"Pompe Bianche","address":"VIA VIA TRIESTE 99/C 31023, RESANA (TV) 99/C 31023, RESANA, TV","prices":[{"type":"petrol","price":1.789,"self":true,"updatedAt":"22/06/2026 19:36:05"},{"type":"diesel","price":1.859,"self":true,"updatedAt":"22/06/2026 19:36:05"},{"type":"lpg","price":0.699,"self":false,"updatedAt":"22/06/2026 19:36:05"}]},{"id":"60758","lat":45.619857,"lon":11.941917,"name":"Carburanti Bianchi","brand":"Pompe Bianche","address":"strada regionale 308 km 23+828 31023, RESANA, TV","prices":[{"type":"petrol","price":1.779,"self":true,"updatedAt":"22/06/2026 08:22:24"},{"type":"diesel","price":1.859,"self":true,"updatedAt":"22/06/2026 08:22:24"},{"type":"methane","price":1.479,"self":false,"updatedAt":"22/06/2026 08:22:24"},{"type":"lpg","price":0.679,"self":false,"updatedAt":"22/06/2026 08:22:24"}]},{"id":"57889","lat":45.62931113758819,"lon":11.957067847251892,"name":"Carburanti Bianchi di Bianchi Antonio","brand":"Pompe Bianche","address":"VENEZIA 2 31023, RESANA, TV","prices":[{"type":"petrol","price":1.779,"self":true,"updatedAt":"22/06/2026 08:15:32"},{"type":"diesel","price":1.859,"self":true,"updatedAt":"22/06/2026 08:15:32"}]},{"id":"38017","lat":45.6357850322787,"lon":11.996858955819675,"name":"Loro F.lli Spa","brand":"Loro","address":"SANTA BRIGIDA 51 31023, RESANA, TV","prices":[{"type":"petrol","price":1.809,"self":true,"updatedAt":"22/06/2026 08:41:27"},{"type":"diesel","price":1.919,"self":true,"updatedAt":"22/06/2026 08:41:27"}]},{"id":"15183","lat":45.73349528524414,"lon":11.912504385644525,"name":"Eni","brand":"Agip Eni","address":"VIA MONTE GRAPPA 48, 31039 - -, RIESE PIO X, TV","prices":[{"type":"petrol","price":1.814,"self":true,"updatedAt":"22/06/2026 06:56:09"},{"type":"diesel","price":1.919,"self":true,"updatedAt":"22/06/2026 06:56:09"}]},{"id":"49674","lat":45.69117713768036,"lon":11.927684950891484,"name":"VALLI CARBURANTI","brand":"ValliCarburanti","address":"VIA KENNEDY 107 31039, RIESE PIO X, TV","prices":[{"type":"petrol","price":1.899,"self":true,"updatedAt":"18/06/2026 08:38:49"},{"type":"diesel","price":1.989,"self":true,"updatedAt":"18/06/2026 08:38:49"},{"type":"lpg","price":0.829,"self":false,"updatedAt":"18/06/2026 08:38:49"}]},{"id":"40986","lat":45.74298984910828,"lon":11.750185830688451,"name":"BEYFIN","brand":"Beyfin","address":"VIA CRISTOFORO COLOMBO 220 36061, BASSANO DEL GRAPPA, VI","prices":[{"type":"petrol","price":1.799,"self":true,"updatedAt":"23/06/2026 00:05:51"},{"type":"diesel","price":1.899,"self":true,"updatedAt":"23/06/2026 00:05:51"},{"type":"lpg","price":0.779,"self":false,"updatedAt":"23/06/2026 00:27:22"}]},{"id":"11157","lat":45.739918441291465,"lon":11.752635286508166,"name":"Metano autotrazione Casarin Oil Group","brand":"Pompe Bianche","address":"VIA MADONNA DI MONTE BERICO 11 36061, BASSANO DEL GRAPPA, VI","prices":[{"type":"methane","price":1.569,"self":false,"updatedAt":"18/06/2026 10:25:34"}]},{"id":"27740","lat":45.7486169516931,"lon":11.75048037797933,"name":"COSTANTIN CASSOLA","brand":"Costantin","address":"VIA VALSUGANA 62 36022, CASSOLA, VI","prices":[{"type":"petrol","price":1.795,"self":true,"updatedAt":"23/06/2026 07:45:36"},{"type":"diesel","price":1.895,"self":true,"updatedAt":"23/06/2026 07:45:36"},{"type":"lpg","price":0.778,"self":false,"updatedAt":"23/06/2026 07:45:36"}]},{"id":"11288","lat":45.73907901806866,"lon":11.758643388748169,"name":"GIOVANNI BERTIN SPA","brand":"Pompe Bianche","address":"VIA CROCERON 133 36022, CASSOLA, VI","prices":[{"type":"petrol","price":1.795,"self":false,"updatedAt":"22/06/2026 08:41:21"},{"type":"diesel","price":1.879,"self":false,"updatedAt":"22/06/2026 08:41:21"}]},{"id":"29862","lat":45.74831313594716,"lon":11.811030954122543,"name":"LORO F.LLI SPA - MUSSOLENTE","brand":"Loro","address":"VIA MONSIGNOR CUCCAROLO SNC 36065, MUSSOLENTE, VI","prices":[{"type":"petrol","price":1.839,"self":true,"updatedAt":"22/06/2026 09:04:45"},{"type":"diesel","price":1.919,"self":true,"updatedAt":"22/06/2026 09:04:45"}]},{"id":"35406","lat":45.7494936804321,"lon":11.800090596958853,"name":"IMPIANTO CARBURANTI SMP","brand":"San Marco Petroli","address":"VIA LANZARINI 92/A 36060, ROMANO D'EZZELINO, VI","prices":[{"type":"petrol","price":1.799,"self":true,"updatedAt":"22/06/2026 08:43:17"},{"type":"diesel","price":1.899,"self":true,"updatedAt":"22/06/2026 08:43:18"}]},{"id":"52795","lat":45.7032283,"lon":11.7679501,"name":"ITALIANA PETROLI I.P. ROSA","brand":"Api-Ip","address":"Via Cavalieri di Vittorio Veneto, ROSÀ, VI","prices":[{"type":"petrol","price":1.929,"self":true,"updatedAt":"22/06/2026 23:33:18"},{"type":"diesel","price":1.959,"self":true,"updatedAt":"22/06/2026 23:33:18"}]},{"id":"13540","lat":45.716400919710786,"lon":11.765383780002594,"name":"Poggiana Carburanti","brand":"Agip Eni","address":"VIA MAZZINI 93 36027, ROSÀ, VI","prices":[{"type":"petrol","price":1.825,"self":true,"updatedAt":"22/06/2026 11:09:32"},{"type":"diesel","price":1.914,"self":true,"updatedAt":"22/06/2026 11:09:32"}]},{"id":"62089","lat":45.72346,"lon":11.76928,"name":"PV23916 - Rosà (VI) - Dixi Bar di Pavin Claudio & C. S.N.C.","brand":"Agip Eni","address":"Via Garibaldi G. 31  36027, ROSÀ, VI","prices":[{"type":"petrol","price":1.829,"self":true,"updatedAt":"22/06/2026 23:54:40"},{"type":"diesel","price":1.919,"self":true,"updatedAt":"22/06/2026 23:54:40"}]},{"id":"62066","lat":45.71885,"lon":11.79575,"name":"23968 ROSSANO VENETO","brand":"Agip Eni","address":"VIA SAN LORENZO  87, ROSSANO VENETO, VI","prices":[{"type":"petrol","price":1.829,"self":true,"updatedAt":"22/06/2026 23:55:29"},{"type":"diesel","price":1.919,"self":true,"updatedAt":"22/06/2026 23:55:29"}]},{"id":"57432","lat":45.70749820838342,"lon":11.809450478632519,"name":"LORO F.LLI SPA - ROSSANO VENETO","brand":"Loro","address":"MADONNA DELLA SALUTE 46/B 36028, ROSSANO VENETO, VI","prices":[{"type":"petrol","price":1.819,"self":true,"updatedAt":"22/06/2026 18:57:30"},{"type":"diesel","price":1.919,"self":true,"updatedAt":"22/06/2026 09:04:27"}]},{"id":"11951","lat":45.714709429718916,"lon":11.794503182172775,"name":"ROSSANO VENETO-S.S. 245 KM 47+330","brand":"Q8","address":"S.S. 245 KM 47+330 S/N 36028, ROSSANO VENETO, VI","prices":[{"type":"petrol","price":1.809,"self":true,"updatedAt":"23/06/2026 01:39:46"},{"type":"diesel","price":1.899,"self":true,"updatedAt":"23/06/2026 01:39:46"}]}]