[{"id":"54542","lat":45.591904,"lon":10.2339283,"name":"FENOTTI SERGIO","brand":"Api-Ip","address":"BREDE 25 25073, BOVEZZO, BS","prices":[{"type":"petrol","price":1.809,"self":true,"updatedAt":"19/06/2026 16:49:51"},{"type":"diesel","price":1.929,"self":true,"updatedAt":"19/06/2026 16:49:51"}]},{"id":"60490","lat":45.56789911037576,"lon":10.230836253733372,"name":"GALZERANO AUTO","brand":"Itala Petroli","address":"TRIUMPLINA 102 25123, BRESCIA, BS","prices":[{"type":"petrol","price":1.879,"self":true,"updatedAt":"19/06/2026 17:42:27"},{"type":"diesel","price":1.979,"self":true,"updatedAt":"19/06/2026 17:42:27"},{"type":"lpg","price":0.769,"self":false,"updatedAt":"19/06/2026 17:42:27"}]},{"id":"55602","lat":45.54414393282248,"lon":10.230047811451815,"name":"105536 BRESCIA PUSTERLA","brand":"Esso","address":"PUSTERLA 69 25128, BRESCIA, BS","prices":[{"type":"petrol","price":1.819,"self":true,"updatedAt":"19/06/2026 06:19:21"},{"type":"diesel","price":1.899,"self":true,"updatedAt":"19/06/2026 06:19:21"}]},{"id":"5454","lat":45.572186409669925,"lon":10.216546034393332,"name":"11745 BRESCIA","brand":"Agip Eni","address":"Via Montelungo, Tang. Ovest 10 25123, BRESCIA, BS","prices":[{"type":"petrol","price":1.809,"self":true,"updatedAt":"21/06/2026 00:54:28"},{"type":"diesel","price":1.919,"self":true,"updatedAt":"21/06/2026 00:54:28"},{"type":"methane","price":1.296,"self":false,"updatedAt":"20/06/2026 23:36:05"},{"type":"lpg","price":0.702,"self":false,"updatedAt":"20/06/2026 23:36:05"}]},{"id":"59870","lat":45.52124,"lon":10.211879,"name":"1658 BRESCIA","brand":"Agip Eni","address":"Via A. Lamarmora 150  25124, BRESCIA, BS","prices":[{"type":"petrol","price":1.809,"self":true,"updatedAt":"20/06/2026 23:26:18"},{"type":"diesel","price":1.919,"self":true,"updatedAt":"20/06/2026 23:26:18"}]},{"id":"63224","lat":45.5537283,"lon":10.227964,"name":"1699","brand":"Q8","address":"Via Bartolomeo Gualla 18  25128, BRESCIA, BS","prices":[{"type":"petrol","price":1.869,"self":true,"updatedAt":"20/06/2026 20:16:47"},{"type":"diesel","price":1.969,"self":true,"updatedAt":"20/06/2026 20:16:47"}]},{"id":"59640","lat":45.55488,"lon":10.227271,"name":"1743 BRESCIA","brand":"Agip Eni","address":"PIAZZALE CORVI, BRESCIA, BS","prices":[{"type":"petrol","price":1.789,"self":true,"updatedAt":"20/06/2026 23:16:05"},{"type":"diesel","price":1.864,"self":true,"updatedAt":"20/06/2026 23:16:05"}]},{"id":"59458","lat":45.5278592,"lon":10.2105088,"name":"1764","brand":"Q8","address":"CORSICA 152 25125, BRESCIA, BS","prices":[{"type":"petrol","price":1.899,"self":true,"updatedAt":"16/06/2026 07:50:59"},{"type":"diesel","price":1.999,"self":true,"updatedAt":"16/06/2026 07:50:59"}]},{"id":"61621","lat":45.53127,"lon":10.24753,"name":"1772","brand":"Q8","address":"VENEZIA 240 25123, BRESCIA, BS","prices":[{"type":"petrol","price":1.869,"self":true,"updatedAt":"20/06/2026 20:17:31"},{"type":"diesel","price":1.969,"self":true,"updatedAt":"20/06/2026 20:17:31"}]},{"id":"25373","lat":45.51442799442947,"lon":10.194647468717221,"name":"2599","brand":"Tamoil","address":"FLERO 65 25124, BRESCIA, BS","prices":[{"type":"petrol","price":1.809,"self":true,"updatedAt":"21/06/2026 00:01:48"},{"type":"diesel","price":1.939,"self":true,"updatedAt":"21/06/2026 00:01:48"}]},{"id":"54393","lat":45.52266105411557,"lon":10.196389248965469,"name":"3S CAR WASH DI SINGH JASWINDER","brand":"Esso","address":"LABIRINTO 6 25128, BRESCIA, BS","prices":[{"type":"petrol","price":1.889,"self":true,"updatedAt":"17/06/2026 07:06:00"},{"type":"diesel","price":1.999,"self":true,"updatedAt":"17/06/2026 07:06:00"}]},{"id":"51263","lat":45.54339528219658,"lon":10.205213828836065,"name":"4205","brand":"Tamoil","address":"MILANO 28 25126, BRESCIA, BS","prices":[{"type":"petrol","price":1.799,"self":true,"updatedAt":"20/06/2026 23:24:43"},{"type":"diesel","price":1.879,"self":true,"updatedAt":"20/06/2026 23:24:43"}]},{"id":"57391","lat":45.53183,"lon":10.200442,"name":"51755 BRESCIA DALMAZIA","brand":"Agip Eni","address":"Via Dalmazia 44  25125, BRESCIA, BS","prices":[{"type":"petrol","price":1.809,"self":true,"updatedAt":"21/06/2026 00:56:42"},{"type":"diesel","price":1.919,"self":true,"updatedAt":"21/06/2026 00:56:42"}]},{"id":"40698","lat":45.5180433264106,"lon":10.211493596434593,"name":"A2A Energia - Future Fuels srl","brand":"Pompe Bianche","address":"VIA MALTA 25/D 25124, BRESCIA, BS","prices":[{"type":"methane","price":1.699,"self":false,"updatedAt":"18/06/2026 21:30:44"}]},{"id":"62905","lat":45.5157442,"lon":10.1867957,"name":"AF SERVIZI","brand":"Retitalia","address":"Via Labirinto 260  25125, BRESCIA, BS","prices":[{"type":"petrol","price":1.829,"self":true,"updatedAt":"19/06/2026 14:12:27"},{"type":"diesel","price":1.919,"self":true,"updatedAt":"19/06/2026 14:12:27"},{"type":"lpg","price":0.719,"self":false,"updatedAt":"19/06/2026 14:12:27"}]},{"id":"53956","lat":45.5278592,"lon":10.223616,"name":"AREA DI SERVIZIO IP","brand":"Pompe Bianche","address":"VIA VIA S. ROCCHINO 34 25123, BRESCIA (BS) 34 25123, BRESCIA, BS","prices":[{"type":"petrol","price":1.819,"self":true,"updatedAt":"19/06/2026 16:09:40"},{"type":"diesel","price":1.929,"self":true,"updatedAt":"19/06/2026 16:09:40"},{"type":"methane","price":1.319,"self":false,"updatedAt":"19/06/2026 16:09:40"}]},{"id":"56276","lat":45.52307,"lon":10.19888,"name":"BALRAJ GILL","brand":"Q8","address":"FLERO 18 25125, BRESCIA, BS","prices":[{"type":"petrol","price":1.845,"self":true,"updatedAt":"19/06/2026 08:24:20"},{"type":"diesel","price":2.015,"self":true,"updatedAt":"19/06/2026 08:24:20"}]},{"id":"59198","lat":45.5838041,"lon":10.2238592,"name":"BONERA SNC","brand":"Retitalia","address":"TRIUMPLINA 295 25060, BRESCIA, BS","prices":[{"type":"petrol","price":1.819,"self":true,"updatedAt":"19/06/2026 11:58:49"},{"type":"diesel","price":1.919,"self":true,"updatedAt":"19/06/2026 11:58:49"}]},{"id":"53211","lat":45.52191077492157,"lon":10.245251208543777,"name":"BRESCIA","brand":"Pompe Bianche","address":"VIA SAN POLO 70/A 25124, BRESCIA, BS","prices":[{"type":"petrol","price":1.799,"self":true,"updatedAt":"20/06/2026 23:40:25"},{"type":"diesel","price":1.929,"self":true,"updatedAt":"20/06/2026 23:40:25"}]},{"id":"10148","lat":45.56033213782611,"lon":10.228484719991684,"name":"Brescia","brand":"Api-Ip","address":"Via Triumplina 16 25123, BRESCIA, BS","prices":[{"type":"petrol","price":1.819,"self":true,"updatedAt":"20/06/2026 09:16:29"},{"type":"diesel","price":1.879,"self":true,"updatedAt":"20/06/2026 09:16:29"}]},{"id":"49466","lat":45.52914602106733,"lon":10.19902829447747,"name":"BRESCIA - DALMAZIA 80","brand":"Api-Ip","address":"Via DALMAZIA 80 25125, BRESCIA, BS","prices":[{"type":"petrol","price":1.799,"self":true,"updatedAt":"20/06/2026 09:03:44"},{"type":"diesel","price":1.919,"self":true,"updatedAt":"20/06/2026 09:03:44"}]},{"id":"54359","lat":45.544121718854264,"lon":10.201698651858445,"name":"BRESCIA - VIA MILANO","brand":"Esso","address":"MILANO 46 25127, BRESCIA, BS","prices":[{"type":"petrol","price":1.799,"self":true,"updatedAt":"20/06/2026 07:52:22"},{"type":"diesel","price":1.879,"self":true,"updatedAt":"20/06/2026 07:52:22"}]},{"id":"20098","lat":45.523314574143065,"lon":10.230162017196676,"name":"Brescia Abruzzi","brand":"Api-Ip","address":"Via duca degli Abruzzi  25124, BRESCIA, BS","prices":[{"type":"petrol","price":1.799,"self":true,"updatedAt":"20/06/2026 09:16:25"},{"type":"diesel","price":1.899,"self":true,"updatedAt":"20/06/2026 09:16:25"}]},{"id":"22096","lat":45.56104353032975,"lon":10.204567781614742,"name":"BRESCIA G.VENDER 96","brand":"Q8","address":"VIA G.VENDER 96 25127, BRESCIA, BS","prices":[{"type":"petrol","price":1.819,"self":true,"updatedAt":"19/06/2026 01:40:00"},{"type":"diesel","price":1.939,"self":true,"updatedAt":"19/06/2026 01:40:00"}]},{"id":"28043","lat":45.54693836466013,"lon":10.180791020393372,"name":"Brescia Valcamonica","brand":"Api-Ip","address":"Via Valcamonica 9 25126, BRESCIA, BS","prices":[{"type":"petrol","price":1.799,"self":true,"updatedAt":"20/06/2026 09:14:42"},{"type":"diesel","price":1.879,"self":true,"updatedAt":"20/06/2026 09:14:42"}]},{"id":"11529","lat":45.53114028989275,"lon":10.182807927751583,"name":"BRESCIA-VIA ORZINUOVI 74","brand":"Q8","address":"VIA ORZINUOVI 74 25125, BRESCIA, BS","prices":[{"type":"petrol","price":1.819,"self":true,"updatedAt":"17/06/2026 01:38:42"},{"type":"diesel","price":1.939,"self":true,"updatedAt":"17/06/2026 01:38:42"}]},{"id":"11525","lat":45.56203145405235,"lon":10.228703847885072,"name":"BRESCIA-VIA TRIUMPLINA 8","brand":"Q8","address":"VIA TRIUMPLINA 8 25123, BRESCIA, BS","prices":[{"type":"petrol","price":1.789,"self":true,"updatedAt":"20/06/2026 01:39:16"},{"type":"diesel","price":1.874,"self":true,"updatedAt":"20/06/2026 01:39:16"}]},{"id":"34323","lat":45.573809041272746,"lon":10.230908830656972,"name":"Distributore Esso","brand":"Esso","address":"Via Triumplina 141 25136, BRESCIA, BS","prices":[{"type":"petrol","price":1.879,"self":true,"updatedAt":"20/06/2026 23:44:19"},{"type":"diesel","price":1.999,"self":true,"updatedAt":"20/06/2026 23:44:19"}]},{"id":"17041","lat":45.51882570797936,"lon":10.200886130332947,"name":"DISTRIBUTORE IP DI CORINI S.N.C. DI CORINI NICOLA, CLAUDIO E RAINERI MAURO","brand":"Api-Ip","address":"TANGENZIALE DE GASPERI 5 25100, BRESCIA, BS","prices":[{"type":"petrol","price":1.904,"self":true,"updatedAt":"20/06/2026 07:01:49"},{"type":"diesel","price":2.039,"self":true,"updatedAt":"20/06/2026 07:01:49"},{"type":"methane","price":1.759,"self":false,"updatedAt":"20/06/2026 07:01:49"},{"type":"lpg","price":0.739,"self":false,"updatedAt":"20/06/2026 07:01:49"}]},{"id":"55787","lat":45.5319049,"lon":10.228882,"name":"Eni","brand":"Agip Eni","address":"Via XXV Aprile 29 25121, BRESCIA, BS","prices":[{"type":"petrol","price":1.732,"self":true,"updatedAt":"06/05/2026 23:19:06"},{"type":"diesel","price":2.074,"self":true,"updatedAt":"06/05/2026 23:19:06"}]},{"id":"52855","lat":45.51277289999999,"lon":10.2310608,"name":"Eni Chiarelli","brand":"Agip Eni","address":"Via Borgosatollo 7 25124, BRESCIA, BS","prices":[{"type":"petrol","price":1.83,"self":true,"updatedAt":"21/06/2026 00:40:51"},{"type":"diesel","price":1.949,"self":true,"updatedAt":"21/06/2026 00:40:51"},{"type":"methane","price":1.429,"self":false,"updatedAt":"20/06/2026 23:31:18"},{"type":"lpg","price":0.732,"self":false,"updatedAt":"20/06/2026 23:31:18"}]},{"id":"23813","lat":45.5114667,"lon":10.2197903,"name":"Eni P. & B. srl","brand":"Agip Eni","address":"Tangenziale Sud KM, BRESCIA, BS","prices":[{"type":"petrol","price":1.86,"self":true,"updatedAt":"21/06/2026 00:41:38"},{"type":"diesel","price":1.984,"self":true,"updatedAt":"21/06/2026 00:41:38"},{"type":"methane","price":1.629,"self":false,"updatedAt":"20/06/2026 23:32:06"},{"type":"lpg","price":0.749,"self":false,"updatedAt":"20/06/2026 23:32:06"}]},{"id":"63044","lat":45.5317039,"lon":10.2287647,"name":"Eni XXV Aprile","brand":"Agip Eni","address":"Via XXV Aprile 28  25121, BRESCIA, BS","prices":[{"type":"petrol","price":1.824,"self":true,"updatedAt":"21/06/2026 00:39:43"},{"type":"diesel","price":1.944,"self":true,"updatedAt":"21/06/2026 00:39:43"}]},{"id":"62902","lat":45.54414,"lon":10.20176,"name":"ESSO BRESCIA VIA MILANO 46","brand":"Esso","address":"VIA MILANO 46 25100, BRESCIA, BS","prices":[{"type":"petrol","price":1.799,"self":true,"updatedAt":"21/06/2026 07:21:15"},{"type":"diesel","price":1.879,"self":true,"updatedAt":"21/06/2026 07:21:15"}]},{"id":"62583","lat":45.53017687408136,"lon":10.18735195081788,"name":"ESSO ORZINUOVI","brand":"Esso","address":"Via Orzinuovi 68 25125, BRESCIA, BS","prices":[{"type":"petrol","price":1.889,"self":true,"updatedAt":"20/06/2026 08:27:07"},{"type":"diesel","price":1.999,"self":true,"updatedAt":"20/06/2026 08:27:07"}]},{"id":"62582","lat":45.54725514544328,"lon":10.169609102655025,"name":"ESSO VALCAMONICA","brand":"Esso","address":"V. Valcamonica 19/a  25132, BRESCIA, BS","prices":[{"type":"petrol","price":1.819,"self":true,"updatedAt":"20/06/2026 08:26:52"},{"type":"diesel","price":1.939,"self":true,"updatedAt":"20/06/2026 08:26:52"}]},{"id":"61371","lat":45.50183,"lon":10.22184,"name":"Fuel Point Snc","brand":"Esso","address":"Via della Volta 213  25124, BRESCIA, BS","prices":[{"type":"petrol","price":1.829,"self":true,"updatedAt":"20/06/2026 07:24:49"},{"type":"diesel","price":1.959,"self":true,"updatedAt":"20/06/2026 07:24:49"}]},{"id":"13202","lat":45.54992621615376,"lon":10.18580338332822,"name":"gima snc","brand":"Api-Ip","address":"VIA CHIUSURE 30 25127, BRESCIA, BS","prices":[{"type":"petrol","price":1.819,"self":true,"updatedAt":"19/06/2026 16:27:20"},{"type":"diesel","price":1.899,"self":true,"updatedAt":"19/06/2026 16:27:20"},{"type":"lpg","price":0.799,"self":false,"updatedAt":"19/06/2026 16:27:20"}]},{"id":"37423","lat":45.5392568891075,"lon":10.231937865676173,"name":"GOZIO PIERCARLO","brand":"Agip Eni","address":"VIA FILIPPO TURATI 30 25123, BRESCIA, BS","prices":[{"type":"petrol","price":1.829,"self":true,"updatedAt":"21/06/2026 00:38:40"},{"type":"diesel","price":1.949,"self":true,"updatedAt":"21/06/2026 00:38:40"}]},{"id":"39581","lat":45.50789248111409,"lon":10.177653644180282,"name":"Green Fuel Company S.p.A. - Brescia","brand":"GreenFuelCompany","address":"VIA LABIRINTO 390 25125, BRESCIA, BS","prices":[{"type":"methane","price":1.499,"self":false,"updatedAt":"15/06/2026 09:30:52"}]},{"id":"45053","lat":45.51318792389381,"lon":10.228157958335942,"name":"IP","brand":"Api-Ip","address":"borgosatollo 16 25123 25123, BRESCIA, BS","prices":[{"type":"petrol","price":1.809,"self":true,"updatedAt":"19/06/2026 18:14:51"},{"type":"diesel","price":1.919,"self":true,"updatedAt":"19/06/2026 18:14:51"}]},{"id":"44738","lat":45.53099660729657,"lon":10.199764966964722,"name":"IP BRESCIA VIA DALMAZIA","brand":"Api-Ip","address":"via Dalmazia  58 25125, BRESCIA, BS","prices":[{"type":"petrol","price":1.829,"self":true,"updatedAt":"19/06/2026 10:30:10"},{"type":"diesel","price":1.949,"self":true,"updatedAt":"19/06/2026 10:30:10"}]},{"id":"13585","lat":45.54807329293446,"lon":10.160254687070847,"name":"MARELLI IVO","brand":"Q8","address":"VIA VALLECAMONICA SNC 25132, BRESCIA, BS","prices":[{"type":"petrol","price":1.879,"self":true,"updatedAt":"18/06/2026 08:18:48"},{"type":"diesel","price":2.029,"self":true,"updatedAt":"18/06/2026 08:18:47"},{"type":"lpg","price":0.769,"self":false,"updatedAt":"18/06/2026 08:18:48"}]},{"id":"58815","lat":45.521516,"lon":10.218009,"name":"ML SRL","brand":"Q8","address":"Via S. Zeno 111, BRESCIA, BS","prices":[{"type":"petrol","price":1.835,"self":true,"updatedAt":"19/06/2026 08:43:10"},{"type":"diesel","price":1.984,"self":true,"updatedAt":"19/06/2026 08:43:10"},{"type":"lpg","price":0.769,"self":false,"updatedAt":"19/06/2026 08:43:10"}]},{"id":"11207","lat":45.560683654916204,"lon":10.209791468786648,"name":"pietroboni felice e c snc","brand":"Agip Eni","address":"VIA OBERDAN 104 25128, BRESCIA, BS","prices":[{"type":"petrol","price":1.83,"self":true,"updatedAt":"21/06/2026 00:36:46"},{"type":"diesel","price":1.949,"self":true,"updatedAt":"21/06/2026 00:36:46"}]},{"id":"37579","lat":45.51378395409887,"lon":10.184950699405704,"name":"Q8","brand":"Q8","address":"via labirinto 318 25130, BRESCIA, BS","prices":[{"type":"petrol","price":1.854,"self":true,"updatedAt":"20/06/2026 22:00:28"},{"type":"diesel","price":2.024,"self":true,"updatedAt":"20/06/2026 22:00:28"},{"type":"lpg","price":0.769,"self":false,"updatedAt":"20/06/2026 22:00:28"}]},{"id":"60456","lat":45.553888057586484,"lon":10.228008771001612,"name":"Q8","brand":"Q8","address":"Via Bartolomeo Gualla 18 25128, BRESCIA, BS","prices":[{"type":"petrol","price":1.869,"self":true,"updatedAt":"18/06/2026 18:09:05"},{"type":"diesel","price":1.969,"self":true,"updatedAt":"18/06/2026 18:09:05"}]},{"id":"12809","lat":45.56263187447065,"lon":10.187760125933892,"name":"Q8 F.LLI UBERTI DI UBERTI MAURO & C. SNC","brand":"Q8","address":"VIA TORRICELLA DI SOPRA 148 25127, BRESCIA, BS","prices":[{"type":"petrol","price":1.835,"self":true,"updatedAt":"20/06/2026 08:54:49"},{"type":"diesel","price":1.964,"self":true,"updatedAt":"20/06/2026 08:54:49"},{"type":"lpg","price":0.769,"self":false,"updatedAt":"20/06/2026 08:54:49"}]},{"id":"7911","lat":45.52925272685685,"lon":10.18974356353283,"name":"Q8 soloerre Brescia","brand":"Q8","address":"VIA ORZINUOVI 40/44 25125, BRESCIA, BS","prices":[{"type":"petrol","price":1.859,"self":true,"updatedAt":"20/06/2026 08:31:06"},{"type":"diesel","price":1.959,"self":true,"updatedAt":"20/06/2026 08:31:06"}]},{"id":"56160","lat":45.530863916577,"lon":10.2380808315908,"name":"SHELL BRESCIA VIALE PIAVE, 2","brand":"Shell","address":"PIAVE 2 25123, BRESCIA, BS","prices":[{"type":"petrol","price":1.839,"self":true,"updatedAt":"21/06/2026 07:10:18"},{"type":"diesel","price":1.959,"self":true,"updatedAt":"21/06/2026 07:10:18"}]},{"id":"62565","lat":45.51337176416667,"lon":10.185238178046657,"name":"SOMMESE PETROLI BRESCIA","brand":"Sommese Petroli","address":"Via Labirinto 169 25125, BRESCIA, BS","prices":[{"type":"petrol","price":1.787,"self":true,"updatedAt":"21/06/2026 00:18:57"},{"type":"diesel","price":1.897,"self":true,"updatedAt":"21/06/2026 00:18:57"}]},{"id":"62396","lat":45.52993679999999,"lon":10.187606,"name":"SONIA di PASOLINI SONIA e C. Snc","brand":"Pompe Bianche","address":"Via Orzinuovi 56  25125, BRESCIA, BS","prices":[{"type":"petrol","price":1.842,"self":true,"updatedAt":"17/06/2026 09:05:14"},{"type":"diesel","price":2.189,"self":true,"updatedAt":"17/06/2026 09:05:14"},{"type":"lpg","price":0.739,"self":false,"updatedAt":"17/06/2026 09:05:14"}]},{"id":"43784","lat":45.56537575560221,"lon":10.229396728836036,"name":"Stazione di rifornimento esso","brand":"Esso","address":"TRIUMPLINA 84 25123, BRESCIA, BS","prices":[{"type":"petrol","price":1.819,"self":true,"updatedAt":"19/06/2026 18:10:37"},{"type":"diesel","price":1.919,"self":true,"updatedAt":"19/06/2026 18:10:37"}]},{"id":"15934","lat":45.52991018794497,"lon":10.199276804924011,"name":"Stazione di servizio - Soretti Silvano","brand":"Esso","address":"DALMAZIA 70 25125, BRESCIA, BS","prices":[{"type":"petrol","price":1.839,"self":true,"updatedAt":"20/06/2026 12:13:26"},{"type":"diesel","price":1.939,"self":true,"updatedAt":"20/06/2026 12:13:26"}]},{"id":"15855","lat":45.547234737552536,"lon":10.18236987546311,"name":"stazione di servizio Eni","brand":"Agip Eni","address":"VIA VALCAMONICA 3 25126, BRESCIA, BS","prices":[{"type":"petrol","price":1.855,"self":true,"updatedAt":"15/06/2026 18:28:52"},{"type":"diesel","price":1.984,"self":true,"updatedAt":"15/06/2026 18:28:52"}]},{"id":"52054","lat":45.546780389592485,"lon":10.178293883800507,"name":"STAZIONE DI SERVIZIO ENI","brand":"Agip Eni","address":"VIA VALCAMONICA 12 25127, BRESCIA, BS","prices":[{"type":"petrol","price":1.804,"self":true,"updatedAt":"21/06/2026 00:05:24"},{"type":"diesel","price":1.914,"self":true,"updatedAt":"21/06/2026 00:05:24"}]},{"id":"37462","lat":45.520935621898765,"lon":10.246574208140373,"name":"STAZIONE DI SERVIZIO PESCE","brand":"Api-Ip","address":"SAN POLO 69 25121, BRESCIA, BS","prices":[{"type":"petrol","price":1.879,"self":true,"updatedAt":"19/06/2026 18:30:35"},{"type":"diesel","price":1.979,"self":true,"updatedAt":"19/06/2026 18:30:35"},{"type":"lpg","price":0.799,"self":false,"updatedAt":"19/06/2026 18:30:35"}]},{"id":"10026","lat":45.54888869150083,"lon":10.200062021613121,"name":"Stazione Q8 Marangon Luca & C. Snc","brand":"Q8","address":"VIA VOLTURNO 80 25126, BRESCIA, BS","prices":[{"type":"petrol","price":1.869,"self":true,"updatedAt":"20/06/2026 07:40:36"},{"type":"diesel","price":1.999,"self":true,"updatedAt":"20/06/2026 07:40:36"}]},{"id":"36795","lat":45.55728354781038,"lon":10.197480928870732,"name":"STAZIONE SERVIZIO AUTOCCASIONI","brand":"Pompe Bianche","address":"VIA CROTTE  45 25127, BRESCIA, BS","prices":[{"type":"petrol","price":1.829,"self":true,"updatedAt":"19/06/2026 08:06:04"},{"type":"diesel","price":1.959,"self":true,"updatedAt":"19/06/2026 08:06:04"}]},{"id":"59186","lat":45.5210373,"lon":10.2133772,"name":"Tamoil","brand":"Tamoil","address":"LAMARMORA 156 25124, BRESCIA, BS","prices":[{"type":"petrol","price":1.829,"self":true,"updatedAt":"20/06/2026 16:49:16"},{"type":"diesel","price":1.949,"self":true,"updatedAt":"20/06/2026 16:49:16"}]},{"id":"56120","lat":45.54750849010512,"lon":10.202134261164089,"name":"Toti Service F1","brand":"Q8","address":"GIOSUE' CARDUCCI 64 25126, BRESCIA, BS","prices":[{"type":"petrol","price":1.915,"self":true,"updatedAt":"20/06/2026 07:10:08"},{"type":"diesel","price":2.025,"self":true,"updatedAt":"20/06/2026 07:10:08"},{"type":"lpg","price":0.769,"self":false,"updatedAt":"20/06/2026 07:10:08"}]},{"id":"59494","lat":45.55026,"lon":10.212517,"name":"Toti Service F1 di Singh Lakhwinder","brand":"Q8","address":"Via Sant'Eustacchio 3 25126, BRESCIA, BS","prices":[{"type":"petrol","price":1.879,"self":true,"updatedAt":"20/06/2026 07:10:35"},{"type":"diesel","price":2.025,"self":true,"updatedAt":"20/06/2026 07:10:35"}]},{"id":"27165","lat":45.55016238763048,"lon":10.13626366853714,"name":"6059","brand":"Tamoil","address":"S.S. 11 KM 225+430 - 25045, CASTEGNATO, BS","prices":[{"type":"petrol","price":1.799,"self":true,"updatedAt":"20/06/2026 23:39:50"},{"type":"diesel","price":1.889,"self":true,"updatedAt":"20/06/2026 23:39:50"}]},{"id":"40083","lat":45.55253803848632,"lon":10.10773703455925,"name":"8035","brand":"Tamoil","address":"S.S. 11 KM 227+700 - 25045, CASTEGNATO, BS","prices":[{"type":"petrol","price":1.799,"self":true,"updatedAt":"20/06/2026 23:37:59"},{"type":"diesel","price":1.889,"self":true,"updatedAt":"20/06/2026 23:37:59"}]},{"id":"25070","lat":45.55624085815493,"lon":10.111473936176253,"name":"CASTEGNATO - FRANCHI","brand":"Api-Ip","address":"VIA FRANCHI (SP 45) 108 25045, CASTEGNATO, BS","prices":[{"type":"petrol","price":1.779,"self":true,"updatedAt":"20/06/2026 09:03:35"},{"type":"diesel","price":1.889,"self":true,"updatedAt":"20/06/2026 09:03:35"}]},{"id":"59272","lat":45.52205747470398,"lon":10.149087736474984,"name":"CASTEL MELLA RONCADELLE","brand":"Retitalia","address":"Via Roncadelle 46  25030, CASTEL MELLA, BS","prices":[{"type":"petrol","price":1.789,"self":true,"updatedAt":"20/06/2026 11:03:18"},{"type":"diesel","price":1.899,"self":true,"updatedAt":"20/06/2026 11:03:18"}]},{"id":"59365","lat":45.56878435735175,"lon":10.032469453763353,"name":"TAMOIL","brand":"Tamoil","address":"VIA BONFADINA 61 25046, CAZZAGO SAN MARTINO, BS","prices":[{"type":"petrol","price":1.819,"self":true,"updatedAt":"19/06/2026 17:12:23"},{"type":"diesel","price":1.919,"self":true,"updatedAt":"19/06/2026 17:12:23"}]},{"id":"45474","lat":45.558022000123,"lon":10.039185000123,"name":"TRUSSARDI PETROLI","brand":"Pompe Bianche","address":"PADANA SUPERIORE SNC 25046, CAZZAGO SAN MARTINO, BS","prices":[{"type":"petrol","price":1.879,"self":true,"updatedAt":"17/06/2026 11:42:50"},{"type":"diesel","price":1.979,"self":true,"updatedAt":"17/06/2026 11:42:50"},{"type":"lpg","price":0.719,"self":false,"updatedAt":"17/06/2026 11:42:50"}]},{"id":"50798","lat":45.583214781901354,"lon":10.169373022022656,"name":"Distributore Eni di Muscio Roberto","brand":"Agip Eni","address":"Via Caporalino 16/A 25060, CELLATICA, BS","prices":[{"type":"petrol","price":1.799,"self":true,"updatedAt":"20/06/2026 19:20:12"},{"type":"diesel","price":1.929,"self":true,"updatedAt":"20/06/2026 19:20:12"}]},{"id":"49811","lat":45.579523211291914,"lon":10.178110152482986,"name":"GM CARBURANTI SNC","brand":"Agip Eni","address":"VIA BREDA VECCHIA 1 25060, CELLATICA, BS","prices":[{"type":"petrol","price":1.835,"self":true,"updatedAt":"21/06/2026 00:41:26"},{"type":"diesel","price":1.964,"self":true,"updatedAt":"21/06/2026 00:41:25"},{"type":"lpg","price":0.752,"self":false,"updatedAt":"21/06/2026 00:41:26"}]},{"id":"12253","lat":45.582710823833985,"lon":10.170008540153503,"name":"sola renato e uberti marco snc","brand":"Esso","address":"VIA CAPORALINO 11 25060, CELLATICA, BS","prices":[{"type":"petrol","price":1.819,"self":true,"updatedAt":"19/06/2026 07:07:04"},{"type":"diesel","price":1.939,"self":true,"updatedAt":"19/06/2026 07:07:04"}]},{"id":"51671","lat":45.583135256755405,"lon":10.216036677224718,"name":"Zaimi kreshnik","brand":"Agip Eni","address":"VIA F.LLI QUAGLIENI 13 25060, COLLEBEATO, BS","prices":[{"type":"petrol","price":1.979,"self":true,"updatedAt":"01/06/2026 16:43:21"},{"type":"diesel","price":2.039,"self":true,"updatedAt":"01/06/2026 16:43:21"},{"type":"lpg","price":0.799,"self":false,"updatedAt":"01/06/2026 16:43:21"}]},{"id":"50794","lat":45.58632329033704,"lon":10.227152493513548,"name":"ENI STATION CONCESIO","brand":"Agip Eni","address":"VIA TRIUMPLINA 272 25136, CONCESIO, BS","prices":[{"type":"petrol","price":1.799,"self":true,"updatedAt":"20/06/2026 20:17:26"},{"type":"diesel","price":1.909,"self":true,"updatedAt":"20/06/2026 20:17:26"}]},{"id":"59192","lat":45.60388789398119,"lon":10.194173902273178,"name":"Marval di Cabassi M&C snc","brand":"Retitalia","address":"VIA STELLA 116 25062, CONCESIO, BS","prices":[{"type":"petrol","price":1.912,"self":true,"updatedAt":"19/06/2026 21:30:58"},{"type":"diesel","price":2.039,"self":true,"updatedAt":"19/06/2026 21:30:58"}]},{"id":"12755","lat":45.6140111449122,"lon":10.205172300338745,"name":"PV IP GRUPPO API CONCESIO","brand":"Api-Ip","address":"VIA EUROPA 285 25062, CONCESIO, BS","prices":[{"type":"petrol","price":1.924,"self":true,"updatedAt":"19/06/2026 09:02:34"},{"type":"diesel","price":2.032,"self":true,"updatedAt":"19/06/2026 09:02:34"}]},{"id":"55182","lat":45.62898844867556,"lon":10.007531291743136,"name":"ESSO CORTE FRANCA","brand":"Esso","address":"Strada Provinciale Nord XI  25040, CORTE FRANCA, BS","prices":[{"type":"petrol","price":1.839,"self":true,"updatedAt":"21/06/2026 00:53:29"},{"type":"diesel","price":1.939,"self":true,"updatedAt":"21/06/2026 00:53:29"}]},{"id":"21203","lat":45.63417039385652,"lon":10.009640604257584,"name":"ICP Ferrari Marco","brand":"Shell","address":"Via Roma 22 25040, CORTE FRANCA, BS","prices":[{"type":"petrol","price":1.839,"self":true,"updatedAt":"17/06/2026 15:37:44"},{"type":"diesel","price":1.949,"self":true,"updatedAt":"17/06/2026 15:37:44"},{"type":"lpg","price":0.769,"self":false,"updatedAt":"17/06/2026 15:37:44"}]},{"id":"24130","lat":45.5801110715497,"lon":10.002797110589654,"name":"ERBUSCO-VIA ROVATO","brand":"Q8","address":"VIA ROVATO 43 25030, ERBUSCO, BS","prices":[{"type":"petrol","price":1.789,"self":true,"updatedAt":"19/06/2026 13:07:46"},{"type":"diesel","price":1.889,"self":true,"updatedAt":"19/06/2026 13:07:46"}]},{"id":"54441","lat":45.581681491348625,"lon":10.004182472645727,"name":"VEGA ERBUSCO","brand":"Vega","address":"Via Iseo 34 25030, ERBUSCO, BS","prices":[{"type":"petrol","price":1.789,"self":true,"updatedAt":"19/06/2026 10:40:46"},{"type":"diesel","price":1.889,"self":true,"updatedAt":"19/06/2026 10:40:46"}]},{"id":"63263","lat":45.687284,"lon":10.1858283,"name":"DISTRIBUTORE ENI DI MUSCIO ROBERTO","brand":"Agip Eni","address":"Via Matteotti 272  25063, GARDONE VAL TROMPIA, BS","prices":[{"type":"petrol","price":1.829,"self":true,"updatedAt":"20/06/2026 17:56:08"},{"type":"diesel","price":1.939,"self":true,"updatedAt":"20/06/2026 17:56:08"}]},{"id":"57499","lat":45.687284,"lon":10.1858283,"name":"DISTRIBUTORE ENI DI MUSCIO ROBERTO","brand":"Agip Eni","address":"Via Matteotti 272  25063, GARDONE VAL TROMPIA, BS","prices":[{"type":"petrol","price":1.839,"self":true,"updatedAt":"20/06/2026 18:34:05"},{"type":"diesel","price":1.939,"self":true,"updatedAt":"20/06/2026 18:34:05"}]},{"id":"59264","lat":45.55036,"lon":10.13752,"name":"ERREBI - GUSSAGO","brand":"Retitalia","address":"ENRICO FERMI 1 25064, GUSSAGO, BS","prices":[{"type":"petrol","price":1.799,"self":true,"updatedAt":"19/06/2026 12:25:49"},{"type":"diesel","price":1.899,"self":true,"updatedAt":"19/06/2026 12:25:49"},{"type":"lpg","price":0.759,"self":false,"updatedAt":"19/06/2026 12:25:49"}]},{"id":"57900","lat":45.5896217,"lon":10.1559816,"name":"Esso gussago","brand":"Esso","address":"IV NOVEMBRE 56 25064, GUSSAGO, BS","prices":[{"type":"petrol","price":1.839,"self":true,"updatedAt":"20/06/2026 09:48:26"},{"type":"diesel","price":1.959,"self":true,"updatedAt":"20/06/2026 09:48:26"}]},{"id":"57899","lat":45.5896217,"lon":10.1559816,"name":"Esso gussago","brand":"Esso","address":"IV NOVEMBRE 56 25064, GUSSAGO, BS","prices":[{"type":"petrol","price":1.839,"self":true,"updatedAt":"20/06/2026 09:47:37"},{"type":"diesel","price":1.959,"self":true,"updatedAt":"20/06/2026 09:47:37"}]},{"id":"53498","lat":45.5557206,"lon":10.1413737,"name":"IP GUSSAGO","brand":"Api-Ip","address":"Via Enrico Fermi 57  25064, GUSSAGO, BS","prices":[{"type":"petrol","price":1.879,"self":true,"updatedAt":"19/06/2026 14:39:42"},{"type":"diesel","price":1.979,"self":true,"updatedAt":"19/06/2026 14:39:42"},{"type":"lpg","price":0.759,"self":false,"updatedAt":"19/06/2026 14:39:42"}]},{"id":"14829","lat":45.57249752442318,"lon":10.134335137547623,"name":"Non Solo Service","brand":"Agip Eni","address":"Via Sale 96 25064, GUSSAGO, BS","prices":[{"type":"petrol","price":1.828,"self":true,"updatedAt":"21/06/2026 00:33:49"},{"type":"diesel","price":1.944,"self":true,"updatedAt":"21/06/2026 00:33:49"}]},{"id":"59280","lat":45.588814503561096,"lon":10.156027360910045,"name":"RETIITALIA - GUSSAGO","brand":"Retitalia","address":"IV NOVEMBRE 66 25064, GUSSAGO, BS","prices":[{"type":"petrol","price":1.839,"self":true,"updatedAt":"19/06/2026 11:59:49"},{"type":"diesel","price":1.959,"self":true,"updatedAt":"19/06/2026 11:59:49"}]},{"id":"58037","lat":45.653416,"lon":10.050081,"name":"1696 ISEO","brand":"Agip Eni","address":"VIA ROMA  4, ISEO, BS","prices":[{"type":"petrol","price":1.829,"self":true,"updatedAt":"21/06/2026 01:08:52"},{"type":"diesel","price":1.919,"self":true,"updatedAt":"21/06/2026 01:08:52"}]},{"id":"56351","lat":45.67653948171825,"lon":10.082595468922433,"name":"IP ISEO","brand":"Api-Ip","address":"strada statale 510 km 24 + 640, ISEO, BS","prices":[{"type":"petrol","price":1.849,"self":true,"updatedAt":"19/06/2026 16:58:27"},{"type":"diesel","price":1.919,"self":true,"updatedAt":"19/06/2026 16:58:27"}]},{"id":"8437","lat":45.65389796398294,"lon":10.04964278747616,"name":"ISEO VIA ROMA 5 DISTR. Q8","brand":"Q8","address":"VIA ROMA 5 25049, ISEO, BS","prices":[{"type":"petrol","price":1.799,"self":true,"updatedAt":"20/06/2026 01:39:12"},{"type":"diesel","price":1.889,"self":true,"updatedAt":"20/06/2026 01:39:12"}]},{"id":"56248","lat":45.6436451,"lon":10.0348188,"name":"lb service di leporati marco & c sas","brand":"Esso","address":"CIOCHET 14 25049, ISEO, BS","prices":[{"type":"petrol","price":1.809,"self":true,"updatedAt":"20/06/2026 08:16:09"},{"type":"diesel","price":1.919,"self":true,"updatedAt":"20/06/2026 08:16:09"}]},{"id":"9217","lat":45.655117169478686,"lon":10.244172836175949,"name":"CAPRA MAURIZIO","brand":"Api-Ip","address":"VIA A.DE GASPERI 47 25065, LUMEZZANE, BS","prices":[{"type":"petrol","price":1.829,"self":true,"updatedAt":"20/06/2026 08:15:17"},{"type":"diesel","price":1.919,"self":true,"updatedAt":"20/06/2026 08:15:17"}]},{"id":"36944","lat":45.65399733925207,"lon":10.248359316949518,"name":"Sia Fuel Lumezzane","brand":"Sia fuel","address":"Via De Gasperi  118 25065, LUMEZZANE, BS","prices":[{"type":"petrol","price":1.879,"self":true,"updatedAt":"19/06/2026 15:56:30"},{"type":"diesel","price":1.989,"self":true,"updatedAt":"19/06/2026 15:56:30"}]},{"id":"52278","lat":45.651234846314765,"lon":10.23897776062629,"name":"TAMOIL GHULAM LUMEZZANE","brand":"Tamoil","address":"VIA BRESCIA 36 25065, LUMEZZANE, BS","prices":[{"type":"petrol","price":1.849,"self":true,"updatedAt":"16/06/2026 18:57:07"},{"type":"diesel","price":1.959,"self":true,"updatedAt":"18/06/2026 18:09:05"},{"type":"methane","price":0.01,"self":false,"updatedAt":"20/03/2023 14:41:47"},{"type":"lpg","price":0.01,"self":false,"updatedAt":"20/03/2023 14:41:47"}]},{"id":"49861","lat":45.705101185210665,"lon":10.212519887999484,"name":"B.M.DI BERTUSSI MAURO E C SNC","brand":"Api-Ip","address":"345 delle Tre Valli, Km. 17, sud 82 25060, MARCHENO, BS","prices":[{"type":"petrol","price":1.809,"self":true,"updatedAt":"21/06/2026 01:03:42"},{"type":"diesel","price":1.899,"self":true,"updatedAt":"21/06/2026 01:03:42"}]},{"id":"57024","lat":45.722579764044426,"lon":10.22975749206546,"name":"stazione di servizio agip valgonio marino","brand":"Agip Eni","address":"PROVINCIALE 12 25060, MARCHENO, BS","prices":[{"type":"petrol","price":1.855,"self":true,"updatedAt":"20/06/2026 23:27:15"},{"type":"diesel","price":1.964,"self":true,"updatedAt":"20/06/2026 23:27:15"}]},{"id":"37416","lat":45.70391055419793,"lon":10.095050185918808,"name":"Monte Isola Carburanti","brand":"Pompe Bianche","address":"via carzano   25050, MONTE ISOLA, BS","prices":[{"type":"petrol","price":2.25,"self":false,"updatedAt":"14/06/2026 17:03:16"},{"type":"diesel","price":2.3,"self":false,"updatedAt":"14/06/2026 17:03:16"}]},{"id":"59266","lat":45.62441918901803,"lon":10.082382740475454,"name":"MONTICELLI","brand":"Retitalia","address":"EUROPA 28 25040, MONTICELLI BRUSATI, BS","prices":[{"type":"petrol","price":1.829,"self":true,"updatedAt":"19/06/2026 12:02:36"},{"type":"diesel","price":1.929,"self":true,"updatedAt":"19/06/2026 12:02:36"},{"type":"lpg","price":0.729,"self":false,"updatedAt":"19/06/2026 12:02:36"}]},{"id":"53302","lat":45.5583441,"lon":10.1875092,"name":"ESSO - ODOLO","brand":"Esso","address":"BRESCIA 90 25076, ODOLO, BS","prices":[{"type":"petrol","price":1.899,"self":true,"updatedAt":"16/06/2026 08:27:00"},{"type":"diesel","price":1.999,"self":true,"updatedAt":"16/06/2026 08:27:00"}]},{"id":"61756","lat":45.621456,"lon":10.121556,"name":"SMP OME","brand":"San Marco Petroli","address":"Via Provinciale 13  25050, OME, BS","prices":[{"type":"petrol","price":1.829,"self":true,"updatedAt":"20/06/2026 23:45:54"},{"type":"diesel","price":1.925,"self":true,"updatedAt":"20/06/2026 23:45:53"}]},{"id":"17099","lat":45.555222137890205,"lon":10.080133751034737,"name":"bignotti luciano","brand":"Pompe Bianche","address":"VIA PADANA SUPERIORE  31 25035, OSPITALETTO, BS","prices":[{"type":"petrol","price":1.879,"self":true,"updatedAt":"19/06/2026 11:24:31"},{"type":"diesel","price":1.989,"self":true,"updatedAt":"19/06/2026 11:24:31"}]},{"id":"54068","lat":45.5518795,"lon":10.0624632,"name":"OSPITALETTO CIRCONVALLAZIONE COMUNALE","brand":"Q8","address":"CIRCONVALLAZIONE COMUNALE  25035, OSPITALETTO, BS","prices":[{"type":"petrol","price":1.819,"self":true,"updatedAt":"19/06/2026 07:12:07"},{"type":"diesel","price":1.919,"self":true,"updatedAt":"19/06/2026 07:12:07"}]},{"id":"11539","lat":45.55230893789719,"lon":10.090091953372962,"name":"OSPITALETTO-VIA NUOVA CIRCONVALLAZIONE","brand":"Q8","address":"VIA NUOVA CIRCONVALLAZIONE S/N 25035, OSPITALETTO, BS","prices":[{"type":"petrol","price":1.799,"self":true,"updatedAt":"19/06/2026 01:40:08"},{"type":"diesel","price":1.899,"self":true,"updatedAt":"19/06/2026 01:40:08"}]},{"id":"48169","lat":45.553381025617696,"lon":10.09650943435861,"name":"Perletti Giovanni Battista","brand":"Agip Eni","address":"11 Padana Superiore, Km. 224,521, est - 25035, OSPITALETTO, BS","prices":[{"type":"petrol","price":1.829,"self":true,"updatedAt":"20/06/2026 12:16:14"},{"type":"diesel","price":1.919,"self":true,"updatedAt":"20/06/2026 12:16:14"}]},{"id":"28171","lat":45.5806090473448,"lon":10.077123641967773,"name":"6282","brand":"Tamoil","address":"S.P. 19 KM 11+060 - 25050, PADERNO FRANCIACORTA, BS","prices":[{"type":"petrol","price":1.809,"self":true,"updatedAt":"21/06/2026 00:26:37"},{"type":"diesel","price":1.939,"self":true,"updatedAt":"21/06/2026 00:26:37"}]},{"id":"9252","lat":45.575378293362384,"lon":10.071242898702621,"name":"agip 11739","brand":"Agip Eni","address":"s.p. 19 passirano brescia  25050, PASSIRANO, BS","prices":[{"type":"petrol","price":1.88,"self":true,"updatedAt":"21/06/2026 00:36:32"},{"type":"diesel","price":1.989,"self":true,"updatedAt":"21/06/2026 00:36:32"},{"type":"methane","price":1.629,"self":false,"updatedAt":"20/06/2026 23:28:27"},{"type":"lpg","price":0.749,"self":false,"updatedAt":"20/06/2026 23:28:27"}]},{"id":"27814","lat":45.59789173838502,"lon":10.069176256656647,"name":"IMPIANTO Q8","brand":"Q8","address":"VIA GARIBALDI 56 25050, PASSIRANO, BS","prices":[{"type":"petrol","price":1.819,"self":true,"updatedAt":"20/06/2026 08:23:17"},{"type":"diesel","price":1.929,"self":true,"updatedAt":"20/06/2026 08:23:17"}]},{"id":"26946","lat":45.56805156499202,"lon":10.068902671337128,"name":"MINGARDI TOTAL ERG","brand":"Pompe Bianche","address":"via vallosa 34 25050, PASSIRANO, BS","prices":[{"type":"petrol","price":1.759,"self":true,"updatedAt":"17/06/2026 18:43:19"},{"type":"diesel","price":2.029,"self":true,"updatedAt":"17/06/2026 18:43:19"}]},{"id":"7243","lat":45.60265913965405,"lon":10.0859534740448,"name":"SERVIZIO TAMOIL BIEMME","brand":"Tamoil","address":"Statale 510 Sebina Orientale, Km. 7+946, dir. BRESCIA - 25050, PASSIRANO, BS","prices":[{"type":"petrol","price":1.819,"self":true,"updatedAt":"20/06/2026 23:53:55"},{"type":"diesel","price":1.949,"self":true,"updatedAt":"20/06/2026 23:53:55"}]},{"id":"55601","lat":45.630195760835086,"lon":10.044874569125287,"name":"109056 PROVAGLIO","brand":"Esso","address":"EDISON 32 25050, PROVAGLIO D'ISEO, BS","prices":[{"type":"petrol","price":1.809,"self":true,"updatedAt":"19/06/2026 09:11:31"},{"type":"diesel","price":1.939,"self":true,"updatedAt":"19/06/2026 09:11:31"}]},{"id":"59263","lat":45.62056761672224,"lon":10.076183527708054,"name":"ERREBI - PROVAGLIO","brand":"Retitalia","address":"STRADA PROVINCIALE 510 SNC 25050, PROVAGLIO D'ISEO, BS","prices":[{"type":"petrol","price":1.829,"self":true,"updatedAt":"19/06/2026 14:36:50"},{"type":"diesel","price":1.929,"self":true,"updatedAt":"19/06/2026 14:36:50"},{"type":"lpg","price":0.729,"self":false,"updatedAt":"19/06/2026 14:36:50"}]},{"id":"24037","lat":45.58235114708773,"lon":10.110132247209549,"name":"Agip","brand":"Agip Eni","address":"Statale 510 Sebina Orientale, Km. 5 + 075, dir. Brescia  25050, RODENGO SAIANO, BS","prices":[{"type":"petrol","price":1.86,"self":true,"updatedAt":"21/06/2026 00:40:13"},{"type":"diesel","price":1.959,"self":true,"updatedAt":"21/06/2026 00:40:12"},{"type":"lpg","price":0.759,"self":false,"updatedAt":"20/06/2026 23:30:48"}]},{"id":"6008","lat":45.60278524398939,"lon":10.08669376373291,"name":"AGIP","brand":"Agip Eni","address":"Statale 510 Sebina Orientale, Km. 7+960, dir. iseo - 25050, RODENGO SAIANO, BS","prices":[{"type":"petrol","price":1.859,"self":true,"updatedAt":"21/06/2026 00:39:00"},{"type":"diesel","price":1.949,"self":true,"updatedAt":"21/06/2026 00:39:00"},{"type":"methane","price":1.599,"self":false,"updatedAt":"20/06/2026 23:29:54"},{"type":"lpg","price":0.739,"self":false,"updatedAt":"20/06/2026 23:29:54"}]},{"id":"10336","lat":45.591953877012536,"lon":10.10723277926445,"name":"emo snc di franceschini m.e c. snc","brand":"Esso","address":"strada provinciale 19  25050, RODENGO SAIANO, BS","prices":[{"type":"petrol","price":1.884,"self":true,"updatedAt":"19/06/2026 11:03:44"},{"type":"diesel","price":1.989,"self":true,"updatedAt":"19/06/2026 11:03:44"},{"type":"lpg","price":0.739,"self":false,"updatedAt":"19/06/2026 11:03:44"}]},{"id":"62326","lat":45.59237029209687,"lon":10.106843627392562,"name":"RETITALIA  Giancarlo Tancredi","brand":"Retitalia","address":"SP19 km 8  25050, RODENGO SAIANO, BS","prices":[{"type":"petrol","price":1.849,"self":true,"updatedAt":"19/06/2026 11:31:49"},{"type":"diesel","price":1.939,"self":true,"updatedAt":"19/06/2026 11:31:49"},{"type":"lpg","price":0.749,"self":false,"updatedAt":"19/06/2026 11:31:49"}]},{"id":"50292","lat":45.579106358984845,"lon":10.118279196383078,"name":"Rodengo Saiano","brand":"Auchan","address":"VIA DEL BORGO VIA INDUSTRIALE SNC 25050, RODENGO SAIANO, BS","prices":[{"type":"petrol","price":1.829,"self":true,"updatedAt":"20/06/2026 20:15:49"},{"type":"diesel","price":1.944,"self":true,"updatedAt":"20/06/2026 20:15:49"},{"type":"methane","price":1.639,"self":true,"updatedAt":"30/03/2026 16:23:03"}]},{"id":"50290","lat":45.53383276403651,"lon":10.148647302190271,"name":"Roncadelle","brand":"Auchan","address":"VIA CASCINA FIORITA SNC 25030, RONCADELLE, BS","prices":[{"type":"petrol","price":1.779,"self":true,"updatedAt":"20/06/2026 20:15:45"},{"type":"diesel","price":1.879,"self":true,"updatedAt":"20/06/2026 20:15:45"}]},{"id":"25072","lat":45.52497369189068,"lon":10.155743673610687,"name":"RONCADELLE - V. MARTIRI LIBERTA'","brand":"Api-Ip","address":"VIA MARTIRI LIBERTA'  25030, RONCADELLE, BS","prices":[{"type":"petrol","price":1.789,"self":true,"updatedAt":"20/06/2026 09:04:03"},{"type":"diesel","price":1.899,"self":true,"updatedAt":"20/06/2026 09:04:03"}]},{"id":"47997","lat":45.537858847438685,"lon":10.152566602634732,"name":"Roncadelle nord","brand":"Esso","address":"11 Padana Superiore, Km. 2, nord - 25030, RONCADELLE, BS","prices":[{"type":"petrol","price":1.799,"self":true,"updatedAt":"20/06/2026 06:52:04"},{"type":"diesel","price":1.919,"self":true,"updatedAt":"20/06/2026 06:52:04"}]},{"id":"47998","lat":45.53713153813316,"lon":10.151906321211074,"name":"Roncadelle Sud","brand":"Esso","address":"11 Padana Superiore, Km. 2+450, sud - 25030, RONCADELLE, BS","prices":[{"type":"petrol","price":1.819,"self":true,"updatedAt":"19/06/2026 09:10:18"},{"type":"diesel","price":1.939,"self":true,"updatedAt":"19/06/2026 09:10:18"},{"type":"methane","price":1.749,"self":false,"updatedAt":"19/06/2026 09:10:18"}]},{"id":"58075","lat":45.5328,"lon":10.1501,"name":"VALTROMPIA NORD","brand":"Api-Ip","address":"Autostrada A4 MILANO-BRESCIA,  Km. 213, dir. ovest 25030, RONCADELLE, BS","prices":[{"type":"petrol","price":1.929,"self":true,"updatedAt":"19/06/2026 20:45:45"},{"type":"diesel","price":2.029,"self":true,"updatedAt":"19/06/2026 20:45:45"},{"type":"methane","price":1.529,"self":false,"updatedAt":"19/06/2026 20:45:45"},{"type":"lpg","price":0.908,"self":false,"updatedAt":"19/06/2026 20:45:45"}]},{"id":"31429","lat":45.532129602677465,"lon":10.149385035037994,"name":"VALTROMPIA SUD","brand":"Api-Ip","address":"Autostrada A4 MILANO-BRESCIA, Km. 214, dir. venezia - 25030, RONCADELLE, BS","prices":[{"type":"petrol","price":1.979,"self":true,"updatedAt":"20/06/2026 09:57:07"},{"type":"diesel","price":2.079,"self":true,"updatedAt":"20/06/2026 09:57:07"},{"type":"methane","price":1.599,"self":false,"updatedAt":"20/06/2026 09:57:07"},{"type":"lpg","price":0.899,"self":false,"updatedAt":"20/06/2026 09:57:07"}]},{"id":"50061","lat":45.55967327810166,"lon":10.016621923942575,"name":"ENERGO! - PIT STOP","brand":"Pompe Bianche","address":"XXV APRILE SNC - 25038, ROVATO, BS","prices":[{"type":"petrol","price":1.789,"self":true,"updatedAt":"20/06/2026 16:42:04"},{"type":"diesel","price":1.929,"self":true,"updatedAt":"20/06/2026 16:42:04"}]},{"id":"54757","lat":45.5614939,"lon":10.0004391,"name":"FAZLIA di Hoxhaj Besart","brand":"Pompe Bianche","address":"XXV APRILE 62 25038, ROVATO, BS","prices":[{"type":"petrol","price":1.839,"self":true,"updatedAt":"20/06/2026 07:02:27"},{"type":"diesel","price":1.959,"self":true,"updatedAt":"20/06/2026 07:02:27"}]},{"id":"44423","lat":45.55522940748735,"lon":10.012082945007364,"name":"IP ROVATO LATO EST","brand":"Api-Ip","address":"Strada Statale, Km. 16, Est - 25038, ROVATO, BS","prices":[{"type":"petrol","price":1.826,"self":true,"updatedAt":"19/06/2026 10:32:10"},{"type":"diesel","price":1.936,"self":true,"updatedAt":"19/06/2026 10:32:10"},{"type":"methane","price":1.517,"self":false,"updatedAt":"19/06/2026 10:32:10"}]},{"id":"59879","lat":45.571803905152876,"lon":10.001246997283916,"name":"IP ROVATO VIA FRANCIACORTA 26","brand":"Api-Ip","address":"Via Franciacorta 26  25038, ROVATO, BS","prices":[{"type":"petrol","price":1.839,"self":true,"updatedAt":"19/06/2026 10:31:12"},{"type":"diesel","price":1.939,"self":true,"updatedAt":"19/06/2026 10:31:12"}]},{"id":"59199","lat":45.5353183,"lon":10.0097657,"name":"Retitalia","brand":"Retitalia","address":"S.P. 16 KM 3 +564 LATO DES SNC 25038, ROVATO, BS","prices":[{"type":"petrol","price":1.819,"self":true,"updatedAt":"20/06/2026 08:30:46"},{"type":"diesel","price":1.929,"self":true,"updatedAt":"20/06/2026 08:30:46"},{"type":"lpg","price":0.729,"self":false,"updatedAt":"20/06/2026 08:30:47"}]},{"id":"52514","lat":45.55972345565768,"lon":10.016630866339542,"name":"SHELL","brand":"Shell","address":"XXV APRILE 13 25038, ROVATO, BS","prices":[{"type":"petrol","price":1.819,"self":true,"updatedAt":"20/06/2026 11:33:51"},{"type":"diesel","price":1.959,"self":true,"updatedAt":"20/06/2026 11:33:51"},{"type":"lpg","price":0.719,"self":false,"updatedAt":"20/06/2026 11:33:51"}]},{"id":"16380","lat":45.70772081610272,"lon":10.109744668006897,"name":"Picchi snc","brand":"Esso","address":"Via Provinciale, 25  25057, SALE MARASINO, BS","prices":[{"type":"petrol","price":1.809,"self":true,"updatedAt":"20/06/2026 08:18:58"},{"type":"diesel","price":1.919,"self":true,"updatedAt":"20/06/2026 08:18:58"}]},{"id":"61989","lat":45.6661555,"lon":10.1941661,"name":"1927","brand":"Q8","address":"Via Dante Alighieri 114 25068, SAREZZO, BS","prices":[{"type":"petrol","price":1.849,"self":true,"updatedAt":"20/06/2026 07:40:19"},{"type":"diesel","price":1.949,"self":true,"updatedAt":"20/06/2026 07:40:19"}]},{"id":"60135","lat":45.66908,"lon":10.159,"name":"BUSSINELLO SRL SAREZZO","brand":"Retitalia","address":"Via Seradello 414  25068, SAREZZO, BS","prices":[{"type":"petrol","price":1.849,"self":true,"updatedAt":"20/06/2026 11:10:07"},{"type":"diesel","price":1.959,"self":true,"updatedAt":"20/06/2026 11:10:07"}]},{"id":"60052","lat":45.649405,"lon":10.2037559,"name":"PIT STOP","brand":"Pit stop","address":"ANGELO ANTONINI 41 25068, SAREZZO, BS","prices":[{"type":"petrol","price":1.879,"self":true,"updatedAt":"18/06/2026 19:37:39"},{"type":"diesel","price":1.979,"self":true,"updatedAt":"18/06/2026 19:37:39"}]},{"id":"10723","lat":45.671901322876906,"lon":10.186712860679108,"name":"STAZIONE DI SERVIZIO DI PELI F. E CONTIN F. SNC","brand":"Api-Ip","address":"Statale 345 delle Tre Valli, Km. 16, dir. SUD  25068, SAREZZO, BS","prices":[{"type":"petrol","price":1.909,"self":true,"updatedAt":"19/06/2026 18:37:55"},{"type":"diesel","price":2.039,"self":true,"updatedAt":"19/06/2026 18:37:55"}]},{"id":"53628","lat":45.657023766597945,"lon":10.19860839391788,"name":"STAZIONE DI SERVIZIO ENI DI SALERA GIANCARLO","brand":"Agip Eni","address":"REPUBBLICA 199 25068, SAREZZO, BS","prices":[{"type":"petrol","price":1.855,"self":true,"updatedAt":"21/06/2026 00:39:53"},{"type":"diesel","price":1.964,"self":true,"updatedAt":"21/06/2026 00:39:53"}]},{"id":"7085","lat":45.67380100330238,"lon":10.186078732962415,"name":"tamoil guerini e pedretti","brand":"Tamoil","address":"345 delle Tre Valli, Km. 7, brescia - 25068, SAREZZO, BS","prices":[{"type":"petrol","price":1.859,"self":true,"updatedAt":"21/06/2026 00:39:55"},{"type":"diesel","price":1.969,"self":true,"updatedAt":"21/06/2026 00:39:55"}]},{"id":"12614","lat":45.739087844048456,"lon":10.23708560600312,"name":"FROLA ROBERTA & C. SNC","brand":"Agip Eni","address":"VIA STATALE 21 25060, TAVERNOLE SUL MELLA, BS","prices":[{"type":"petrol","price":1.849,"self":true,"updatedAt":"21/06/2026 00:35:41"},{"type":"diesel","price":1.969,"self":true,"updatedAt":"21/06/2026 00:35:41"},{"type":"lpg","price":0.755,"self":false,"updatedAt":"20/06/2026 23:27:04"}]},{"id":"61680","lat":45.51461994781258,"lon":10.121779886340361,"name":"40962","brand":"Api-Ip","address":"MARTIRI DELLA LIBERTA' 10/D 25030, TORBOLE CASAGLIA, BS","prices":[{"type":"petrol","price":1.809,"self":true,"updatedAt":"19/06/2026 00:50:53"},{"type":"diesel","price":1.919,"self":true,"updatedAt":"19/06/2026 00:50:53"}]},{"id":"35681","lat":45.5167707820845,"lon":10.13001948595047,"name":"Stazione di Servizio ENI","brand":"Agip Eni","address":"VIA MARTIRI DELLA LIBERTA' 14/E 25030, TORBOLE CASAGLIA, BS","prices":[{"type":"petrol","price":1.839,"self":true,"updatedAt":"20/06/2026 07:02:21"},{"type":"diesel","price":1.949,"self":true,"updatedAt":"20/06/2026 07:02:21"},{"type":"lpg","price":0.739,"self":false,"updatedAt":"20/06/2026 23:27:35"}]},{"id":"61637","lat":45.5223575,"lon":10.0879822,"name":"area di servizio IP","brand":"Itala Petroli","address":"Via Brescia 30  25039, TRAVAGLIATO, BS","prices":[{"type":"petrol","price":1.829,"self":true,"updatedAt":"18/06/2026 11:06:16"},{"type":"diesel","price":1.929,"self":true,"updatedAt":"18/06/2026 11:06:16"}]},{"id":"24755","lat":45.51719798235722,"lon":10.07020499073792,"name":"GHI MAR","brand":"Pompe Bianche","address":"VIA ORZINUOVI 10 25039, TRAVAGLIATO, BS","prices":[{"type":"petrol","price":1.799,"self":true,"updatedAt":"20/06/2026 10:29:59"},{"type":"diesel","price":1.899,"self":true,"updatedAt":"20/06/2026 10:29:59"}]},{"id":"6113","lat":45.53300249528117,"lon":10.106172281228623,"name":"Q8","brand":"Q8","address":"VIA SANTA GIULIA 24 25039, TRAVAGLIATO (BS) 24 25039, TRAVAGLIATO, BS","prices":[{"type":"petrol","price":1.889,"self":true,"updatedAt":"20/06/2026 07:39:00"},{"type":"diesel","price":1.999,"self":true,"updatedAt":"20/06/2026 07:39:00"},{"type":"lpg","price":0.799,"self":false,"updatedAt":"20/06/2026 07:39:01"}]},{"id":"61988","lat":45.62751,"lon":10.19982,"name":"1769","brand":"Q8","address":"GLISENTI 72 25069, VILLA CARCINA, BS","prices":[{"type":"petrol","price":1.849,"self":true,"updatedAt":"20/06/2026 20:16:50"},{"type":"diesel","price":1.949,"self":true,"updatedAt":"20/06/2026 20:16:50"},{"type":"methane","price":1.599,"self":false,"updatedAt":"15/06/2026 10:30:16"},{"type":"lpg","price":0.839,"self":false,"updatedAt":"20/06/2026 20:16:50"}]},{"id":"60240","lat":45.6233234,"lon":10.2017234,"name":"ENI - YELLOW PETROL SNC","brand":"Agip Eni","address":"Via Giuseppe Garibaldi 43 25069, VILLA CARCINA, BS","prices":[{"type":"petrol","price":1.845,"self":true,"updatedAt":"20/06/2026 23:29:46"},{"type":"diesel","price":1.944,"self":true,"updatedAt":"20/06/2026 23:29:46"}]},{"id":"55475","lat":45.639076168392435,"lon":10.193526171622773,"name":"ESSO","brand":"Esso","address":"VIA VIA BERNOCCHI 5 25069, VILLA CARCINA (BS) 5, VILLA CARCINA, BS","prices":[{"type":"petrol","price":1.869,"self":true,"updatedAt":"18/06/2026 13:07:07"},{"type":"diesel","price":1.979,"self":true,"updatedAt":"18/06/2026 13:07:07"}]}]