[{"id":"58077","lat":45.88473572790558,"lon":12.709497213363647,"name":"9606 ESSO AZZANO DECIMO","brand":"Esso","address":"Via Pezzut 15  33082, AZZANO DECIMO, PN","prices":[{"type":"petrol","price":1.819,"self":true,"updatedAt":"21/06/2026 11:56:03"},{"type":"diesel","price":1.909,"self":true,"updatedAt":"21/06/2026 11:56:03"}]},{"id":"43940","lat":45.891040000123,"lon":12.695988000123,"name":"CONAD SUPERSTORE AZZANO X","brand":"CONAD","address":"VIA ILARIA ALPI 5 33082, AZZANO DECIMO, PN","prices":[{"type":"petrol","price":1.778,"self":true,"updatedAt":"22/06/2026 07:08:28"},{"type":"diesel","price":1.878,"self":true,"updatedAt":"22/06/2026 07:08:28"}]},{"id":"4560","lat":45.88026317918445,"lon":12.720024865081768,"name":"Donadel Carburanti & C. S.N.C.","brand":"Agip Eni","address":"Statale 251 della Val di Zoldo e Val Cellina, Km. 15, dir. pordenone - 33082, AZZANO DECIMO, PN","prices":[{"type":"petrol","price":1.884,"self":true,"updatedAt":"18/06/2026 08:08:30"},{"type":"diesel","price":1.974,"self":true,"updatedAt":"18/06/2026 08:08:30"}]},{"id":"55960","lat":45.9046912,"lon":12.6124032,"name":"IP","brand":"Api-Ip","address":"FIUMICINO 14 33082, AZZANO DECIMO, PN","prices":[{"type":"petrol","price":1.799,"self":true,"updatedAt":"19/06/2026 15:38:38"},{"type":"diesel","price":1.899,"self":true,"updatedAt":"19/06/2026 15:38:38"}]},{"id":"62996","lat":45.8667451,"lon":12.7319239,"name":"TAMOIL","brand":"Trivengas","address":"Via Valler 21 33082, AZZANO DECIMO, PN","prices":[{"type":"lpg","price":0.759,"self":false,"updatedAt":"17/06/2026 08:09:31"}]},{"id":"62804","lat":45.8667451,"lon":12.7319239,"name":"TAMOIL","brand":"Tamoil","address":"Via Valler 21 33082, AZZANO DECIMO, PN","prices":[{"type":"petrol","price":1.799,"self":false,"updatedAt":"22/06/2026 07:18:14"},{"type":"diesel","price":1.899,"self":false,"updatedAt":"22/06/2026 07:18:14"}]},{"id":"57720","lat":45.94074459847483,"lon":12.56111103594971,"name":"BRUGNERA SUD","brand":"Kerotris","address":"Autostrada A28 PORTOGRUARO-CONEGLIANO,  Km. 29,4, dir. Conegliano-Portogruaro 33070, BRUGNERA, PN","prices":[{"type":"petrol","price":2.289,"self":true,"updatedAt":"21/06/2026 15:29:18"},{"type":"diesel","price":2.272,"self":true,"updatedAt":"21/06/2026 15:29:18"}]},{"id":"22355","lat":45.894151269179346,"lon":12.556470809262123,"name":"BRUGNERA VIA I.SANTAROSSA 2-LOC.MARON","brand":"Q8","address":"VIA I.SANTAROSSA - LOC.MARON 2 33070, BRUGNERA, PN","prices":[{"type":"petrol","price":1.859,"self":true,"updatedAt":"17/06/2026 01:38:44"},{"type":"diesel","price":1.929,"self":true,"updatedAt":"17/06/2026 01:38:44"}]},{"id":"21064","lat":45.90921767722439,"lon":12.54326730966568,"name":"eni","brand":"Agip Eni","address":"via ungaresca, HOXHA BLEDAR 30 33070, BRUGNERA, PN","prices":[{"type":"petrol","price":1.819,"self":true,"updatedAt":"22/06/2026 07:16:23"},{"type":"diesel","price":1.949,"self":true,"updatedAt":"22/06/2026 07:16:23"}]},{"id":"52224","lat":45.888039463161945,"lon":12.553084635581966,"name":"Loro","brand":"Loro","address":"Via Livenza  33070, BRUGNERA, PN","prices":[{"type":"petrol","price":1.859,"self":false,"updatedAt":"20/06/2026 09:24:59"},{"type":"diesel","price":1.949,"self":false,"updatedAt":"20/06/2026 09:24:59"},{"type":"lpg","price":0.779,"self":false,"updatedAt":"20/06/2026 09:25:00"}]},{"id":"61741","lat":45.926403356453505,"lon":12.552403964339419,"name":"SMP BRUGNERA","brand":"San Marco Petroli","address":"Via Casut 28a  33070, BRUGNERA, PN","prices":[{"type":"petrol","price":1.845,"self":true,"updatedAt":"21/06/2026 23:31:08"},{"type":"diesel","price":1.925,"self":true,"updatedAt":"21/06/2026 23:31:08"},{"type":"lpg","price":0.779,"self":false,"updatedAt":"21/06/2026 23:31:08"}]},{"id":"59946","lat":45.8391397,"lon":12.7232463,"name":"ESSO CHIONS","brand":"Esso","address":"Via G. Marconi 41  33083, CHIONS, PN","prices":[{"type":"petrol","price":1.849,"self":true,"updatedAt":"22/06/2026 07:49:01"},{"type":"diesel","price":1.949,"self":true,"updatedAt":"22/06/2026 07:49:01"}]},{"id":"4344","lat":45.98671862897875,"lon":12.687945476196319,"name":"AGIP 4320","brand":"Agip Eni","address":"VIA VIA MAESTRA 170 33084, CORDENONS (PN) 170 33084, CORDENONS, PN","prices":[{"type":"petrol","price":1.83,"self":true,"updatedAt":"21/06/2026 00:58:45"},{"type":"diesel","price":1.919,"self":true,"updatedAt":"21/06/2026 00:58:45"}]},{"id":"47710","lat":45.97584388129778,"lon":12.688492115489947,"name":"marco favaro ENI","brand":"Agip Eni","address":"via sclavons 136 136 33084, CORDENONS, PN","prices":[{"type":"petrol","price":1.824,"self":true,"updatedAt":"22/06/2026 00:50:49"},{"type":"diesel","price":1.919,"self":true,"updatedAt":"22/06/2026 00:50:49"}]},{"id":"55938","lat":45.9615924,"lon":12.7046395,"name":"SOCOGAS RETE CORDENONS PV 2501","brand":"Q8","address":"VIA ZONA INDUSTRIALE CHIAVORNICCO 40/a 33084, CORDENONS (PN) 40/A 33084, CORDENONS, PN","prices":[{"type":"petrol","price":1.819,"self":true,"updatedAt":"21/06/2026 01:06:29"},{"type":"diesel","price":1.919,"self":true,"updatedAt":"21/06/2026 01:06:29"},{"type":"lpg","price":0.759,"self":false,"updatedAt":"21/06/2026 23:21:20"}]},{"id":"62506","lat":45.978522768600044,"lon":12.69345093102586,"name":"Zilletsas","brand":"Costantin","address":"SCLAVONS 100 33084, CORDENONS, PN","prices":[{"type":"petrol","price":1.799,"self":true,"updatedAt":"20/06/2026 11:59:01"},{"type":"diesel","price":1.899,"self":true,"updatedAt":"20/06/2026 11:59:01"}]},{"id":"26161","lat":45.92977385994317,"lon":12.734707295894623,"name":"AUTOLAVAGGI B.M. di Borean Tiberio & C. s.n.c.","brand":"Pompe Bianche","address":"VIA SAN FRANCESCO  28 33080, FIUME VENETO, PN","prices":[{"type":"petrol","price":1.815,"self":true,"updatedAt":"19/06/2026 07:34:46"},{"type":"diesel","price":1.92,"self":true,"updatedAt":"19/06/2026 07:34:46"}]},{"id":"28424","lat":45.899133859906726,"lon":12.733045829885896,"name":"ESSO 1973 - PRATURLONE DI FIUME VENETO","brand":"Esso","address":"VIA DANTE ALIGHIERI 48 33080, FIUME VENETO, PN","prices":[{"type":"petrol","price":1.839,"self":true,"updatedAt":"17/06/2026 17:16:38"},{"type":"diesel","price":1.939,"self":true,"updatedAt":"17/06/2026 17:16:38"},{"type":"lpg","price":0.799,"self":false,"updatedAt":"17/06/2026 17:16:38"}]},{"id":"58055","lat":45.9259793,"lon":12.7198541,"name":"pv 14315","brand":"Agip Eni","address":"Raccordo Autostradale 16  33080, FIUME VENETO, PN","prices":[{"type":"petrol","price":1.845,"self":true,"updatedAt":"21/06/2026 23:35:04"},{"type":"diesel","price":1.944,"self":true,"updatedAt":"21/06/2026 23:35:03"},{"type":"lpg","price":0.792,"self":false,"updatedAt":"21/06/2026 23:35:04"}]},{"id":"32118","lat":45.92603661403971,"lon":12.708569131282843,"name":"Totalerg","brand":"Api-Ip","address":"A28/SS 13Km. 0+750 lato dx  33080, FIUME VENETO, PN","prices":[{"type":"petrol","price":1.819,"self":true,"updatedAt":"19/06/2026 07:12:31"},{"type":"diesel","price":1.909,"self":true,"updatedAt":"19/06/2026 07:12:31"}]},{"id":"46714","lat":45.986589690638176,"lon":12.58823938213959,"name":"ENI FONTANAFREDDA","brand":"Agip Eni","address":"VIA P. ANTONINI 4 33074, FONTANAFREDDA, PN","prices":[{"type":"petrol","price":1.889,"self":true,"updatedAt":"21/06/2026 23:43:09"},{"type":"diesel","price":1.969,"self":true,"updatedAt":"21/06/2026 23:43:09"}]},{"id":"25395","lat":45.99235380559003,"lon":12.544831037521362,"name":"eredi della gaspera snc","brand":"Pompe Bianche","address":"VIA MARGHERITA GIOL 24, 33074 - -, FONTANAFREDDA, PN","prices":[{"type":"petrol","price":1.879,"self":true,"updatedAt":"20/06/2026 13:19:49"},{"type":"diesel","price":1.979,"self":true,"updatedAt":"20/06/2026 13:19:50"}]},{"id":"13681","lat":45.97784026682477,"lon":12.575052827596664,"name":"FONTANAGOMME","brand":"Agip Eni","address":"VIALE EUROPA UNITA 2 33074, FONTANAFREDDA, PN","prices":[{"type":"petrol","price":1.919,"self":true,"updatedAt":"19/06/2026 07:42:27"},{"type":"diesel","price":1.999,"self":true,"updatedAt":"19/06/2026 07:42:27"}]},{"id":"59601","lat":45.97189,"lon":12.5580812,"name":"GNP  FONTANAFREDDA","brand":"GNP","address":"VENEZIA 50 33074, FONTANAFREDDA, PN","prices":[{"type":"petrol","price":1.797,"self":true,"updatedAt":"21/06/2026 00:52:25"},{"type":"diesel","price":1.897,"self":true,"updatedAt":"21/06/2026 00:52:25"}]},{"id":"49283","lat":45.85013606052767,"lon":12.62763887643814,"name":"D.A.I. di POPULIN","brand":"Pompe Bianche","address":"VIA ROMA 125 33087, PASIANO DI PORDENONE, PN","prices":[{"type":"petrol","price":1.839,"self":false,"updatedAt":"19/06/2026 07:35:11"},{"type":"diesel","price":1.929,"self":false,"updatedAt":"19/06/2026 07:35:11"}]},{"id":"12047","lat":45.86697705326656,"lon":12.624415855017105,"name":"Energyca Pasiano","brand":"Energyca","address":"STRADA DEL MOBILE B 3, 33087, PASIANO DI PORDENONE, PN","prices":[{"type":"petrol","price":1.808,"self":false,"updatedAt":"19/06/2026 09:00:15"},{"type":"diesel","price":1.908,"self":false,"updatedAt":"19/06/2026 09:00:15"}]},{"id":"37731","lat":45.96871698213921,"lon":12.615570276975632,"name":"3500","brand":"Tamoil","address":"LINO ZANUSSI SS 13 62 33080, PORCIA, PN","prices":[{"type":"petrol","price":1.819,"self":true,"updatedAt":"22/06/2026 00:28:48"},{"type":"diesel","price":1.919,"self":true,"updatedAt":"22/06/2026 00:28:48"}]},{"id":"26173","lat":45.97297025770124,"lon":12.613624334335327,"name":"CONAD SUPERSTORE PORCIA","brand":"CONAD","address":"via Lazio 58 33080, PORCIA, PN","prices":[{"type":"petrol","price":1.788,"self":true,"updatedAt":"20/06/2026 10:16:57"},{"type":"diesel","price":1.888,"self":true,"updatedAt":"20/06/2026 10:16:57"},{"type":"lpg","price":0.718,"self":false,"updatedAt":"20/06/2026 10:16:57"}]},{"id":"35393","lat":45.96772733323586,"lon":12.623879760503769,"name":"COSTANTIN - PORCIA","brand":"Costantin","address":"VIA CORSO LINO ZANUSSI 29 33080, PORCIA (PN) 29 33080, PORCIA, PN","prices":[{"type":"petrol","price":1.799,"self":true,"updatedAt":"20/06/2026 07:46:00"},{"type":"diesel","price":1.899,"self":true,"updatedAt":"20/06/2026 07:46:00"}]},{"id":"57732","lat":45.94215140958845,"lon":12.562334743933095,"name":"PORCIA NORD","brand":"Kerotris","address":"Autostrada A28 PORTOGRUARO-CONEGLIANO,  Km. 29, dir. CONEGLIANO 33080, PORCIA, PN","prices":[{"type":"petrol","price":2.289,"self":true,"updatedAt":"21/06/2026 15:29:25"},{"type":"diesel","price":2.272,"self":true,"updatedAt":"21/06/2026 15:29:25"}]},{"id":"47860","lat":45.9421080920982,"lon":12.5956535339355,"name":"Q8 2525 - PORCIA","brand":"Q8","address":"VIA BRUNIS 7/A 33080, PORCIA, PN","prices":[{"type":"petrol","price":1.839,"self":true,"updatedAt":"21/06/2026 12:26:13"},{"type":"diesel","price":1.949,"self":true,"updatedAt":"21/06/2026 12:26:13"}]},{"id":"20739","lat":45.941813681559495,"lon":12.617889676721234,"name":"Rotundo Giorgio","brand":"Agip Eni","address":"VIA SPINAZZEDO 8 33080, PORCIA, PN","prices":[{"type":"petrol","price":1.969,"self":true,"updatedAt":"19/06/2026 07:49:57"},{"type":"diesel","price":1.999,"self":true,"updatedAt":"19/06/2026 07:49:57"}]},{"id":"48591","lat":45.95070846883246,"lon":12.6616621017456,"name":"14329 - ENI PORDENONE","brand":"Agip Eni","address":"VIA DELLE GRAZIE  5 33170, PORDENONE, PN","prices":[{"type":"petrol","price":1.839,"self":true,"updatedAt":"22/06/2026 00:15:26"},{"type":"diesel","price":1.939,"self":true,"updatedAt":"22/06/2026 00:15:26"}]},{"id":"27689","lat":45.95179940129792,"lon":12.698172926902771,"name":"A.F. PETROLI SPA","brand":"AF Petroli","address":"VIA PRA 19 33170, PORDENONE, PN","prices":[{"type":"petrol","price":1.794,"self":true,"updatedAt":"22/06/2026 07:29:23"},{"type":"diesel","price":1.884,"self":true,"updatedAt":"22/06/2026 07:29:23"},{"type":"lpg","price":0.764,"self":false,"updatedAt":"22/06/2026 02:47:29"}]},{"id":"24974","lat":45.96393959294192,"lon":12.649444160079952,"name":"API ANONIMA PETROLI ITALIANA","brand":"Api-Ip","address":"VIALE MICHELANGELO GRIGOLETTI 46, 33170 46 33170, PORDENONE, PN","prices":[{"type":"petrol","price":1.899,"self":true,"updatedAt":"20/06/2026 10:31:44"},{"type":"diesel","price":1.939,"self":true,"updatedAt":"20/06/2026 10:31:44"}]},{"id":"38392","lat":45.98410910004165,"lon":12.64346231874083,"name":"COSTANTIN - PORDENONE","brand":"Costantin","address":"Via Montereale  157/A 33170, PORDENONE, PN","prices":[{"type":"petrol","price":1.799,"self":true,"updatedAt":"20/06/2026 08:01:00"},{"type":"diesel","price":1.899,"self":true,"updatedAt":"20/06/2026 08:01:00"}]},{"id":"30014","lat":45.972357286737875,"lon":12.68227611887471,"name":"De Carlo Snc","brand":"San Marco Petroli","address":"VIA PIAVE 129 33170, PORDENONE, PN","prices":[{"type":"petrol","price":1.895,"self":true,"updatedAt":"20/06/2026 10:13:24"},{"type":"diesel","price":1.995,"self":true,"updatedAt":"20/06/2026 10:13:24"}]},{"id":"21544","lat":45.95046042898029,"lon":12.695501446723938,"name":"DELLE VEDOVE PETROLI","brand":"Pompe Bianche","address":"MUSILE 18 33170, PORDENONE, PN","prices":[{"type":"petrol","price":1.799,"self":true,"updatedAt":"20/06/2026 19:46:52"},{"type":"diesel","price":1.889,"self":true,"updatedAt":"20/06/2026 19:46:52"},{"type":"lpg","price":0.769,"self":false,"updatedAt":"20/06/2026 19:46:52"}]},{"id":"25251","lat":45.936577036334704,"lon":12.648761482803366,"name":"eni","brand":"Agip Eni","address":"viale treviso 38 33170, PORDENONE, PN","prices":[{"type":"petrol","price":1.809,"self":true,"updatedAt":"21/06/2026 18:46:03"},{"type":"diesel","price":1.919,"self":true,"updatedAt":"21/06/2026 18:46:03"}]},{"id":"49571","lat":45.92234466934542,"lon":12.637601901312532,"name":"ENI","brand":"Agip Eni","address":"VIALE TREVISO 27 33170, PORDENONE, PN","prices":[{"type":"petrol","price":1.819,"self":true,"updatedAt":"22/06/2026 07:12:37"},{"type":"diesel","price":1.949,"self":true,"updatedAt":"22/06/2026 07:12:37"},{"type":"lpg","price":0.747,"self":false,"updatedAt":"21/06/2026 23:28:19"}]},{"id":"44786","lat":45.972095785946664,"lon":12.64254914551077,"name":"Eni favaro giulio","brand":"Agip Eni","address":"VIALE VENEZIA 46 33170, PORDENONE, PN","prices":[{"type":"petrol","price":1.814,"self":true,"updatedAt":"21/06/2026 17:40:14"},{"type":"diesel","price":1.939,"self":true,"updatedAt":"22/06/2026 07:52:06"}]},{"id":"61834","lat":45.98136435337556,"lon":12.645420581102371,"name":"esso","brand":"Esso","address":"MONTEREALE 88 33170, PORDENONE, PN","prices":[{"type":"petrol","price":1.829,"self":true,"updatedAt":"18/06/2026 08:26:41"},{"type":"diesel","price":1.919,"self":true,"updatedAt":"18/06/2026 08:26:41"}]},{"id":"4737","lat":45.969222713223935,"lon":12.630750953967322,"name":"GNP PORDENONE","brand":"GNP","address":"VIALE VENEZIA 13 33170, PORDENONE (PN) 13 33170, PORDENONE, PN","prices":[{"type":"petrol","price":1.797,"self":true,"updatedAt":"21/06/2026 00:52:36"},{"type":"diesel","price":1.897,"self":true,"updatedAt":"21/06/2026 00:52:36"}]},{"id":"40869","lat":45.963684998779236,"lon":12.651037403904752,"name":"La Perla di Mohammad Sajjad","brand":"Agip Eni","address":"Viale Grigoletti 40 33170, PORDENONE, PN","prices":[{"type":"petrol","price":1.834,"self":true,"updatedAt":"22/06/2026 00:37:11"},{"type":"diesel","price":1.949,"self":true,"updatedAt":"22/06/2026 00:37:11"}]},{"id":"18569","lat":45.97419472236848,"lon":12.629736173985293,"name":"medunagas s.r.l.","brand":"Pompe Bianche","address":"via polcenigo 12/a 33170, PORDENONE, PN","prices":[{"type":"methane","price":1.469,"self":false,"updatedAt":"22/06/2026 08:00:34"}]},{"id":"11773","lat":45.96598440954757,"lon":12.640182741069793,"name":"PORDENONE-V.LE GRIGOLETTI 92","brand":"Q8","address":"V.LE GRIGOLETTI 92 33170, PORDENONE, PN","prices":[{"type":"petrol","price":1.819,"self":true,"updatedAt":"20/06/2026 01:39:41"},{"type":"diesel","price":1.929,"self":true,"updatedAt":"20/06/2026 01:39:41"}]},{"id":"11775","lat":45.95038718786618,"lon":12.665000731889904,"name":"PORDENONE-VIA MESTRE","brand":"Q8","address":"VIA MESTRE S/N 33170, PORDENONE, PN","prices":[{"type":"petrol","price":1.839,"self":true,"updatedAt":"20/06/2026 08:13:44"},{"type":"diesel","price":1.939,"self":true,"updatedAt":"20/06/2026 08:13:44"}]},{"id":"11776","lat":45.969098135740744,"lon":12.672473585319494,"name":"PORDENONE-VIA PIAVE 8/A","brand":"Q8","address":"VIA PIAVE 8/A 33170, PORDENONE, PN","prices":[{"type":"petrol","price":1.854,"self":true,"updatedAt":"20/06/2026 08:13:45"},{"type":"diesel","price":1.969,"self":true,"updatedAt":"20/06/2026 08:13:45"}]},{"id":"30161","lat":45.93902264619738,"lon":12.650908380746841,"name":"Q8","brand":"Q8","address":"viale treviso 11 33170, PORDENONE, PN","prices":[{"type":"petrol","price":1.819,"self":true,"updatedAt":"19/06/2026 07:57:42"},{"type":"diesel","price":1.939,"self":true,"updatedAt":"19/06/2026 07:57:42"}]},{"id":"34369","lat":45.97471154348961,"lon":12.65073143201596,"name":"s.s.esso Tesolin Fabio","brand":"Esso","address":"VIALE VENEZIA 95 33170, PORDENONE, PN","prices":[{"type":"petrol","price":1.869,"self":true,"updatedAt":"20/06/2026 12:35:55"},{"type":"diesel","price":1.969,"self":true,"updatedAt":"20/06/2026 12:35:56"}]},{"id":"61697","lat":45.93158307224227,"lon":12.657717168331146,"name":"SMP PORDENONE, Via Nuova di Corva","brand":"San Marco Petroli","address":"Via Nuova di Corva 76  33170, PORDENONE, PN","prices":[{"type":"petrol","price":1.799,"self":true,"updatedAt":"21/06/2026 23:53:58"},{"type":"diesel","price":1.915,"self":true,"updatedAt":"21/06/2026 23:53:58"}]},{"id":"50014","lat":45.99679499063699,"lon":12.631479193339043,"name":"stazione di servizio eni di Singh Manjeet","brand":"Agip Eni","address":"via rovredo  26 33170, PORDENONE, PN","prices":[{"type":"petrol","price":1.808,"self":true,"updatedAt":"22/06/2026 00:24:22"},{"type":"diesel","price":1.914,"self":true,"updatedAt":"22/06/2026 00:24:22"},{"type":"lpg","price":0.822,"self":false,"updatedAt":"22/06/2026 00:24:22"}]},{"id":"62088","lat":45.947451832034545,"lon":12.683405732307426,"name":"Stazione Eni Live","brand":"Agip Eni","address":"UDINE 126 33170, PORDENONE, PN","prices":[{"type":"petrol","price":1.813,"self":true,"updatedAt":"21/06/2026 01:06:41"},{"type":"diesel","price":1.919,"self":true,"updatedAt":"21/06/2026 01:06:41"}]},{"id":"7481","lat":45.963836764084945,"lon":12.650410160422325,"name":"TESOLIN FABIO","brand":"Esso","address":"V.LE M. GRIGOLETTI 42 33170, PORDENONE, PN","prices":[{"type":"petrol","price":1.869,"self":true,"updatedAt":"19/06/2026 19:05:33"},{"type":"diesel","price":1.969,"self":true,"updatedAt":"19/06/2026 19:05:33"}]},{"id":"6871","lat":45.930082031679405,"lon":12.645041181059241,"name":"welna srl","brand":"Api-Ip","address":"TREVISO 62 33170, PORDENONE, PN","prices":[{"type":"petrol","price":1.778,"self":true,"updatedAt":"22/06/2026 07:46:23"},{"type":"diesel","price":1.893,"self":true,"updatedAt":"22/06/2026 07:46:23"}]},{"id":"50883","lat":45.890468280414225,"lon":12.586842894572298,"name":"BOGONI ALFONSO & C. - S.A.S. DI BOGONI CARLO & C. (PRATA)","brand":"Bogoni","address":"VIA PUJA 14 33080, PRATA DI PORDENONE, PN","prices":[{"type":"petrol","price":1.815,"self":true,"updatedAt":"19/06/2026 18:57:57"},{"type":"diesel","price":1.915,"self":true,"updatedAt":"19/06/2026 18:57:57"}]},{"id":"50985","lat":45.87086655277955,"lon":12.563395693649378,"name":"F.LLI ROSOLEN S.N.C.","brand":"Api-Ip","address":"VIA ODERZO 13 33080, PRATA DI PORDENONE, PN","prices":[{"type":"petrol","price":1.829,"self":true,"updatedAt":"20/06/2026 13:47:05"},{"type":"diesel","price":1.939,"self":true,"updatedAt":"20/06/2026 13:47:05"},{"type":"lpg","price":0.769,"self":false,"updatedAt":"20/06/2026 13:43:53"}]},{"id":"13109","lat":45.89857595694587,"lon":12.576983485488862,"name":"Imp. Som-EniLive di BERTOLO MAURO & C. s.n.c.","brand":"Agip Eni","address":"Via CROCE 6 33080, PRATA DI PORDENONE, PN","prices":[{"type":"petrol","price":1.879,"self":true,"updatedAt":"20/06/2026 12:38:05"},{"type":"diesel","price":1.959,"self":true,"updatedAt":"20/06/2026 12:38:05"},{"type":"lpg","price":0.799,"self":false,"updatedAt":"20/06/2026 12:38:05"}]},{"id":"50635","lat":45.80874152943567,"lon":12.67871618270874,"name":"ENI 14254 PRAVISDOMINI","brand":"Agip Eni","address":"VIA FRATTINA  46 33076, PRAVISDOMINI, PN","prices":[{"type":"petrol","price":1.909,"self":true,"updatedAt":"21/06/2026 23:43:28"},{"type":"diesel","price":1.939,"self":true,"updatedAt":"21/06/2026 23:43:28"}]},{"id":"5036","lat":45.99105850740607,"lon":12.616443619296206,"name":"Termoveneta srl (Roveredo)","brand":"Termoveneta srl","address":"VIA XX SETTEMBRE 287/A 33080, ROVEREDO IN PIANO, PN","prices":[{"type":"petrol","price":1.799,"self":true,"updatedAt":"22/06/2026 07:50:27"},{"type":"diesel","price":1.899,"self":true,"updatedAt":"22/06/2026 07:50:27"},{"type":"lpg","price":0.729,"self":false,"updatedAt":"22/06/2026 07:50:27"}]},{"id":"8684","lat":45.960131020274865,"lon":12.512078027647362,"name":"Celotto Alejandra & C. Snc","brand":"Agip Eni","address":"GIACOMO MATTEOTTI 10 33077, SACILE, PN","prices":[{"type":"petrol","price":1.809,"self":true,"updatedAt":"22/06/2026 07:04:10"},{"type":"diesel","price":1.919,"self":true,"updatedAt":"22/06/2026 07:04:10"}]},{"id":"36231","lat":45.95991739377027,"lon":12.509834244847298,"name":"COSTANTIN SACILE","brand":"Costantin","address":"VIA VIA SAN LIBERALE 11 33077, SACILE (PN) 11 33077, SACILE, PN","prices":[{"type":"petrol","price":1.799,"self":true,"updatedAt":"20/06/2026 07:02:59"},{"type":"diesel","price":1.899,"self":true,"updatedAt":"20/06/2026 07:02:59"}]},{"id":"44609","lat":45.96810243023933,"lon":12.517579793930054,"name":"ENI SACILE","brand":"Agip Eni","address":"PEDRADA 9 33077, SACILE, PN","prices":[{"type":"petrol","price":1.879,"self":true,"updatedAt":"21/06/2026 23:43:46"},{"type":"diesel","price":1.929,"self":true,"updatedAt":"21/06/2026 23:43:46"}]},{"id":"11771","lat":45.959421302980886,"lon":12.502467169306783,"name":"SACILE-VIALE DELLA REPUBBLICA 36","brand":"Q8","address":"VIALE DELLA REPUBBLICA 36 33077, SACILE, PN","prices":[{"type":"petrol","price":1.859,"self":true,"updatedAt":"20/06/2026 08:13:46"},{"type":"diesel","price":1.959,"self":true,"updatedAt":"20/06/2026 08:13:46"}]},{"id":"61143","lat":45.96844,"lon":12.54344,"name":"SIA FUEL SACILE","brand":"Sia fuel","address":"Viale S. Giovanni del Tempio 129  33077, SACILE, PN","prices":[{"type":"petrol","price":1.829,"self":true,"updatedAt":"19/06/2026 16:01:26"},{"type":"diesel","price":1.939,"self":true,"updatedAt":"19/06/2026 16:01:26"},{"type":"lpg","price":0.799,"self":true,"updatedAt":"19/06/2026 16:01:26"}]},{"id":"36232","lat":45.94848920886366,"lon":12.745285257697105,"name":"COSTANTIN POINCICCO","brand":"Costantin","address":"VIA FRAZ. POINCICCO - VIA CUSANO 14 33080, ZOPPOLA (PN) 14 33080, ZOPPOLA, PN","prices":[{"type":"petrol","price":1.799,"self":true,"updatedAt":"20/06/2026 11:03:01"},{"type":"diesel","price":1.889,"self":true,"updatedAt":"20/06/2026 07:33:59"}]},{"id":"31530","lat":45.7834955474712,"lon":12.57197231054306,"name":"VEGA GORGO AL MONTICANO","brand":"Vega","address":"VIA POSTUMIA DI SALA 36/37 31040, GORGO AL MONTICANO, TV","prices":[{"type":"petrol","price":1.779,"self":true,"updatedAt":"20/06/2026 08:10:46"},{"type":"diesel","price":1.879,"self":true,"updatedAt":"20/06/2026 08:10:46"}]},{"id":"12052","lat":45.82839973159547,"lon":12.537657715760815,"name":"Energyca Mansuè","brand":"Energyca","address":"VIA PORTOBUFFOLE' 16/C 31040, MANSUÈ, TV","prices":[{"type":"petrol","price":1.808,"self":false,"updatedAt":"19/06/2026 09:01:06"},{"type":"diesel","price":1.898,"self":false,"updatedAt":"19/06/2026 09:01:06"},{"type":"methane","price":1.498,"self":false,"updatedAt":"19/06/2026 09:01:06"}]},{"id":"7281","lat":45.813192912003345,"lon":12.52606604662708,"name":"MANSUE' - STRADA PROV PER ODERZO","brand":"Q8","address":"S.DA PROVINCIALE PER ODERZO SN 31040, MANSUÈ, TV","prices":[{"type":"petrol","price":1.799,"self":true,"updatedAt":"20/06/2026 01:39:29"},{"type":"diesel","price":1.909,"self":true,"updatedAt":"20/06/2026 01:39:29"},{"type":"lpg","price":0.799,"self":false,"updatedAt":"20/06/2026 01:39:29"}]},{"id":"48378","lat":45.81915899846474,"lon":12.601154148578638,"name":"13616 - ENI MEDUNA DI LIVENZA","brand":"Agip Eni","address":"VIA ROMA 75 31040, MEDUNA DI LIVENZA, TV","prices":[{"type":"petrol","price":1.849,"self":true,"updatedAt":"22/06/2026 00:38:02"},{"type":"diesel","price":1.939,"self":true,"updatedAt":"22/06/2026 00:38:02"}]},{"id":"52255","lat":45.75813604597007,"lon":12.61542409658432,"name":"Motta di Livenza","brand":"Pompe Bianche","address":"MAGNADOLA 20/B 31045, MOTTA DI LIVENZA, TV","prices":[{"type":"petrol","price":1.798,"self":true,"updatedAt":"21/06/2026 00:36:35"},{"type":"diesel","price":1.898,"self":true,"updatedAt":"21/06/2026 00:36:35"},{"type":"lpg","price":0.778,"self":false,"updatedAt":"21/06/2026 23:49:17"}]},{"id":"6485","lat":45.782366176795676,"lon":12.583916228697262,"name":"MOTTA DI LIVENZA S.S. 53 POSTUMIA KM 94+707","brand":"Q8","address":"S.S. 53 POSTUMIA KM 94+707 SNC 31050, MOTTA DI LIVENZA, TV","prices":[{"type":"petrol","price":1.799,"self":true,"updatedAt":"20/06/2026 01:39:30"},{"type":"diesel","price":1.899,"self":true,"updatedAt":"20/06/2026 01:39:30"}]},{"id":"31526","lat":45.76648265858281,"lon":12.61091262102127,"name":"VEGA MOTTA DI LIVENZA","brand":"Vega","address":"VIA ALDO MORO 30 31045, MOTTA DI LIVENZA, TV","prices":[{"type":"petrol","price":1.799,"self":true,"updatedAt":"18/06/2026 09:20:49"},{"type":"diesel","price":1.899,"self":true,"updatedAt":"19/06/2026 08:30:47"},{"type":"lpg","price":0.779,"self":false,"updatedAt":"17/06/2026 08:30:49"}]},{"id":"22484","lat":45.76225401552997,"lon":12.526470609786884,"name":"Costantin Oderzo","brand":"Costantin","address":"via per piavon 50 31046, ODERZO, TV","prices":[{"type":"petrol","price":1.799,"self":true,"updatedAt":"20/06/2026 07:31:01"},{"type":"diesel","price":1.899,"self":true,"updatedAt":"20/06/2026 07:31:01"}]},{"id":"24269","lat":45.76728349366198,"lon":12.511829595245331,"name":"Energyca Oderzo_Piavon","brand":"Energyca","address":"VIA DELLA SERENISSIMA 5 31046, ODERZO, TV","prices":[{"type":"petrol","price":1.808,"self":false,"updatedAt":"19/06/2026 16:29:00"},{"type":"diesel","price":1.898,"self":false,"updatedAt":"19/06/2026 16:29:00"},{"type":"lpg","price":0.798,"self":false,"updatedAt":"19/06/2026 16:29:00"}]},{"id":"17802","lat":45.7912881475483,"lon":12.528346369866995,"name":"ENI","brand":"Agip Eni","address":"POSTUMIA DI FRATTA 83/a 31046, ODERZO, TV","prices":[{"type":"petrol","price":1.867,"self":true,"updatedAt":"21/06/2026 06:58:04"},{"type":"diesel","price":1.924,"self":true,"updatedAt":"21/06/2026 06:58:04"},{"type":"lpg","price":0.789,"self":false,"updatedAt":"21/06/2026 00:45:16"}]},{"id":"6492","lat":45.78858410573367,"lon":12.501064373016334,"name":"ODERZO VERDI 33","brand":"Q8","address":"VIA VERDI 33 31046, ODERZO, TV","prices":[{"type":"petrol","price":1.759,"self":true,"updatedAt":"19/06/2026 01:40:31"},{"type":"diesel","price":1.879,"self":true,"updatedAt":"19/06/2026 01:40:31"}]},{"id":"54207","lat":45.79490364482314,"lon":12.51586061349304,"name":"VEGA ODERZO","brand":"Vega","address":"Via Concordia 24  31046, ODERZO, TV","prices":[{"type":"petrol","price":1.759,"self":true,"updatedAt":"20/06/2026 07:31:07"},{"type":"diesel","price":1.879,"self":true,"updatedAt":"19/06/2026 08:00:58"},{"type":"lpg","price":0.779,"self":false,"updatedAt":"15/06/2026 08:20:52"}]},{"id":"43617","lat":45.8605391981355,"lon":12.547233930059406,"name":"DA OIL - PORTOBUFFOLE'","brand":"Pompe Bianche","address":"VIA PONTE MARON 1 31040, PORTOBUFFOLÈ, TV","prices":[{"type":"petrol","price":1.799,"self":true,"updatedAt":"20/06/2026 13:01:44"},{"type":"diesel","price":1.899,"self":true,"updatedAt":"20/06/2026 13:01:44"},{"type":"lpg","price":0.769,"self":false,"updatedAt":"20/06/2026 13:01:44"}]},{"id":"54315","lat":45.85361932071238,"lon":12.535985112190206,"name":"PV 17 Portobuffolè","brand":"Noaloil","address":"Via Provinciale 18 31040, PORTOBUFFOLÈ, TV","prices":[{"type":"petrol","price":1.799,"self":true,"updatedAt":"19/06/2026 10:57:02"},{"type":"diesel","price":1.899,"self":true,"updatedAt":"19/06/2026 10:57:02"}]},{"id":"16889","lat":45.79554256834902,"lon":12.681949478048637,"name":"ERG DI FEDRIGO MICHELE","brand":"Api-Ip","address":"VIA POSTUMIA 40 30020, ANNONE VENETO, VE","prices":[{"type":"petrol","price":1.849,"self":true,"updatedAt":"18/06/2026 08:48:58"},{"type":"diesel","price":1.899,"self":true,"updatedAt":"18/06/2026 08:48:58"}]},{"id":"46981","lat":45.80019669913888,"lon":12.727960869669914,"name":"STAZIONE Q8 DI DEL GIUDICE MASSIMO","brand":"Q8","address":"53 Postumia, Km. 106887, portogruaro 80 30020, PRAMAGGIORE, VE","prices":[{"type":"petrol","price":1.799,"self":true,"updatedAt":"20/06/2026 12:43:13"},{"type":"diesel","price":1.899,"self":true,"updatedAt":"20/06/2026 12:43:13"},{"type":"lpg","price":0.697,"self":false,"updatedAt":"20/06/2026 12:43:13"}]}]