[{"id":"11462","lat":45.813197214062086,"lon":7.588300000000004,"name":"ANTEY SAINT'ANDRE-FRAZIONE FILEY 21A","brand":"Q8","address":"FRAZIONE FILEY  21A 11020, ANTEY-SAINT-ANDRÉ, AO","prices":[{"type":"petrol","price":1.865,"self":true,"updatedAt":"20/06/2026 08:11:34"},{"type":"diesel","price":1.935,"self":true,"updatedAt":"20/06/2026 08:11:34"}]},{"id":"41625","lat":45.80925755020448,"lon":7.587302774190903,"name":"eni antey","brand":"Agip Eni","address":"406 di Cervinia, Km. 7+930, cervinia - 11020, ANTEY-SAINT-ANDRÉ, AO","prices":[{"type":"petrol","price":1.859,"self":true,"updatedAt":"20/06/2026 23:18:01"},{"type":"diesel","price":1.969,"self":true,"updatedAt":"20/06/2026 23:18:01"}]},{"id":"32367","lat":45.831326164478845,"lon":7.725232186508151,"name":"AYAS - CHAMPOLUC","brand":"Api-Ip","address":"ROUTE DONDEYNAZ 70 11020, AYAS, AO","prices":[{"type":"petrol","price":1.839,"self":true,"updatedAt":"20/06/2026 09:08:00"},{"type":"diesel","price":1.959,"self":true,"updatedAt":"20/06/2026 09:08:00"}]},{"id":"21108","lat":45.810879993061704,"lon":7.695470899343491,"name":"DISTRIBUTORE TOTAL ERG PERIASC","brand":"Sommese Petroli","address":"FRAZIONE PERIASC - STRADA REGIONALE 45 86 11020, AYAS, AO","prices":[{"type":"petrol","price":2.022,"self":true,"updatedAt":"20/06/2026 09:08:03"},{"type":"diesel","price":2.289,"self":true,"updatedAt":"20/06/2026 09:08:03"}]},{"id":"48076","lat":45.75645180710533,"lon":7.734475046627063,"name":"Economy - Brusson","brand":"Economysrl","address":"RUE TROIS VILLAGES 8 11022, BRUSSON, AO","prices":[{"type":"petrol","price":1.999,"self":true,"updatedAt":"17/06/2026 18:07:07"},{"type":"diesel","price":2.099,"self":true,"updatedAt":"17/06/2026 18:07:07"},{"type":"lpg","price":0.899,"self":false,"updatedAt":"17/06/2026 18:07:07"}]},{"id":"36084","lat":45.75159371392577,"lon":7.622054815292358,"name":"SVP BENZ","brand":"Pompe Bianche","address":"CIRCONVALLAZIONE 13 11024, CHATILLON, AO","prices":[{"type":"petrol","price":1.825,"self":true,"updatedAt":"19/06/2026 16:09:06"},{"type":"diesel","price":1.899,"self":true,"updatedAt":"19/06/2026 16:09:06"}]},{"id":"9610","lat":45.75169293203735,"lon":7.644478981089833,"name":"besenval eric","brand":"Esso","address":"VIA MARCONI 17 11027, SAINT-VINCENT, AO","prices":[{"type":"petrol","price":1.839,"self":true,"updatedAt":"19/06/2026 08:17:35"},{"type":"diesel","price":1.909,"self":true,"updatedAt":"19/06/2026 08:17:35"}]},{"id":"8646","lat":45.92779294918437,"lon":7.622247934341431,"name":"Agip 35","brand":"Agip Eni","address":"STRADA REGIONALE N. 46 KM 25+900  11028, VALTOURNENCHE, AO","prices":[{"type":"petrol","price":1.907,"self":true,"updatedAt":"20/06/2026 07:51:27"},{"type":"diesel","price":2.004,"self":true,"updatedAt":"20/06/2026 07:51:27"}]}]