[{"id":"59850","lat":45.95642699852696,"lon":12.835657596588135,"name":"14330 - ENI CASARSA DELLA DELIZIA","brand":"Agip Eni","address":"viale venezia  39, CASARSA DELLA DELIZIA, PN","prices":[{"type":"petrol","price":1.929,"self":true,"updatedAt":"22/06/2026 00:15:43"},{"type":"diesel","price":2.029,"self":true,"updatedAt":"22/06/2026 00:15:43"}]},{"id":"59903","lat":45.94442407717456,"lon":12.835734671165122,"name":"IP DI FRANZIN MARCO","brand":"Api-Ip","address":"Via Plebiscito 35  33072, CASARSA DELLA DELIZIA, PN","prices":[{"type":"petrol","price":1.829,"self":true,"updatedAt":"20/06/2026 14:22:18"},{"type":"diesel","price":1.959,"self":true,"updatedAt":"20/06/2026 14:22:18"}]},{"id":"46270","lat":45.87823487440273,"lon":12.779354751110077,"name":"ENI TAIEDO DI CHIONS","brand":"Agip Eni","address":"via Treviso 8 33083, CHIONS, PN","prices":[{"type":"petrol","price":1.869,"self":true,"updatedAt":"21/06/2026 23:43:36"},{"type":"diesel","price":1.939,"self":true,"updatedAt":"21/06/2026 23:43:36"}]},{"id":"6023","lat":45.86110017918074,"lon":12.768559042420748,"name":"FIORENERGY SRL","brand":"Tamoil","address":"VIA I MAGGIO 1/A 33083, CHIONS, PN","prices":[{"type":"petrol","price":1.899,"self":true,"updatedAt":"20/06/2026 08:18:45"},{"type":"diesel","price":1.939,"self":true,"updatedAt":"20/06/2026 08:18:45"},{"type":"lpg","price":0.799,"self":false,"updatedAt":"20/06/2026 08:18:45"}]},{"id":"55607","lat":45.85016451996798,"lon":12.881962837418728,"name":"ENI","brand":"Agip Eni","address":"CECCHINI 1 33075, CORDOVADO, PN","prices":[{"type":"petrol","price":1.849,"self":true,"updatedAt":"21/06/2026 23:44:06"},{"type":"diesel","price":1.949,"self":true,"updatedAt":"21/06/2026 23:44:06"}]},{"id":"44682","lat":45.9203452271894,"lon":12.774220114460354,"name":"Q8 RIVATTE DI FIUME VENETO","brand":"Q8","address":"via San Vito  34/A 33080, FIUME VENETO, PN","prices":[{"type":"petrol","price":1.819,"self":true,"updatedAt":"22/06/2026 00:43:28"},{"type":"diesel","price":1.919,"self":true,"updatedAt":"22/06/2026 00:43:28"},{"type":"lpg","price":0.799,"self":false,"updatedAt":"22/06/2026 00:43:28"}]},{"id":"22248","lat":45.859538774615466,"lon":12.92810395359993,"name":"eni pilosio silvio","brand":"Agip Eni","address":"VIA ROMA 11/A 33075, MORSANO AL TAGLIAMENTO, PN","prices":[{"type":"petrol","price":1.85,"self":true,"updatedAt":"21/06/2026 23:41:19"},{"type":"diesel","price":1.949,"self":true,"updatedAt":"21/06/2026 23:41:19"}]},{"id":"47864","lat":45.92476940654522,"lon":12.873787283897395,"name":"14325 - ENI SAN VITO AL TAGLIAMENTO","brand":"Agip Eni","address":"VIA UDINE 28 33078, SAN VITO AL TAGLIAMENTO, PN","prices":[{"type":"petrol","price":1.799,"self":true,"updatedAt":"21/06/2026 23:31:46"},{"type":"diesel","price":1.899,"self":true,"updatedAt":"21/06/2026 23:31:46"}]},{"id":"15835","lat":45.906232305565204,"lon":12.865533381700516,"name":"GAZZIOLA CELIO DIEGO","brand":"Api-Ip","address":"VIA GUGLIELMO OBERDAN 82 33078, SAN VITO AL TAGLIAMENTO, PN","prices":[{"type":"petrol","price":1.799,"self":false,"updatedAt":"19/06/2026 08:23:00"},{"type":"diesel","price":1.899,"self":false,"updatedAt":"19/06/2026 08:23:00"}]},{"id":"56265","lat":45.897641841063724,"lon":12.822833955287933,"name":"ip di matteo bertoia","brand":"Api-Ip","address":"PISSARELLE 5/A 33078, SAN VITO AL TAGLIAMENTO, PN","prices":[{"type":"petrol","price":1.829,"self":true,"updatedAt":"22/06/2026 06:54:07"},{"type":"diesel","price":1.929,"self":true,"updatedAt":"22/06/2026 06:54:07"},{"type":"lpg","price":0.759,"self":false,"updatedAt":"22/06/2026 06:54:07"}]},{"id":"7262","lat":45.931305865530895,"lon":12.87163109325411,"name":"SAN VITO AL TAGLIAM -SS463 KM45 719","brand":"Q8","address":"VIALE UDINE SS 463 KM 45+719  33078, SAN VITO AL TAGLIAMENTO, PN","prices":[{"type":"petrol","price":1.799,"self":true,"updatedAt":"20/06/2026 08:13:48"},{"type":"diesel","price":1.899,"self":true,"updatedAt":"20/06/2026 08:13:48"},{"type":"lpg","price":0.779,"self":false,"updatedAt":"20/06/2026 08:13:49"}]},{"id":"25825","lat":45.949803729817255,"lon":12.882351720237693,"name":"SAN VITO AL TAGLIAMENTO - PONTEROSSO","brand":"Api-Ip","address":"Statale 463 del Tagliamento, Km. 43,500, dir. SUD - 33078, SAN VITO AL TAGLIAMENTO, PN","prices":[{"type":"petrol","price":1.799,"self":true,"updatedAt":"21/06/2026 09:07:00"},{"type":"diesel","price":1.899,"self":true,"updatedAt":"21/06/2026 09:07:00"}]},{"id":"11772","lat":45.91786115468606,"lon":12.866032186508164,"name":"SAN VITO AL TAGLIAMENTO-V.LE MADONNA DI ROSA 18","brand":"Q8","address":"V.LE MADONNA DI ROSA 18 33078, SAN VITO AL TAGLIAMENTO, PN","prices":[{"type":"petrol","price":1.779,"self":true,"updatedAt":"20/06/2026 08:13:47"},{"type":"diesel","price":1.879,"self":true,"updatedAt":"20/06/2026 08:13:47"}]},{"id":"45712","lat":45.84180095557253,"lon":12.812497466802597,"name":"ENI SESTO AL REGHENA","brand":"Agip Eni","address":"VIA JULIA CONCORDIA  50 33079, SESTO AL REGHENA, PN","prices":[{"type":"petrol","price":1.879,"self":true,"updatedAt":"21/06/2026 23:43:20"},{"type":"diesel","price":1.959,"self":true,"updatedAt":"21/06/2026 23:43:20"}]},{"id":"49681","lat":45.9903563799211,"lon":12.866100487665843,"name":"ITALIANAPETROLI","brand":"Api-Ip","address":"VIA TRIESTE 16 33098, VALVASONE, PN","prices":[{"type":"petrol","price":1.839,"self":true,"updatedAt":"19/06/2026 07:13:22"},{"type":"diesel","price":1.919,"self":true,"updatedAt":"19/06/2026 07:13:22"},{"type":"lpg","price":0.809,"self":false,"updatedAt":"19/06/2026 07:13:22"}]},{"id":"47457","lat":45.962405210969884,"lon":12.768013373016366,"name":"COSTANTIN ZOPPOLA","brand":"Costantin","address":"Via Panciera  74 33080, ZOPPOLA, PN","prices":[{"type":"petrol","price":1.799,"self":true,"updatedAt":"20/06/2026 08:03:59"},{"type":"diesel","price":1.889,"self":true,"updatedAt":"20/06/2026 08:03:59"}]},{"id":"53601","lat":45.95295454559138,"lon":12.7947491840267,"name":"ITER01","brand":"Esso","address":"VIA VIA CODROIPO 14 33080, ZOPPOLA (PN), ZOPPOLA, PN","prices":[{"type":"petrol","price":1.879,"self":true,"updatedAt":"22/06/2026 00:18:52"},{"type":"diesel","price":1.899,"self":true,"updatedAt":"22/06/2026 00:18:52"},{"type":"methane","price":1.499,"self":false,"updatedAt":"22/06/2026 00:18:52"}]},{"id":"4490","lat":45.94958720154408,"lon":12.752754296383046,"name":"NOALOIL PV8","brand":"Noaloil","address":"Statale 13 Pontebbana, Km. N/A, dir. N/A - 33080, ZOPPOLA, PN","prices":[{"type":"petrol","price":1.799,"self":true,"updatedAt":"19/06/2026 09:23:52"},{"type":"diesel","price":1.889,"self":true,"updatedAt":"19/06/2026 09:23:52"},{"type":"lpg","price":0.809,"self":false,"updatedAt":"19/06/2026 09:23:52"}]},{"id":"20182","lat":45.979401016373465,"lon":12.801271192789727,"name":"Sellan Pietro","brand":"Api-Ip","address":"VIA DOMANINS 28 33080, ZOPPOLA, PN","prices":[{"type":"petrol","price":1.819,"self":false,"updatedAt":"22/06/2026 06:34:54"},{"type":"diesel","price":1.919,"self":false,"updatedAt":"22/06/2026 06:34:54"}]},{"id":"34562","lat":45.955814632366454,"lon":12.814347445964813,"name":"Sia Fuel Zoppola","brand":"Sia fuel","address":"ss 13 km 92 + 911.50   33080, ZOPPOLA, PN","prices":[{"type":"petrol","price":1.849,"self":true,"updatedAt":"19/06/2026 16:01:08"},{"type":"diesel","price":1.939,"self":true,"updatedAt":"19/06/2026 16:01:08"},{"type":"lpg","price":0.799,"self":false,"updatedAt":"19/06/2026 16:01:08"}]},{"id":"57225","lat":45.955789272343836,"lon":12.815959453582764,"name":"Zoppola Azzalini Energie","brand":"AZZALINI ENERGIE","address":"Via Piontebbana Loc. Orcenico Superiore 2 33080, ZOPPOLA, PN","prices":[{"type":"petrol","price":1.799,"self":true,"updatedAt":"21/06/2026 16:05:34"},{"type":"diesel","price":1.889,"self":true,"updatedAt":"21/06/2026 16:05:34"}]},{"id":"46566","lat":45.92403333457266,"lon":12.943005752692898,"name":"DISTRIBUTORE IP CAMINO AL TAGLIAMENTO","brand":"Api-Ip","address":"VIA BUGNINS 7/A 33030, CAMINO AL TAGLIAMENTO, UD","prices":[{"type":"petrol","price":1.897,"self":true,"updatedAt":"19/06/2026 10:32:07"},{"type":"diesel","price":1.997,"self":true,"updatedAt":"19/06/2026 10:32:07"}]},{"id":"57418","lat":45.9659677,"lon":12.944942,"name":"6980","brand":"Tamoil","address":"SR. 13 KM. 103+540 VIA PORDENONE, CODROIPO, UD","prices":[{"type":"petrol","price":1.829,"self":true,"updatedAt":"21/06/2026 01:09:41"},{"type":"diesel","price":1.929,"self":true,"updatedAt":"21/06/2026 01:09:41"},{"type":"lpg","price":0.749,"self":false,"updatedAt":"21/06/2026 23:41:21"}]},{"id":"13689","lat":45.946009139170044,"lon":12.976701557636261,"name":"Agip","brand":"Agip Eni","address":"VIA LIGNANO 10 33033, CODROIPO, UD","prices":[{"type":"petrol","price":1.829,"self":true,"updatedAt":"20/06/2026 12:44:36"},{"type":"diesel","price":1.919,"self":true,"updatedAt":"20/06/2026 12:44:36"},{"type":"lpg","price":0.799,"self":false,"updatedAt":"20/06/2026 12:44:36"}]},{"id":"10819","lat":45.96157627528157,"lon":12.989031672477722,"name":"ENI","brand":"Agip Eni","address":"VIA FRANCESCO A. DUODO 52 33033, CODROIPO, UD","prices":[{"type":"petrol","price":1.809,"self":true,"updatedAt":"22/06/2026 06:32:12"},{"type":"diesel","price":1.919,"self":true,"updatedAt":"22/06/2026 06:32:12"}]},{"id":"59966","lat":45.950382,"lon":12.973298,"name":"MARINACCI RENATO","brand":"Api-Ip","address":"Via Lignano 4  33033, CODROIPO, UD","prices":[{"type":"petrol","price":1.829,"self":true,"updatedAt":"20/06/2026 12:41:47"},{"type":"diesel","price":1.939,"self":true,"updatedAt":"20/06/2026 12:41:47"}]},{"id":"58103","lat":45.96687944066386,"lon":12.96834111213684,"name":"PV 20 NoalOil","brand":"Noaloil","address":"viale venezia 112 33033, CODROIPO, UD","prices":[{"type":"petrol","price":1.799,"self":true,"updatedAt":"19/06/2026 09:24:46"},{"type":"diesel","price":1.889,"self":true,"updatedAt":"19/06/2026 09:24:46"},{"type":"lpg","price":0.809,"self":false,"updatedAt":"19/06/2026 09:24:46"}]},{"id":"45247","lat":45.96482006964284,"lon":12.954881191253662,"name":"Q8 CODROIPO","brand":"Q8","address":"PORDENONE 72 33033, CODROIPO, UD","prices":[{"type":"petrol","price":1.809,"self":true,"updatedAt":"22/06/2026 00:20:26"},{"type":"diesel","price":1.909,"self":true,"updatedAt":"22/06/2026 00:20:26"}]},{"id":"56694","lat":45.96538,"lon":12.96443,"name":"SIA FUEL CODROIPO","brand":"Sia fuel","address":"Viale Venezia 92 33033, CODROIPO, UD","prices":[{"type":"petrol","price":1.799,"self":true,"updatedAt":"19/06/2026 17:06:59"},{"type":"diesel","price":1.889,"self":true,"updatedAt":"19/06/2026 17:06:59"}]},{"id":"9575","lat":45.96535260171101,"lon":12.96439436441804,"name":"TAMOIL","brand":"Tamoil","address":"13 Pontebbana, Km. 105/096, Pordenone    Udine - 33033, CODROIPO, UD","prices":[{"type":"petrol","price":1.849,"self":true,"updatedAt":"22/06/2026 00:29:24"},{"type":"diesel","price":1.949,"self":true,"updatedAt":"22/06/2026 00:29:24"}]},{"id":"22869","lat":45.77164806137769,"lon":12.997819930315018,"name":"esso","brand":"Esso","address":"VIA SABBIONERA  33053, LATISANA, UD","prices":[{"type":"petrol","price":1.879,"self":false,"updatedAt":"18/06/2026 18:35:42"},{"type":"diesel","price":1.979,"self":false,"updatedAt":"18/06/2026 18:35:42"}]},{"id":"46151","lat":45.772854037071134,"lon":12.997195720672607,"name":"IP LATISANA","brand":"Api-Ip","address":"SS 14 km.79+690 - via Sottopovolo 93 33053, LATISANA, UD","prices":[{"type":"petrol","price":1.849,"self":true,"updatedAt":"21/06/2026 23:47:07"},{"type":"diesel","price":1.949,"self":true,"updatedAt":"21/06/2026 23:47:07"}]},{"id":"61716","lat":45.79779889416177,"lon":12.993709444999695,"name":"SMP RONCHIS","brand":"San Marco Petroli","address":"Corso Italia 77  33050, RONCHIS, UD","prices":[{"type":"petrol","price":1.849,"self":true,"updatedAt":"22/06/2026 00:13:48"},{"type":"diesel","price":1.959,"self":true,"updatedAt":"22/06/2026 00:13:48"}]},{"id":"22903","lat":45.997307087428794,"lon":12.968077659606934,"name":"porfido snc","brand":"Tamoil","address":"Via Osoppo 17 33039, SEDEGLIANO, UD","prices":[{"type":"petrol","price":1.849,"self":false,"updatedAt":"19/06/2026 10:21:39"},{"type":"diesel","price":1.949,"self":false,"updatedAt":"19/06/2026 10:21:39"}]},{"id":"55637","lat":45.82847840287769,"lon":12.781874917724627,"name":"STAZIONE DI SERVIZIO ENI","brand":"Agip Eni","address":"ROMA 36 30020, CINTO CAOMAGGIORE, VE","prices":[{"type":"petrol","price":1.825,"self":true,"updatedAt":"21/06/2026 23:42:03"},{"type":"diesel","price":1.914,"self":true,"updatedAt":"21/06/2026 23:42:03"}]},{"id":"54651","lat":45.7653894538416,"lon":12.826885034295076,"name":"105817 CONCORDIA SAGITTARIA","brand":"Esso","address":"LEVADA 42 30023, CONCORDIA SAGITTARIA, VE","prices":[{"type":"petrol","price":1.879,"self":true,"updatedAt":"09/06/2026 16:04:10"},{"type":"diesel","price":1.99,"self":true,"updatedAt":"09/06/2026 16:04:10"}]},{"id":"63106","lat":45.7651989,"lon":12.8263753,"name":"ESSO - CONCORDIA SAGITTARIA","brand":"Esso","address":"Via Levada 42  30023, CONCORDIA SAGITTARIA, VE","prices":[{"type":"petrol","price":1.789,"self":true,"updatedAt":"19/06/2026 08:51:05"},{"type":"diesel","price":1.859,"self":true,"updatedAt":"19/06/2026 08:51:05"}]},{"id":"61738","lat":45.755081115561026,"lon":12.79615732628622,"name":"SMP CONCORDIA SAGITTARIA","brand":"San Marco Petroli","address":"VIA VIA LEVADA - KM. 59+320 - S.S. 14 SN 30023, CONCORDIA SAGITTARIA (VE)  30023, CONCORDIA SAGITTARIA, VE","prices":[{"type":"petrol","price":1.809,"self":true,"updatedAt":"21/06/2026 23:26:02"},{"type":"diesel","price":1.899,"self":true,"updatedAt":"21/06/2026 23:26:02"}]},{"id":"28748","lat":45.76697624387181,"lon":12.896455228328705,"name":"EUROPAM - FOSSALTA DI PORTOGRUARO","brand":"Europam","address":"PIAZZA MARZOTTO 1 30025, FOSSALTA DI PORTOGRUARO, VE","prices":[{"type":"petrol","price":1.817,"self":true,"updatedAt":"19/06/2026 11:30:51"},{"type":"diesel","price":1.917,"self":true,"updatedAt":"19/06/2026 11:30:51"}]},{"id":"25845","lat":45.77455789912691,"lon":12.944158271163928,"name":"Fossalta di Portogruaro","brand":"Api-Ip","address":"S.S. 14 Km 71+776  30025, FOSSALTA DI PORTOGRUARO, VE","prices":[{"type":"petrol","price":1.799,"self":true,"updatedAt":"21/06/2026 09:12:43"},{"type":"diesel","price":1.899,"self":true,"updatedAt":"21/06/2026 09:12:43"}]},{"id":"37105","lat":45.80450848297513,"lon":12.888183295726776,"name":"FRATTA SUD","brand":"Esso","address":"Autostrada A4 VENEZIA-TRIESTE, Km. 456,5, dir. TRIESTE - 30026, FOSSALTA DI PORTOGRUARO, VE","prices":[{"type":"petrol","price":1.844,"self":true,"updatedAt":"22/06/2026 00:49:43"},{"type":"diesel","price":1.944,"self":true,"updatedAt":"22/06/2026 00:49:43"},{"type":"lpg","price":0.885,"self":false,"updatedAt":"21/06/2026 23:38:10"}]},{"id":"31520","lat":45.781039946949385,"lon":12.890622809509296,"name":"VEGA FOSSALTA DI PORTOGRUARO","brand":"Vega","address":"VIALE KENNEDY 12 30025, FOSSALTA DI PORTOGRUARO, VE","prices":[{"type":"petrol","price":1.799,"self":true,"updatedAt":"19/06/2026 08:30:51"},{"type":"diesel","price":1.879,"self":true,"updatedAt":"20/06/2026 07:50:52"},{"type":"lpg","price":0.789,"self":false,"updatedAt":"15/06/2026 08:40:57"}]},{"id":"58078","lat":45.83729122987311,"lon":12.853478193283081,"name":"4812 ESSO GRUARO - BAGNARA","brand":"Esso","address":"Via G. Volpi Di Misurata 65 30020, GRUARO, VE","prices":[{"type":"petrol","price":1.809,"self":true,"updatedAt":"22/06/2026 00:19:36"},{"type":"diesel","price":1.909,"self":true,"updatedAt":"22/06/2026 00:19:36"}]},{"id":"57735","lat":45.80552045052035,"lon":12.818432060675038,"name":"GRUARO EST","brand":"Kerotris","address":"Autostrada A28 PORTOGRUARO-CONEGLIANO,  Km. 1, dir. CONEGLIANO 30020, GRUARO, VE","prices":[{"type":"petrol","price":2.289,"self":true,"updatedAt":"21/06/2026 15:29:43"},{"type":"diesel","price":2.272,"self":true,"updatedAt":"21/06/2026 15:29:43"}]},{"id":"57733","lat":45.80368057901072,"lon":12.81813165326537,"name":"GRUARO OVEST","brand":"Kerotris","address":"Autostrada A28 PORTOGRUARO-CONEGLIANO, dir. PORTOGRUARO 30020, GRUARO, VE","prices":[{"type":"petrol","price":2.289,"self":true,"updatedAt":"21/06/2026 15:29:33"},{"type":"diesel","price":2.272,"self":true,"updatedAt":"21/06/2026 15:29:33"}]},{"id":"52235","lat":45.80130257908414,"lon":12.813655994537339,"name":"STAZIONE DI SERVIZIO IP","brand":"Api-Ip","address":"VIA DE GASPERI 33 30020, GRUARO, VE","prices":[{"type":"petrol","price":1.789,"self":true,"updatedAt":"21/06/2026 19:28:11"},{"type":"diesel","price":1.909,"self":true,"updatedAt":"21/06/2026 19:28:11"}]},{"id":"54633","lat":45.796906,"lon":12.818943,"name":"13722 Portogruaro","brand":"Agip Eni","address":"VIALE PORDENONE 78 30026, PORTOGRUARO, VE","prices":[{"type":"petrol","price":1.829,"self":true,"updatedAt":"21/06/2026 23:49:51"},{"type":"diesel","price":1.919,"self":true,"updatedAt":"21/06/2026 23:49:51"}]},{"id":"60899","lat":45.76819,"lon":12.83323,"name":"BEYFIN","brand":"Beyfin","address":"VENEZIA 40 30026, PORTOGRUARO, VE","prices":[{"type":"petrol","price":1.809,"self":true,"updatedAt":"19/06/2026 09:03:36"},{"type":"diesel","price":1.899,"self":true,"updatedAt":"19/06/2026 09:03:36"}]},{"id":"43243","lat":45.76406125770358,"lon":12.80807281349189,"name":"DISTRIBUTORE SAVO","brand":"Pompe Bianche","address":"MAJORANA 4 30026, PORTOGRUARO, VE","prices":[{"type":"petrol","price":1.855,"self":true,"updatedAt":"12/06/2026 17:47:17"},{"type":"diesel","price":1.955,"self":true,"updatedAt":"12/06/2026 17:47:17"}]},{"id":"47013","lat":45.776920297514465,"lon":12.863217874983093,"name":"ESSO PORTOGRUARO","brand":"Esso","address":"14 della Venezia Giulia, Km. 63 + 350, TRIESTE - 30026, PORTOGRUARO, VE","prices":[{"type":"petrol","price":1.809,"self":true,"updatedAt":"22/06/2026 00:11:56"},{"type":"diesel","price":1.909,"self":true,"updatedAt":"22/06/2026 00:11:56"}]},{"id":"51300","lat":45.78010578062291,"lon":12.87640739597009,"name":"EUROPAM - PORTOGRUARO","brand":"Europam","address":"TRIESTE 193 30026, PORTOGRUARO, VE","prices":[{"type":"petrol","price":1.817,"self":true,"updatedAt":"21/06/2026 22:29:18"},{"type":"diesel","price":1.917,"self":true,"updatedAt":"21/06/2026 22:29:18"},{"type":"lpg","price":0.789,"self":false,"updatedAt":"21/06/2026 22:29:18"}]},{"id":"4007","lat":45.775438363414864,"lon":12.879675328731537,"name":"F.LLI FERRAZZO","brand":"Agip Eni","address":"Via Casalonga 52 30026, PORTOGRUARO, VE","prices":[{"type":"methane","price":1.399,"self":false,"updatedAt":"15/06/2026 12:09:44"}]},{"id":"41686","lat":45.788681364569385,"lon":12.750698087033015,"name":"GABOGAS 2 Portogruaro","brand":"GABOGAS2","address":"Viale Treviso 154 30026, PORTOGRUARO, VE","prices":[{"type":"petrol","price":1.757,"self":true,"updatedAt":"18/06/2026 01:03:15"},{"type":"diesel","price":1.847,"self":true,"updatedAt":"18/06/2026 01:03:15"},{"type":"methane","price":1.397,"self":false,"updatedAt":"18/06/2026 01:03:15"},{"type":"lpg","price":0.697,"self":false,"updatedAt":"18/06/2026 01:03:15"}]},{"id":"8622","lat":45.77494274156673,"lon":12.848509728836007,"name":"Portogruaro","brand":"Api-Ip","address":"ss 14 km 64,200  30026, PORTOGRUARO, VE","prices":[{"type":"petrol","price":1.809,"self":true,"updatedAt":"21/06/2026 09:15:47"},{"type":"diesel","price":1.884,"self":true,"updatedAt":"21/06/2026 09:15:47"}]},{"id":"11939","lat":45.775133673994134,"lon":12.84533218650813,"name":"PORTOGRUARO-VIALE TRIESTE 27","brand":"Q8","address":"VIALE TRIESTE 27 30026, PORTOGRUARO, VE","prices":[{"type":"petrol","price":1.809,"self":true,"updatedAt":"20/06/2026 08:13:16"},{"type":"diesel","price":1.889,"self":true,"updatedAt":"20/06/2026 08:13:16"}]},{"id":"25902","lat":45.768092191443884,"lon":12.83413293254091,"name":"PV 3730","brand":"Agip Eni","address":"VIALE VENEZIA 19 30026, PORTOGRUARO, VE","prices":[{"type":"petrol","price":1.789,"self":true,"updatedAt":"22/06/2026 00:30:53"},{"type":"diesel","price":1.854,"self":true,"updatedAt":"22/06/2026 00:30:53"}]},{"id":"59515","lat":45.785455692656186,"lon":12.81846836776733,"name":"SACCON FABRIZIO","brand":"Beyfin","address":"ODORICO DA PORDENONE 10 30026, PORTOGRUARO, VE","prices":[{"type":"petrol","price":1.809,"self":true,"updatedAt":"19/06/2026 09:02:45"},{"type":"diesel","price":1.899,"self":true,"updatedAt":"19/06/2026 09:02:45"},{"type":"lpg","price":0.779,"self":false,"updatedAt":"19/06/2026 09:02:45"}]},{"id":"52103","lat":45.792524486037664,"lon":12.817790080186468,"name":"SPAZIO CONAD PORTOGRUARO","brand":"CONAD","address":"VIA PRATI GUORI 29 30026, PORTOGRUARO, VE","prices":[{"type":"petrol","price":1.798,"self":true,"updatedAt":"22/06/2026 04:21:34"},{"type":"diesel","price":1.888,"self":true,"updatedAt":"22/06/2026 04:21:34"}]},{"id":"35918","lat":45.78484415902903,"lon":12.831355333328247,"name":"tamoil","brand":"Tamoil","address":"Statale 251 della Val di Zoldo e Val Cellina, Km. 251+1, dir. portogruaro - 30026, PORTOGRUARO, VE","prices":[{"type":"petrol","price":1.799,"self":true,"updatedAt":"22/06/2026 00:19:34"},{"type":"diesel","price":1.879,"self":true,"updatedAt":"22/06/2026 00:19:34"}]},{"id":"31536","lat":45.774378002810884,"lon":12.824510335922241,"name":"VEGA PORTOGRUARO","brand":"Vega","address":"VIALE CADORNA 66 30026, PORTOGRUARO, VE","prices":[{"type":"petrol","price":1.799,"self":true,"updatedAt":"19/06/2026 08:30:49"},{"type":"diesel","price":1.899,"self":true,"updatedAt":"22/06/2026 07:40:54"},{"type":"lpg","price":0.789,"self":false,"updatedAt":"15/06/2026 08:40:55"}]},{"id":"56693","lat":45.7720395,"lon":12.9672231,"name":"SIA FUEL SAN MICHELE AL TAGLIAMENTO","brand":"Sia fuel","address":"Via A. Venudo 58  30028, SAN MICHELE AL TAGLIAMENTO, VE","prices":[{"type":"petrol","price":1.799,"self":true,"updatedAt":"19/06/2026 17:48:16"},{"type":"diesel","price":1.899,"self":true,"updatedAt":"19/06/2026 17:48:16"}]},{"id":"3909","lat":45.80459299738234,"lon":12.880589962005615,"name":"FRATTA NORD","brand":"Agip Eni","address":"Autostrada A4 VENEZIA-TRIESTE, Km. 59.665, dir. Ovest - -, TEGLIO VENETO, VE","prices":[{"type":"petrol","price":1.969,"self":true,"updatedAt":"22/06/2026 00:16:23"},{"type":"diesel","price":2.059,"self":true,"updatedAt":"22/06/2026 00:16:23"},{"type":"lpg","price":0.917,"self":false,"updatedAt":"22/06/2026 00:16:23"}]},{"id":"21554","lat":45.81373289502277,"lon":12.886339277029037,"name":"STAZIONE DI SERVIZIO FALCOMER ALESSANDRO","brand":"Api-Ip","address":"VIA IPPOLITO NIEVO 16 30020, TEGLIO VENETO, VE","prices":[{"type":"petrol","price":1.839,"self":true,"updatedAt":"19/06/2026 18:33:08"},{"type":"diesel","price":1.919,"self":true,"updatedAt":"19/06/2026 18:33:08"}]}]