[{"id":"27721","lat":45.90404151247259,"lon":11.941783279180527,"name":"Stazione di Servizio \"ESSO\" di Martinazzo Roberto","brand":"Esso","address":"VIA DELLA VITTORIA 17/A 32031, ALANO DI PIAVE, BL","prices":[{"type":"petrol","price":1.899,"self":true,"updatedAt":"18/06/2026 18:24:58"},{"type":"diesel","price":1.999,"self":true,"updatedAt":"18/06/2026 18:24:58"}]},{"id":"20358","lat":45.983434,"lon":11.756808,"name":"CARSIE'","brand":"carsie","address":"Via Dante Alighieri 10 32030, ARSIÈ, BL","prices":[{"type":"petrol","price":1.842,"self":true,"updatedAt":"20/06/2026 08:17:44"},{"type":"diesel","price":1.852,"self":true,"updatedAt":"20/06/2026 08:17:44"}]},{"id":"32220","lat":45.91611471987569,"lon":11.941926635490631,"name":"ENI","brand":"Agip Eni","address":"Statale 348 Feltrina, Km. 46, dir. FELTRE - 32038, QUERO VAS, BL","prices":[{"type":"petrol","price":1.829,"self":true,"updatedAt":"21/06/2026 00:43:13"},{"type":"diesel","price":1.919,"self":true,"updatedAt":"21/06/2026 00:43:13"}]},{"id":"32315","lat":45.96169620356825,"lon":11.93881889274428,"name":"Samuel Annoni","brand":"Pompe Bianche","address":"Strada Provinciale 1/bis, Km. 12, dir. treviso  32038, QUERO VAS, BL","prices":[{"type":"petrol","price":1.839,"self":true,"updatedAt":"20/06/2026 11:31:18"},{"type":"diesel","price":1.869,"self":true,"updatedAt":"20/06/2026 11:31:18"}]},{"id":"23193","lat":45.936152665546125,"lon":11.930712461471558,"name":"Valli Carburanti","brand":"Pompe Bianche","address":"VIA MADONNA DEL PIAVE 1/BIS 32030, QUERO VAS, BL","prices":[{"type":"petrol","price":1.839,"self":true,"updatedAt":"20/06/2026 18:46:53"},{"type":"diesel","price":1.889,"self":true,"updatedAt":"20/06/2026 18:46:53"},{"type":"lpg","price":0.799,"self":false,"updatedAt":"20/06/2026 11:30:03"}]},{"id":"58284","lat":45.753132,"lon":11.895945,"name":"ALTIVOLE NORD","brand":"Tamoil","address":"SPV, ALTIVOLE, TV","prices":[{"type":"petrol","price":1.879,"self":true,"updatedAt":"21/06/2026 23:43:43"},{"type":"diesel","price":1.979,"self":true,"updatedAt":"21/06/2026 23:43:42"},{"type":"lpg","price":0.879,"self":false,"updatedAt":"21/06/2026 23:43:42"}]},{"id":"58283","lat":45.752135,"lon":11.896192,"name":"ALTIVOLE SUD","brand":"Tamoil","address":"SPV, ALTIVOLE, TV","prices":[{"type":"petrol","price":1.889,"self":true,"updatedAt":"21/06/2026 23:43:53"},{"type":"diesel","price":1.979,"self":true,"updatedAt":"21/06/2026 23:43:53"},{"type":"lpg","price":0.879,"self":false,"updatedAt":"21/06/2026 23:43:53"}]},{"id":"24762","lat":45.75906841166543,"lon":11.910349492209207,"name":"Dinagas S.Vito","brand":"Pompe Bianche","address":"Via Asolana - San Vito di Altivole 39 31030, ALTIVOLE, TV","prices":[{"type":"petrol","price":1.839,"self":true,"updatedAt":"17/06/2026 08:47:24"},{"type":"diesel","price":1.939,"self":true,"updatedAt":"17/06/2026 08:47:24"}]},{"id":"13290","lat":45.754988,"lon":11.961444,"name":"Italoil","brand":"Pompe Bianche","address":"Via Frà G. Veronese 1 31030, ALTIVOLE, TV","prices":[{"type":"petrol","price":1.797,"self":true,"updatedAt":"20/06/2026 12:33:15"},{"type":"diesel","price":1.897,"self":true,"updatedAt":"20/06/2026 12:33:15"}]},{"id":"58128","lat":45.78944868,"lon":11.91820176,"name":"GNP ASOLO","brand":"GNP","address":"TIZIANO 28 31011, ASOLO, TV","prices":[{"type":"petrol","price":1.797,"self":true,"updatedAt":"21/06/2026 09:48:02"},{"type":"diesel","price":1.897,"self":true,"updatedAt":"21/06/2026 09:48:02"}]},{"id":"58680","lat":45.80404851244011,"lon":11.892378330230713,"name":"Oil Italia Pagnano D'asolo","brand":"Oil Italia","address":"Via Vallorgana 1 31011, ASOLO, TV","prices":[{"type":"petrol","price":1.798,"self":true,"updatedAt":"21/06/2026 16:06:41"},{"type":"diesel","price":1.868,"self":true,"updatedAt":"21/06/2026 16:06:41"}]},{"id":"61755","lat":45.789299,"lon":11.9076,"name":"SMP ASOLO","brand":"San Marco Petroli","address":"Via Schiavonesca Marosticana 46  31011, ASOLO, TV","prices":[{"type":"petrol","price":1.899,"self":true,"updatedAt":"21/06/2026 23:49:39"},{"type":"diesel","price":1.999,"self":true,"updatedAt":"21/06/2026 23:49:39"}]},{"id":"14075","lat":45.8110431,"lon":11.9095742,"name":"SMP ZAGO FRANCESCO","brand":"San Marco Petroli","address":"VIA BASSANE 2  31011, ASOLO, TV","prices":[{"type":"petrol","price":1.829,"self":false,"updatedAt":"20/06/2026 08:22:15"},{"type":"diesel","price":1.938,"self":false,"updatedAt":"20/06/2026 08:22:15"}]},{"id":"38709","lat":45.790563339312484,"lon":11.929132690460165,"name":"STAZIONE DI SERVIZIO DI BAZZACCO MATTEO","brand":"Agip Eni","address":"VIA MONTELLO 25 31011, ASOLO, TV","prices":[{"type":"petrol","price":1.809,"self":true,"updatedAt":"22/06/2026 06:25:50"},{"type":"diesel","price":1.899,"self":true,"updatedAt":"22/06/2026 06:25:50"}]},{"id":"58102","lat":45.80724203156228,"lon":11.790378962225125,"name":"BIASION - BORSO","brand":"Pompe Bianche","address":"MOLINI 45/C 31030, BORSO DEL GRAPPA, TV","prices":[{"type":"petrol","price":1.774,"self":true,"updatedAt":"22/06/2026 07:41:58"},{"type":"diesel","price":1.854,"self":true,"updatedAt":"22/06/2026 07:41:58"}]},{"id":"53207","lat":45.760873,"lon":11.992985,"name":"6969","brand":"Tamoil","address":"PADOVA 72 31031, CAERANO DI SAN MARCO, TV","prices":[{"type":"petrol","price":1.799,"self":true,"updatedAt":"21/06/2026 23:40:01"},{"type":"diesel","price":1.879,"self":true,"updatedAt":"21/06/2026 12:30:32"}]},{"id":"11030","lat":45.787996022073244,"lon":11.993808400000034,"name":"Fabrizio Facin","brand":"Esso","address":"VIA CADORE 13 31031, CAERANO DI SAN MARCO, TV","prices":[{"type":"petrol","price":1.899,"self":true,"updatedAt":"19/06/2026 07:20:55"},{"type":"diesel","price":1.959,"self":true,"updatedAt":"19/06/2026 07:20:55"},{"type":"lpg","price":0.769,"self":false,"updatedAt":"19/06/2026 07:20:55"}]},{"id":"55726","lat":45.793493525851076,"lon":11.994124383135333,"name":"ITER02","brand":"Pompe Bianche","address":"Via Cadore 25 31031, CAERANO DI SAN MARCO, TV","prices":[{"type":"methane","price":1.559,"self":false,"updatedAt":"22/06/2026 00:34:51"}]},{"id":"24599","lat":45.83032892348926,"lon":11.884894233135242,"name":"ESSO FABBRIS MARIO","brand":"Esso","address":"Viale Trento Trieste 40 31030, CASTELCUCCO, TV","prices":[{"type":"petrol","price":1.808,"self":true,"updatedAt":"20/06/2026 08:32:06"},{"type":"diesel","price":1.899,"self":true,"updatedAt":"20/06/2026 08:32:06"}]},{"id":"56645","lat":45.82614,"lon":11.85,"name":"ZETA SERVICE SRL","brand":"Noaloil","address":"SAN GAETANO 32 31030, CASTELCUCCO, TV","prices":[{"type":"petrol","price":1.809,"self":true,"updatedAt":"18/06/2026 15:22:20"},{"type":"diesel","price":1.899,"self":true,"updatedAt":"18/06/2026 15:22:20"}]},{"id":"4409","lat":45.85742915373334,"lon":11.92984933591265,"name":"GNP CAVASO","brand":"GNP","address":"VIA VALCAVASIA 76 31034, CAVASO DEL TOMBA (TV) 76 31034, CAVASO DEL TOMBA, TV","prices":[{"type":"petrol","price":1.797,"self":true,"updatedAt":"21/06/2026 23:36:08"},{"type":"diesel","price":1.897,"self":true,"updatedAt":"21/06/2026 23:36:08"},{"type":"lpg","price":0.757,"self":false,"updatedAt":"21/06/2026 23:36:08"}]},{"id":"59553","lat":45.843757,"lon":11.989103,"name":"Service 71","brand":"Api-Ip","address":"SAN VETTORE 37 31041, CORNUDA, TV","prices":[{"type":"petrol","price":1.819,"self":true,"updatedAt":"19/06/2026 14:13:11"},{"type":"diesel","price":1.919,"self":true,"updatedAt":"19/06/2026 14:13:11"}]},{"id":"40815","lat":45.817703887492975,"lon":11.846122965216637,"name":"4676","brand":"Tamoil","address":"ASOLANA 23 31017, CRESPANO DEL GRAPPA, TV","prices":[{"type":"petrol","price":1.819,"self":true,"updatedAt":"22/06/2026 00:01:36"},{"type":"diesel","price":1.889,"self":true,"updatedAt":"22/06/2026 00:01:36"}]},{"id":"8938","lat":45.82651963381458,"lon":11.835806629430408,"name":"CRESPANO DEL GRAPPA VIA MOLINETTO","brand":"Q8","address":"VIA MOLINETTO  31017, CRESPANO DEL GRAPPA, TV","prices":[{"type":"petrol","price":1.804,"self":true,"updatedAt":"18/06/2026 01:09:42"},{"type":"diesel","price":1.896,"self":true,"updatedAt":"18/06/2026 01:09:42"}]},{"id":"22817","lat":45.80333169287907,"lon":11.86616382733905,"name":"BENDO MARIA","brand":"Noaloil","address":"DON CECCATO, 20 31010, FONTE, TV","prices":[{"type":"petrol","price":1.799,"self":true,"updatedAt":"22/06/2026 07:05:19"},{"type":"diesel","price":1.899,"self":true,"updatedAt":"22/06/2026 07:05:19"}]},{"id":"4304","lat":45.78529418775948,"lon":11.88981682062149,"name":"fonte carburanti s.n.c","brand":"Agip Eni","address":"EXTRA URBANO VIA ASOLANA 119 31010, FONTE (TV)  31010, FONTE, TV","prices":[{"type":"petrol","price":1.814,"self":true,"updatedAt":"22/06/2026 07:28:25"},{"type":"diesel","price":1.919,"self":true,"updatedAt":"22/06/2026 07:28:25"},{"type":"lpg","price":0.797,"self":false,"updatedAt":"21/06/2026 23:47:29"}]},{"id":"10186","lat":45.78517198075522,"lon":11.872872403704832,"name":"FONTE VIA ASOLANA,57","brand":"Q8","address":"VIA ASOLANA 57 31010, FONTE, TV","prices":[{"type":"petrol","price":1.804,"self":true,"updatedAt":"18/06/2026 01:09:41"},{"type":"diesel","price":1.896,"self":true,"updatedAt":"18/06/2026 01:09:41"}]},{"id":"38020","lat":45.808859270419276,"lon":11.974526032718131,"name":"EPOIL","brand":"Pompe Bianche","address":"VIA BASSANESE 13 31010, MASER, TV","prices":[{"type":"petrol","price":1.788,"self":true,"updatedAt":"22/06/2026 05:50:39"},{"type":"diesel","price":1.878,"self":true,"updatedAt":"22/06/2026 05:50:39"}]},{"id":"15714","lat":45.793051094284216,"lon":11.97240874171257,"name":"ESSO","brand":"Esso","address":"Statale 248 Schiavonesca-Marosticana, Km. 54, dir. BASSANO - 31010, MASER, TV","prices":[{"type":"petrol","price":1.829,"self":true,"updatedAt":"19/06/2026 11:24:50"},{"type":"diesel","price":1.919,"self":true,"updatedAt":"19/06/2026 11:24:50"},{"type":"lpg","price":0.779,"self":false,"updatedAt":"19/06/2026 11:24:50"}]},{"id":"55572","lat":45.8595741,"lon":11.9970411,"name":"PEDEROBBA S.S. 348 VIA FELTRINA","brand":"Q8","address":"S.S. 348 VIA FELTRINA  31040, PEDEROBBA, TV","prices":[{"type":"petrol","price":1.819,"self":true,"updatedAt":"20/06/2026 08:13:26"},{"type":"diesel","price":1.889,"self":true,"updatedAt":"20/06/2026 08:13:26"}]},{"id":"58681","lat":45.82755076211519,"lon":11.85850739479065,"name":"Oil Italia Pieve del Grappa","brand":"Oil Italia","address":"Via Vittorio Veneto 1/A 31017, PIEVE DEL GRAPPA, TV","prices":[{"type":"petrol","price":1.798,"self":true,"updatedAt":"21/06/2026 16:06:29"},{"type":"diesel","price":1.868,"self":true,"updatedAt":"21/06/2026 16:06:29"}]},{"id":"30691","lat":45.84902774382003,"lon":11.883921633337877,"name":"AG Energy Andreatta Gianluca","brand":"AG energy","address":"OLIVI 89 31054, POSSAGNO, TV","prices":[{"type":"petrol","price":1.794,"self":true,"updatedAt":"21/06/2026 22:00:23"},{"type":"diesel","price":1.894,"self":true,"updatedAt":"21/06/2026 22:00:23"}]},{"id":"38503","lat":45.75571512533561,"lon":11.849467009305954,"name":"Bravo Ca' Rainati","brand":"San Marco Petroli","address":"VIA MONTEGRAPPA 16 31020, SAN ZENONE DEGLI EZZELINI, TV","prices":[{"type":"petrol","price":1.834,"self":true,"updatedAt":"19/06/2026 15:39:47"},{"type":"diesel","price":1.894,"self":true,"updatedAt":"19/06/2026 15:39:47"}]},{"id":"31852","lat":45.77983943046171,"lon":11.849008349668111,"name":"TREVISO - VIA BELTRAMINI 3","brand":"Q8","address":"VIA BELTRAMINI  3 31020, SAN ZENONE DEGLI EZZELINI, TV","prices":[{"type":"petrol","price":1.834,"self":true,"updatedAt":"20/06/2026 08:13:27"},{"type":"diesel","price":1.919,"self":true,"updatedAt":"20/06/2026 08:13:27"},{"type":"lpg","price":0.799,"self":false,"updatedAt":"20/06/2026 08:13:27"}]},{"id":"60009","lat":45.9171411,"lon":11.9538288,"name":"SEGUSINO","brand":"Pompe Bianche","address":"VIALE ITALIA  SNC 31040, SEGUSINO, TV","prices":[{"type":"petrol","price":1.644,"self":true,"updatedAt":"22/06/2026 00:22:45"},{"type":"diesel","price":1.574,"self":true,"updatedAt":"22/06/2026 00:22:45"}]},{"id":"16909","lat":45.89707153668175,"lon":11.981125196155515,"name":"ENERGYCA","brand":"Energyca","address":"VIA GARIBALDI 196 31049, VALDOBBIADENE, TV","prices":[{"type":"petrol","price":1.848,"self":false,"updatedAt":"19/06/2026 12:28:14"},{"type":"diesel","price":1.948,"self":false,"updatedAt":"19/06/2026 12:28:14"}]},{"id":"62200","lat":45.759118700431856,"lon":11.750113977899197,"name":"BC BASSANO DEL GRAPPA","brand":"Api-Ip","address":"CA BARONCELLO 34/D 36061, BASSANO DEL GRAPPA, VI","prices":[{"type":"petrol","price":1.795,"self":true,"updatedAt":"22/06/2026 00:26:11"},{"type":"diesel","price":1.895,"self":true,"updatedAt":"22/06/2026 00:26:11"}]},{"id":"57717","lat":45.75888,"lon":11.772355,"name":"23960 CASSOLA","brand":"Agip Eni","address":"S.S. 47 VALSUGANA KM 42+600, CASSOLA, VI","prices":[{"type":"petrol","price":1.829,"self":true,"updatedAt":"22/06/2026 00:31:41"},{"type":"diesel","price":1.919,"self":true,"updatedAt":"22/06/2026 00:31:41"},{"type":"lpg","price":0.792,"self":false,"updatedAt":"22/06/2026 00:31:41"}]},{"id":"51088","lat":45.77015451526174,"lon":11.752791136748403,"name":"eni_03984","brand":"Agip Eni","address":"248 Schiavonesca-Marosticana, Km. 45, asolo  36022, CASSOLA, VI","prices":[{"type":"petrol","price":1.854,"self":true,"updatedAt":"20/06/2026 07:46:45"},{"type":"diesel","price":1.964,"self":true,"updatedAt":"20/06/2026 07:46:45"}]},{"id":"5097","lat":45.759536825176795,"lon":11.773266792297363,"name":"valsugana s.a.s.","brand":"Agip Eni","address":"SS VALSUGANA KM42+600 L.DX SNC 36022, CASSOLA, VI","prices":[{"type":"petrol","price":1.829,"self":true,"updatedAt":"21/06/2026 00:59:47"},{"type":"diesel","price":1.919,"self":true,"updatedAt":"21/06/2026 00:59:47"},{"type":"lpg","price":0.789,"self":false,"updatedAt":"21/06/2026 00:59:47"}]},{"id":"61491","lat":45.775963,"lon":11.801398,"name":"23973 MUSSOLENTE","brand":"Agip Eni","address":"VIA DANTE ALIGHIERI  8, MUSSOLENTE, VI","prices":[{"type":"petrol","price":1.784,"self":true,"updatedAt":"21/06/2026 00:52:23"},{"type":"diesel","price":1.899,"self":true,"updatedAt":"21/06/2026 00:52:23"}]},{"id":"59054","lat":45.76016741488494,"lon":11.810359880426011,"name":"BERMAX MUSSOLENTE","brand":"Pompe Bianche","address":"DANTE ALIGHIERI 81/A 36065, MUSSOLENTE, VI","prices":[{"type":"petrol","price":1.839,"self":true,"updatedAt":"18/06/2026 08:44:13"},{"type":"diesel","price":1.929,"self":true,"updatedAt":"18/06/2026 08:44:13"}]},{"id":"38200","lat":45.77814182621496,"lon":11.779614051589988,"name":"BIASION","brand":"Pompe Bianche","address":"VIA SPIN 79/A 36060, ROMANO D'EZZELINO, VI","prices":[{"type":"petrol","price":1.774,"self":true,"updatedAt":"22/06/2026 07:41:39"},{"type":"diesel","price":1.854,"self":true,"updatedAt":"22/06/2026 07:41:39"}]},{"id":"19290","lat":45.76858632207285,"lon":11.772799067459118,"name":"BORTIGNON BASSO S.R.L.","brand":"Costantin","address":"VIA BASSANESE 33/A 36060, ROMANO D'EZZELINO, VI","prices":[{"type":"petrol","price":1.795,"self":true,"updatedAt":"19/06/2026 19:40:17"},{"type":"diesel","price":1.895,"self":true,"updatedAt":"19/06/2026 19:40:17"}]},{"id":"49418","lat":45.77300107536659,"lon":11.767414212226868,"name":"GNP ROMANO D'EZZELINO","brand":"GNP","address":"VIA VIA  G. B. DE LA SALLE 23 36060, ROMANO D'EZZELINO (VI) 23 36060, ROMANO D'EZZELINO, VI","prices":[{"type":"petrol","price":1.797,"self":true,"updatedAt":"21/06/2026 10:08:02"},{"type":"diesel","price":1.897,"self":true,"updatedAt":"21/06/2026 10:08:02"}]},{"id":"61717","lat":45.79249113822866,"lon":11.756310888784583,"name":"SMP ROMANO D'EZZELINO","brand":"San Marco Petroli","address":"Via Roma 68a  36060, ROMANO D'EZZELINO, VI","prices":[{"type":"petrol","price":1.795,"self":true,"updatedAt":"22/06/2026 00:00:21"},{"type":"diesel","price":1.895,"self":true,"updatedAt":"22/06/2026 00:00:21"}]}]