[{"id":"31016","lat":46.023457852016776,"lon":11.923167931213356,"name":"3040 Feltre","brand":"Agip Eni","address":"VIA BELLUNO 40 32032, FELTRE, BL","prices":[{"type":"petrol","price":1.819,"self":true,"updatedAt":"23/06/2026 00:29:01"},{"type":"diesel","price":1.904,"self":true,"updatedAt":"23/06/2026 00:29:01"}]},{"id":"53527","lat":46.014333,"lon":11.874371,"name":"6888","brand":"Tamoil","address":"CULIADA 106 32032, FELTRE, BL","prices":[{"type":"petrol","price":1.819,"self":true,"updatedAt":"22/06/2026 13:41:05"},{"type":"diesel","price":1.899,"self":true,"updatedAt":"22/06/2026 13:41:05"}]},{"id":"46530","lat":46.01441776737191,"lon":11.910704553380924,"name":"8065","brand":"Tamoil","address":"PIAVE 5 32032, FELTRE, BL","prices":[{"type":"petrol","price":1.819,"self":true,"updatedAt":"22/06/2026 13:40:49"},{"type":"diesel","price":1.899,"self":true,"updatedAt":"22/06/2026 13:40:49"}]},{"id":"27757","lat":46.01830039382752,"lon":11.899888222000982,"name":"api","brand":"Api-Ip","address":"via xiv Agosto 2 32032, FELTRE, BL","prices":[{"type":"petrol","price":1.879,"self":true,"updatedAt":"19/06/2026 12:54:49"},{"type":"diesel","price":1.939,"self":true,"updatedAt":"19/06/2026 12:54:49"}]},{"id":"19809","lat":46.031101845851204,"lon":11.954888552427292,"name":"CUCAGAS FELTRE","brand":"Cucagas","address":"50 del Grappa e del Passo Rolle, Km. 39, FELTRE  32032, FELTRE, BL","prices":[{"type":"petrol","price":1.799,"self":true,"updatedAt":"19/06/2026 17:03:21"},{"type":"diesel","price":1.899,"self":true,"updatedAt":"19/06/2026 17:03:21"},{"type":"lpg","price":0.689,"self":false,"updatedAt":"19/06/2026 17:03:21"}]},{"id":"40844","lat":46.021437262946016,"lon":11.905965059995651,"name":"ESSO Carb. Dolomite Feltre","brand":"Esso","address":"VIA BAGNOLAS SUR CEZE 2 32032, FELTRE, BL","prices":[{"type":"petrol","price":1.809,"self":true,"updatedAt":"22/06/2026 18:28:19"},{"type":"diesel","price":1.909,"self":true,"updatedAt":"22/06/2026 18:28:19"}]},{"id":"62992","lat":46.03329,"lon":11.911998,"name":"FELTRE ITALIANA PETROLI","brand":"Api-Ip","address":"SANT ANNA 35 32032, FELTRE, BL","prices":[{"type":"petrol","price":1.839,"self":true,"updatedAt":"22/06/2026 11:31:06"},{"type":"diesel","price":1.929,"self":true,"updatedAt":"22/06/2026 11:31:06"}]},{"id":"11507","lat":46.02441862396799,"lon":11.924890029430344,"name":"FELTRE-VIA BELLUNO 52","brand":"Q8","address":"VIA BELLUNO 52 32032, FELTRE, BL","prices":[{"type":"petrol","price":1.799,"self":true,"updatedAt":"23/06/2026 01:39:39"},{"type":"diesel","price":1.889,"self":true,"updatedAt":"23/06/2026 01:39:39"}]},{"id":"11504","lat":46.018708733222496,"lon":11.889843673610699,"name":"FELTRE-VIA D.ALIGHIERI 25","brand":"Q8","address":"VIA D.ALIGHIERI 25 32032, FELTRE, BL","prices":[{"type":"petrol","price":1.819,"self":true,"updatedAt":"22/06/2026 13:04:48"},{"type":"diesel","price":1.899,"self":true,"updatedAt":"22/06/2026 13:04:48"}]},{"id":"8473","lat":46.0117282,"lon":11.9273143,"name":"Feltregas","brand":"Costantin","address":"Via Vigne Basse 3 32032, FELTRE, BL","prices":[{"type":"petrol","price":1.829,"self":true,"updatedAt":"20/06/2026 11:43:41"},{"type":"diesel","price":1.919,"self":true,"updatedAt":"20/06/2026 11:43:41"},{"type":"lpg","price":0.789,"self":false,"updatedAt":"20/06/2026 11:43:41"}]},{"id":"59267","lat":46.00260033778431,"lon":11.826321320443547,"name":"BEYFIN","brand":"Beyfin","address":"Via Fenadora 2  32030, FONZASO, BL","prices":[{"type":"petrol","price":1.829,"self":true,"updatedAt":"22/06/2026 10:41:32"},{"type":"diesel","price":1.859,"self":true,"updatedAt":"22/06/2026 10:41:32"},{"type":"methane","price":1.599,"self":false,"updatedAt":"22/06/2026 10:41:32"},{"type":"lpg","price":0.769,"self":false,"updatedAt":"22/06/2026 10:41:32"}]},{"id":"50945","lat":46.02039884792398,"lon":11.786419078124636,"name":"PV. FONZASO - ITALIANA PETROLI","brand":"Api-Ip","address":"PRIMIERO 46 32030, FONZASO, BL","prices":[{"type":"petrol","price":1.879,"self":true,"updatedAt":"22/06/2026 16:54:31"},{"type":"diesel","price":1.939,"self":true,"updatedAt":"22/06/2026 16:54:31"}]},{"id":"60080","lat":46.00988437412643,"lon":11.796980469620545,"name":"Telo Combustibili","brand":"Pompe Bianche","address":"Via Angelo Zucco 35 32030, FONZASO, BL","prices":[{"type":"petrol","price":1.784,"self":true,"updatedAt":"23/06/2026 07:29:36"},{"type":"diesel","price":1.848,"self":true,"updatedAt":"23/06/2026 07:29:36"},{"type":"lpg","price":0.759,"self":false,"updatedAt":"23/06/2026 07:29:36"}]},{"id":"18346","lat":46.03151133582518,"lon":11.757185608148575,"name":"TROVATORI SERGIO","brand":"AZZALINI ENERGIE","address":"VIA PIAN DEL VESCO 92 32033, LAMON, BL","prices":[{"type":"petrol","price":1.839,"self":true,"updatedAt":"22/06/2026 20:58:08"},{"type":"diesel","price":1.879,"self":true,"updatedAt":"22/06/2026 20:58:08"}]},{"id":"40845","lat":46.03655494553412,"lon":11.882462203502655,"name":"ESSO Carb.Dolomite Pedavena","brand":"Esso","address":"VIALE VITTORIO VENETO 80 32034, PEDAVENA, BL","prices":[{"type":"petrol","price":1.829,"self":true,"updatedAt":"20/06/2026 09:50:43"},{"type":"diesel","price":1.929,"self":true,"updatedAt":"20/06/2026 09:50:43"}]},{"id":"8987","lat":46.14538761903037,"lon":11.785575449466705,"name":"MASI SAS DI BETTEGA IDA E C.","brand":"Q8","address":"LOCALITA' I MASI 3/C 38050, IMER, TN","prices":[{"type":"petrol","price":1.869,"self":true,"updatedAt":"18/06/2026 08:08:37"},{"type":"diesel","price":1.979,"self":true,"updatedAt":"18/06/2026 08:08:37"}]},{"id":"22008","lat":46.15675482619368,"lon":11.815415193447734,"name":"CARBURANTI DOLOMITI","brand":"Pompe Bianche","address":"Statale 50 del Grappa e del Passo Rolle, Km. 69,520, dir. Est - 38050, MEZZANO, TN","prices":[{"type":"petrol","price":1.829,"self":true,"updatedAt":"23/06/2026 06:39:07"},{"type":"diesel","price":1.929,"self":true,"updatedAt":"23/06/2026 06:39:07"}]},{"id":"60953","lat":46.182056,"lon":11.831672,"name":"3500  PRIMIERO S. MARTINO DI CASTROZZA","brand":"Agip Eni","address":"S.S. N.50 KM.72+940  S.N.c, PRIMIERO SAN MARTINO DI CASTROZZA, TN","prices":[{"type":"petrol","price":1.829,"self":true,"updatedAt":"23/06/2026 00:27:48"},{"type":"diesel","price":1.919,"self":true,"updatedAt":"23/06/2026 00:27:48"}]},{"id":"56088","lat":46.1721635412723,"lon":11.82626724243164,"name":"ESSO 106029","brand":"Esso","address":"Viale Piave, PRIMIERO SAN MARTINO DI CASTROZZA, TN","prices":[{"type":"petrol","price":1.819,"self":true,"updatedAt":"22/06/2026 18:55:54"},{"type":"diesel","price":1.919,"self":true,"updatedAt":"22/06/2026 18:55:54"}]}]