[{"id":"62429","lat":46.24023,"lon":11.20656,"name":"3174 SALORNO","brand":"Agip Eni","address":"VIA NAZIONALE,  42, SALORNO SULLA STRADA DEL VINO, BZ","prices":[{"type":"petrol","price":1.829,"self":true,"updatedAt":"25/06/2026 00:49:41"},{"type":"diesel","price":1.899,"self":true,"updatedAt":"26/06/2026 07:50:18"}]},{"id":"62175","lat":46.2457747,"lon":11.211943,"name":"FIRMIN","brand":"Firmin","address":"Via nazionale 9/8 39040, SALORNO SULLA STRADA DEL VINO, BZ","prices":[{"type":"petrol","price":1.829,"self":true,"updatedAt":"24/06/2026 17:26:22"},{"type":"diesel","price":1.919,"self":true,"updatedAt":"24/06/2026 17:26:22"},{"type":"methane","price":1.499,"self":false,"updatedAt":"24/06/2026 17:26:22"},{"type":"lpg","price":0.999,"self":false,"updatedAt":"24/06/2026 17:26:22"}]},{"id":"56604","lat":46.00045150733783,"lon":11.207990304904115,"name":"AUTOFFICINA SIMONI MARIANO","brand":"Api-Ip","address":"LOCALITA' SALETTI 33 38049, ALTOPIANO DELLA VIGOLANA, TN","prices":[{"type":"petrol","price":1.799,"self":true,"updatedAt":"25/06/2026 00:28:42"},{"type":"diesel","price":1.879,"self":true,"updatedAt":"25/06/2026 18:10:09"}]},{"id":"16802","lat":46.00225282489201,"lon":11.199835985898972,"name":"TOTAL ZAMBONI","brand":"Api-Ip","address":"DELLA FRICCA 50/52 38049, ALTOPIANO DELLA VIGOLANA, TN","prices":[{"type":"petrol","price":1.799,"self":true,"updatedAt":"25/06/2026 19:02:41"},{"type":"diesel","price":1.879,"self":true,"updatedAt":"25/06/2026 19:02:41"}]},{"id":"58344","lat":46.167816,"lon":11.004485,"name":"3533 ANDALO","brand":"Agip Eni","address":"SS N.421 KM.14+635  S.N.C, ANDALO, TN","prices":[{"type":"petrol","price":1.829,"self":true,"updatedAt":"26/06/2026 00:01:26"},{"type":"diesel","price":1.899,"self":true,"updatedAt":"26/06/2026 07:51:30"}]},{"id":"7554","lat":46.12869368471671,"lon":11.237956881523132,"name":"AVI LUCA & C SAS","brand":"Esso","address":"FRAZIONE TRESSILLA  38042, BASELGA DI PINÈ, TN","prices":[{"type":"petrol","price":1.809,"self":true,"updatedAt":"25/06/2026 23:55:30"},{"type":"diesel","price":1.899,"self":true,"updatedAt":"25/06/2026 23:55:30"}]},{"id":"53134","lat":46.00380486526529,"lon":11.243863838268231,"name":"DELTA ENERGY SRL - Calceranica","brand":"Delta energy","address":"DEGLI ALPINI 5 38050, CALCERANICA AL LAGO, TN","prices":[{"type":"petrol","price":1.799,"self":true,"updatedAt":"26/06/2026 01:17:07"},{"type":"diesel","price":1.879,"self":true,"updatedAt":"26/06/2026 01:17:04"}]},{"id":"4404","lat":46.00105323775606,"lon":11.245988562585918,"name":"GNP CALCERANICA","brand":"GNP","address":"CORSO DEGLI ALPINI 44 38050, CALCERANICA AL LAGO (TN) 20 38050, CALCERANICA AL LAGO, TN","prices":[{"type":"petrol","price":1.797,"self":true,"updatedAt":"25/06/2026 10:32:19"},{"type":"diesel","price":1.877,"self":true,"updatedAt":"25/06/2026 10:32:19"}]},{"id":"54395","lat":46.19079170915306,"lon":11.041523685790521,"name":"CRISTOFORETTI SPA - CAVEDAGO","brand":"Cristoforetti","address":"STATALE N.421 KM 8+802 SN 38010, CAVEDAGO, TN","prices":[{"type":"petrol","price":1.818,"self":true,"updatedAt":"25/06/2026 08:54:32"},{"type":"diesel","price":1.898,"self":true,"updatedAt":"25/06/2026 08:54:32"}]},{"id":"26213","lat":46.17660950740868,"lon":11.223698117951812,"name":"Gottardi Romano e f.lli Snc","brand":"Pompe Bianche","address":"VIA 4 NOVEMBRE 63 38034, CEMBRA, TN","prices":[{"type":"petrol","price":1.839,"self":true,"updatedAt":"23/06/2026 05:12:21"},{"type":"diesel","price":1.919,"self":true,"updatedAt":"23/06/2026 05:12:21"}]},{"id":"23892","lat":46.088394,"lon":11.1843348,"name":"Fronza Andrea & C. snc ENI","brand":"Agip Eni","address":"STRADA ALLA FERSINA 17 38045, CIVEZZANO, TN","prices":[{"type":"petrol","price":1.789,"self":true,"updatedAt":"25/06/2026 00:24:25"},{"type":"diesel","price":1.864,"self":true,"updatedAt":"25/06/2026 00:24:25"}]},{"id":"19084","lat":46.18644147852456,"lon":11.07420802116394,"name":"Distributore Tamoil","brand":"Tamoil","address":"VIA TRENTO 14 38010, FAI DELLA PAGANELLA, TN","prices":[{"type":"petrol","price":1.889,"self":true,"updatedAt":"22/06/2026 14:35:05"},{"type":"diesel","price":1.999,"self":true,"updatedAt":"22/06/2026 14:35:05"}]},{"id":"14990","lat":46.14637132734585,"lon":11.099279665431823,"name":"DISTRIBUTORE ESSO","brand":"Esso","address":"VIA NAZIONALE 49 38015, LAVIS (TN) 49 38015, LAVIS, TN","prices":[{"type":"petrol","price":1.799,"self":true,"updatedAt":"25/06/2026 11:40:15"},{"type":"diesel","price":1.899,"self":true,"updatedAt":"25/06/2026 11:40:15"}]},{"id":"50465","lat":46.16770479979578,"lon":11.114673676549973,"name":"IP 43991","brand":"Api-Ip","address":"FRAZIONE NAVE SAN FELICE 65 38015, LAVIS, TN","prices":[{"type":"petrol","price":1.899,"self":true,"updatedAt":"23/06/2026 07:14:04"},{"type":"diesel","price":1.969,"self":true,"updatedAt":"23/06/2026 07:14:04"}]},{"id":"44940","lat":46.13886286705473,"lon":11.102129146456718,"name":"lucchi service","brand":"Agip Eni","address":"Strada Statale, Km. SP 95 KM5.01, lavis  38015, LAVIS, TN","prices":[{"type":"petrol","price":1.83,"self":true,"updatedAt":"25/06/2026 01:08:56"},{"type":"diesel","price":1.919,"self":true,"updatedAt":"25/06/2026 01:08:56"}]},{"id":"48237","lat":46.14155291325776,"lon":11.087307504299154,"name":"PAGANELLA EST","brand":"Tamoil","address":"A22 BRENNERO-MODENA, Km. 127,91, BRENNERO - 38015, LAVIS, TN","prices":[{"type":"petrol","price":1.887,"self":true,"updatedAt":"25/06/2026 08:32:15"},{"type":"diesel","price":1.957,"self":true,"updatedAt":"25/06/2026 08:32:15"},{"type":"methane","price":1.399,"self":false,"updatedAt":"25/06/2026 23:27:36"},{"type":"lpg","price":0.999,"self":false,"updatedAt":"25/06/2026 23:27:36"}]},{"id":"58798","lat":46.1408299,"lon":11.1053648,"name":"PETROLVILLA S.R.L.","brand":"Pompe Bianche","address":"Via Giuseppe Clementi 47 38015, LAVIS, TN","prices":[{"type":"petrol","price":1.788,"self":true,"updatedAt":"24/06/2026 16:50:26"},{"type":"diesel","price":1.858,"self":true,"updatedAt":"24/06/2026 16:50:26"}]},{"id":"27626","lat":46.15526099464384,"lon":11.103313688980847,"name":"STAZIONE SERVIZIO Q8 LAVIS","brand":"Q8","address":"NAZIONALE 160 38015, LAVIS, TN","prices":[{"type":"petrol","price":1.839,"self":true,"updatedAt":"24/06/2026 09:20:53"},{"type":"diesel","price":1.879,"self":true,"updatedAt":"24/06/2026 09:20:53"}]},{"id":"9741","lat":46.150380690516826,"lon":11.222516745328903,"name":"CASAGRANDA BRUNO E C.","brand":"Esso","address":"VIA NAZIONALE 61 38040, LONA-LASES, TN","prices":[{"type":"petrol","price":1.809,"self":true,"updatedAt":"24/06/2026 10:01:41"},{"type":"diesel","price":1.899,"self":true,"updatedAt":"24/06/2026 10:01:41"},{"type":"lpg","price":0.835,"self":false,"updatedAt":"24/06/2026 10:01:41"}]},{"id":"21404","lat":46.20703803655159,"lon":11.127630919218063,"name":"DISTRIBUTORE DA GREG DI LAMUSTA GREGORIO","brand":"Q8","address":"PIAZZA TRENTO 33 38016, MEZZOCORONA, TN","prices":[{"type":"petrol","price":1.819,"self":true,"updatedAt":"25/06/2026 08:20:04"},{"type":"diesel","price":1.899,"self":true,"updatedAt":"25/06/2026 08:20:04"}]},{"id":"48698","lat":46.212356784082736,"lon":11.123195271163926,"name":"Eni","brand":"Agip Eni","address":"CORSO IV NOVEMBRE 69 38016, MEZZOCORONA, TN","prices":[{"type":"petrol","price":1.829,"self":true,"updatedAt":"26/06/2026 00:12:00"},{"type":"diesel","price":1.919,"self":true,"updatedAt":"26/06/2026 00:12:00"}]},{"id":"40670","lat":46.209788175748216,"lon":11.094104051589966,"name":"Distributotore Eni snc di Gjeka Alban & c.","brand":"Agip Eni","address":"Statale 43 della Val di Non, Km. 26+750, dir. Cles - 38017, MEZZOLOMBARDO, TN","prices":[{"type":"petrol","price":1.859,"self":true,"updatedAt":"26/06/2026 00:09:15"},{"type":"diesel","price":1.919,"self":true,"updatedAt":"26/06/2026 00:09:15"}]},{"id":"26165","lat":46.21539045825736,"lon":11.08884483575821,"name":"ESSO DALLA TORRE LUCIA","brand":"Esso","address":"VIA IV NOVEMBRE 52 38017, MEZZOLOMBARDO, TN","prices":[{"type":"petrol","price":1.799,"self":true,"updatedAt":"25/06/2026 11:59:14"},{"type":"diesel","price":1.899,"self":true,"updatedAt":"25/06/2026 11:59:14"}]},{"id":"11846","lat":46.21633875465665,"lon":11.087769737434428,"name":"MEZZOLOMBARDO-VIA CAVALLEGGERI UDINE 13","brand":"Q8","address":"VIA CAVALLEGGERI UDINE 13 38017, MEZZOLOMBARDO, TN","prices":[{"type":"petrol","price":1.799,"self":true,"updatedAt":"26/06/2026 07:44:40"},{"type":"diesel","price":1.919,"self":true,"updatedAt":"26/06/2026 07:44:40"}]},{"id":"57576","lat":46.0685,"lon":11.22533,"name":"13546 Pergine Valsugana","brand":"Agip Eni","address":"VIA DANTE S.P. 243, PERGINE VALSUGANA, TN","prices":[{"type":"petrol","price":1.829,"self":true,"updatedAt":"25/06/2026 00:06:45"},{"type":"diesel","price":1.899,"self":true,"updatedAt":"26/06/2026 07:51:37"}]},{"id":"35326","lat":46.058342794307904,"lon":11.23103109661713,"name":"A.D.S EST CASTEL DI PERGINE 2000 S.A.S.","brand":"Esso","address":"SUPERSTRADA DELLA VALSUGANA  38057, PERGINE VALSUGANA, TN","prices":[{"type":"petrol","price":1.799,"self":true,"updatedAt":"25/06/2026 00:06:04"},{"type":"diesel","price":1.879,"self":true,"updatedAt":"25/06/2026 10:42:01"}]},{"id":"5081","lat":46.0451945756539,"lon":11.235035111084017,"name":"Casagrande & C snc","brand":"Api-Ip","address":"VIA LOC.CANALE SS 47 KM.117+870 S.N. 38057, PERGINE VALSUGANA (TN)  38057, PERGINE VALSUGANA, TN","prices":[{"type":"petrol","price":1.759,"self":true,"updatedAt":"25/06/2026 17:44:00"},{"type":"diesel","price":1.859,"self":true,"updatedAt":"25/06/2026 17:44:00"},{"type":"lpg","price":0.789,"self":false,"updatedAt":"25/06/2026 23:26:06"}]},{"id":"48430","lat":46.05855235010231,"lon":11.230235176996425,"name":"Chesani Monica","brand":"Q8","address":"47 della Valsugana, Km. 119+425, ovest  38057, PERGINE VALSUGANA, TN","prices":[{"type":"petrol","price":1.799,"self":true,"updatedAt":"25/06/2026 11:52:58"},{"type":"diesel","price":1.879,"self":true,"updatedAt":"25/06/2026 11:52:58"}]},{"id":"58461","lat":46.06489,"lon":11.2465,"name":"COSTANTIN","brand":"Costantin","address":"SPOLVERINE 54 38057, PERGINE VALSUGANA, TN","prices":[{"type":"petrol","price":1.779,"self":true,"updatedAt":"25/06/2026 09:54:31"},{"type":"diesel","price":1.879,"self":true,"updatedAt":"25/06/2026 09:54:31"}]},{"id":"49111","lat":46.076284056145035,"lon":11.20654894447239,"name":"ENI","brand":"Agip Eni","address":"VIA PER TRENTO 13 38057, PERGINE VALSUGANA, TN","prices":[{"type":"petrol","price":1.83,"self":true,"updatedAt":"26/06/2026 00:12:45"},{"type":"diesel","price":1.919,"self":true,"updatedAt":"26/06/2026 00:12:45"},{"type":"lpg","price":0.847,"self":false,"updatedAt":"26/06/2026 00:12:45"}]},{"id":"4405","lat":46.04901172777324,"lon":11.235271990299225,"name":"GNP PERGINE","brand":"GNP","address":"VIA AL LAGO 27/A 38057, PERGINE VALSUGANA (TN) 15 38057, PERGINE VALSUGANA, TN","prices":[{"type":"petrol","price":1.797,"self":true,"updatedAt":"25/06/2026 00:54:17"},{"type":"diesel","price":1.897,"self":true,"updatedAt":"25/06/2026 00:54:17"}]},{"id":"6832","lat":46.05578720155284,"lon":11.236046356414022,"name":"PERGINE VALSUGANA VIA AL LAGO 2","brand":"Q8","address":"VIA AL LAGO 2 38057, PERGINE VALSUGANA, TN","prices":[{"type":"petrol","price":1.769,"self":true,"updatedAt":"26/06/2026 01:40:20"},{"type":"diesel","price":1.859,"self":true,"updatedAt":"26/06/2026 01:40:20"}]},{"id":"55021","lat":46.187725,"lon":11.127199,"name":"13513 San Michele all’Adige","brand":"Agip Eni","address":"Via Brennero, 8, SAN MICHELE ALL'ADIGE, TN","prices":[{"type":"petrol","price":1.829,"self":true,"updatedAt":"25/06/2026 01:19:31"},{"type":"diesel","price":1.854,"self":true,"updatedAt":"26/06/2026 07:48:59"},{"type":"lpg","price":0.857,"self":false,"updatedAt":"25/06/2026 00:22:50"}]},{"id":"38508","lat":46.07032570867381,"lon":11.11626199717216,"name":"Stazione Eni .di Detone Oscar","brand":"Agip Eni","address":"lung'adige Leopardi Giacomo 105 38122, TRENTO, TN","prices":[{"type":"petrol","price":1.829,"self":true,"updatedAt":"26/06/2026 00:12:32"},{"type":"diesel","price":1.919,"self":true,"updatedAt":"26/06/2026 00:12:32"}]},{"id":"57856","lat":46.038773,"lon":11.123187,"name":"13492 TRENTO","brand":"Agip Eni","address":"TANGENZIALE SUD  4/6, TRENTO, TN","prices":[{"type":"petrol","price":1.829,"self":true,"updatedAt":"25/06/2026 00:45:25"},{"type":"diesel","price":1.899,"self":true,"updatedAt":"26/06/2026 07:58:33"},{"type":"methane","price":1.468,"self":false,"updatedAt":"25/06/2026 00:45:25"}]},{"id":"59374","lat":46.080467,"lon":11.122093,"name":"3524  TRENTO","brand":"Agip Eni","address":"Via del Brennero 154  38121, TRENTO, TN","prices":[{"type":"petrol","price":1.789,"self":true,"updatedAt":"25/06/2026 00:44:33"},{"type":"diesel","price":1.854,"self":true,"updatedAt":"25/06/2026 00:44:33"}]},{"id":"30110","lat":46.048068928689354,"lon":11.13768383860588,"name":"AGIP","brand":"Agip Eni","address":"Localita Cenidor di Villazzano 61 38123, TRENTO, TN","prices":[{"type":"petrol","price":1.86,"self":true,"updatedAt":"25/06/2026 01:08:22"},{"type":"diesel","price":1.949,"self":true,"updatedAt":"25/06/2026 01:08:22"}]},{"id":"37656","lat":46.00757519604094,"lon":11.127074360847473,"name":"AREA DI SERVIZIO SHELL - MATTARELLO","brand":"Shell","address":"VIA NAZIONALE 31 38123, TRENTO, TN","prices":[{"type":"petrol","price":1.849,"self":true,"updatedAt":"24/06/2026 12:25:49"},{"type":"diesel","price":1.949,"self":true,"updatedAt":"24/06/2026 12:25:49"}]},{"id":"42942","lat":46.07982127894178,"lon":11.040608364418063,"name":"ARENA EDOARDO","brand":"Agip Eni","address":"STRADA DI VIGOLO BASELGA 16 38123, TRENTO, TN","prices":[{"type":"petrol","price":1.829,"self":true,"updatedAt":"25/06/2026 01:23:59"},{"type":"diesel","price":1.919,"self":true,"updatedAt":"25/06/2026 01:23:59"}]},{"id":"35914","lat":46.089442459147385,"lon":11.123458743095398,"name":"DELTA ENERGY SRL - TRENTO EST","brand":"Delta energy","address":"BASSANO 8 38121, TRENTO, TN","prices":[{"type":"petrol","price":1.769,"self":true,"updatedAt":"26/06/2026 01:16:56"},{"type":"diesel","price":1.839,"self":true,"updatedAt":"26/06/2026 01:16:58"}]},{"id":"46740","lat":46.116292448876415,"lon":11.08949065542106,"name":"DELTA ENERGY SRL - TRENTO NORD","brand":"Delta energy","address":"DI SPINI 1 38121, TRENTO, TN","prices":[{"type":"petrol","price":1.769,"self":true,"updatedAt":"26/06/2026 01:17:11"},{"type":"diesel","price":1.839,"self":true,"updatedAt":"26/06/2026 01:17:14"},{"type":"methane","price":1.399,"self":false,"updatedAt":"25/06/2026 12:06:47"},{"type":"lpg","price":0.779,"self":false,"updatedAt":"26/06/2026 07:56:41"}]},{"id":"13470","lat":46.04456395365547,"lon":11.1308439674591,"name":"eni","brand":"Agip Eni","address":"VIALE VERONA 210 38100, TRENTO, TN","prices":[{"type":"petrol","price":1.829,"self":true,"updatedAt":"25/06/2026 23:12:25"},{"type":"diesel","price":1.909,"self":true,"updatedAt":"25/06/2026 23:12:25"}]},{"id":"10056","lat":46.131198450632496,"lon":11.11009731888771,"name":"Eni","brand":"Agip Eni","address":"Statale 12 dell'Abetone e del Brennero, Km. 385 +955, dir. Sud - -, TRENTO, TN","prices":[{"type":"petrol","price":1.829,"self":true,"updatedAt":"25/06/2026 00:43:23"},{"type":"diesel","price":1.919,"self":true,"updatedAt":"25/06/2026 00:43:23"},{"type":"lpg","price":0.852,"self":false,"updatedAt":"25/06/2026 00:43:23"}]},{"id":"23951","lat":46.11271141696043,"lon":11.106912037295501,"name":"ESSO","brand":"Esso","address":"Statale 12 dell'Abetone e del Brennero, Km. 153, dir. Trento - 38014, TRENTO, TN","prices":[{"type":"petrol","price":1.799,"self":true,"updatedAt":"25/06/2026 18:15:24"},{"type":"diesel","price":1.899,"self":true,"updatedAt":"25/06/2026 18:15:24"}]},{"id":"61595","lat":46.00362259074947,"lon":11.12628310918808,"name":"ESSO MATARELLO","brand":"Esso","address":"NAZIONALE 136 38123, TRENTO, TN","prices":[{"type":"petrol","price":1.799,"self":true,"updatedAt":"25/06/2026 10:59:55"},{"type":"diesel","price":1.899,"self":true,"updatedAt":"25/06/2026 10:59:55"}]},{"id":"57152","lat":46.0751259,"lon":11.1214856,"name":"IMPIANTO ACI/PETROLVILLA","brand":"Pompe Bianche","address":"Via Francesco Petrarca 1/8 38122, TRENTO, TN","prices":[{"type":"petrol","price":1.738,"self":true,"updatedAt":"24/06/2026 16:30:24"},{"type":"diesel","price":1.81,"self":true,"updatedAt":"24/06/2026 16:30:24"}]},{"id":"15587","lat":46.04235047394073,"lon":11.112919459524505,"name":"Impianto Eni di Boller Alessandro","brand":"Agip Eni","address":"VIA DEL PONTE 29 38123, TRENTO, TN","prices":[{"type":"petrol","price":1.829,"self":true,"updatedAt":"26/06/2026 00:15:37"},{"type":"diesel","price":1.909,"self":true,"updatedAt":"26/06/2026 00:15:37"}]},{"id":"44791","lat":46.08698444177268,"lon":11.105339802238404,"name":"JELENA BIJEDIC","brand":"Q8","address":"VIA DI CAMPOTRENTINO 4 38121, TRENTO, TN","prices":[{"type":"petrol","price":1.829,"self":true,"updatedAt":"26/06/2026 05:57:18"},{"type":"diesel","price":1.899,"self":true,"updatedAt":"26/06/2026 05:57:18"},{"type":"lpg","price":0.799,"self":true,"updatedAt":"26/06/2026 05:57:18"}]},{"id":"41669","lat":46.09042575420319,"lon":11.116338216532881,"name":"LUCA NICOLUSSI PAOLAZ","brand":"Api-Ip","address":"VIA BRENNERO 304 38121, TRENTO, TN","prices":[{"type":"petrol","price":1.759,"self":true,"updatedAt":"26/06/2026 00:16:30"},{"type":"diesel","price":1.839,"self":true,"updatedAt":"26/06/2026 00:16:30"}]},{"id":"50751","lat":46.08722788331091,"lon":11.110926149427339,"name":"NIMA s.a.s","brand":"Agip Eni","address":"via maccani 157 38121, TRENTO, TN","prices":[{"type":"petrol","price":1.829,"self":true,"updatedAt":"25/06/2026 23:35:09"},{"type":"diesel","price":1.909,"self":true,"updatedAt":"25/06/2026 14:02:06"}]},{"id":"51566","lat":46.14059488663639,"lon":11.085758358695138,"name":"PAGANELLA OVEST","brand":"Agip Eni","address":"Autostrada A22 BRENNERO-MODENA, dir. Direzione Ovest, TRENTO, TN","prices":[{"type":"petrol","price":1.919,"self":true,"updatedAt":"25/06/2026 00:40:17"},{"type":"diesel","price":2.013,"self":true,"updatedAt":"25/06/2026 00:40:16"},{"type":"methane","price":1.511,"self":false,"updatedAt":"25/06/2026 00:40:17"},{"type":"lpg","price":0.925,"self":false,"updatedAt":"25/06/2026 00:40:17"}]},{"id":"52071","lat":46.046770664392845,"lon":11.13093442638933,"name":"PV6963 Tamoil Trento","brand":"Tamoil","address":"VIALE VERONA 196 38123, TRENTO, TN","prices":[{"type":"petrol","price":1.779,"self":false,"updatedAt":"25/06/2026 23:36:44"},{"type":"diesel","price":1.849,"self":false,"updatedAt":"25/06/2026 23:36:44"},{"type":"lpg","price":0.779,"self":false,"updatedAt":"25/06/2026 23:36:44"}]},{"id":"38539","lat":46.0690367564293,"lon":11.13630226375426,"name":"Q8 DIDO SNC","brand":"Q8","address":"VIA VENEZIA  99 38122, TRENTO, TN","prices":[{"type":"petrol","price":1.819,"self":true,"updatedAt":"26/06/2026 07:48:44"},{"type":"diesel","price":1.899,"self":true,"updatedAt":"26/06/2026 07:48:44"}]},{"id":"23991","lat":46.07310947299625,"lon":11.05819361534418,"name":"Q8 Distributore Carburante","brand":"Q8","address":"STRADA DI SPINEDA 5 38123, TRENTO, TN","prices":[{"type":"petrol","price":1.789,"self":true,"updatedAt":"23/06/2026 10:07:38"},{"type":"diesel","price":1.889,"self":true,"updatedAt":"23/06/2026 10:07:38"}]},{"id":"31394","lat":46.04802508802456,"lon":11.113733053207397,"name":"STAZIONE DI SERVIZIO ESSO DI DEMATTE' OSCAR E UBER LORENZO S.N.C","brand":"Esso","address":"VIA SANSEVERINO 155 38123, TRENTO, TN","prices":[{"type":"petrol","price":1.759,"self":true,"updatedAt":"26/06/2026 07:52:43"},{"type":"diesel","price":1.849,"self":true,"updatedAt":"26/06/2026 07:52:43"}]},{"id":"25451","lat":46.057543750863736,"lon":11.12816870212555,"name":"stazione esso viale verona s.n.c di oscar demattè e andrea pedrotti","brand":"Esso","address":"viale verona  n 21, 38123 - -, TRENTO, TN","prices":[{"type":"petrol","price":1.799,"self":true,"updatedAt":"26/06/2026 07:53:08"},{"type":"diesel","price":1.899,"self":true,"updatedAt":"26/06/2026 07:53:08"}]},{"id":"36393","lat":46.08238617090478,"lon":11.115481823313985,"name":"stazione servizio eni","brand":"Agip Eni","address":"VIA MACCANI  46 38121, TRENTO, TN","prices":[{"type":"petrol","price":1.827,"self":true,"updatedAt":"25/06/2026 10:34:10"},{"type":"diesel","price":1.862,"self":true,"updatedAt":"25/06/2026 10:34:10"}]},{"id":"23645","lat":46.074201463767345,"lon":11.124683218580913,"name":"tarter e accurti staz.esso","brand":"Esso","address":"VIA MANZONI 4 38122, TRENTO, TN","prices":[{"type":"petrol","price":1.799,"self":true,"updatedAt":"23/06/2026 13:38:24"},{"type":"diesel","price":1.879,"self":true,"updatedAt":"23/06/2026 13:38:24"}]},{"id":"51499","lat":46.070536684617466,"lon":11.110958447451246,"name":"TASIN ANITA AREA SERVIZIO Q8","brand":"Q8","address":"TANGENZIALE OVEST 3 CAMPOTRENTINO EST  - 38121, TRENTO, TN","prices":[{"type":"petrol","price":1.829,"self":true,"updatedAt":"25/06/2026 13:59:16"},{"type":"diesel","price":1.909,"self":true,"updatedAt":"25/06/2026 13:59:16"},{"type":"lpg","price":0.799,"self":false,"updatedAt":"25/06/2026 13:59:16"}]},{"id":"24259","lat":46.07711488496547,"lon":11.113970495700869,"name":"TRENTO - LIVIO DRUSO","brand":"Api-Ip","address":"VIA LIVIO DRUSO  38122, TRENTO, TN","prices":[{"type":"petrol","price":1.759,"self":true,"updatedAt":"25/06/2026 09:04:42"},{"type":"diesel","price":1.839,"self":true,"updatedAt":"25/06/2026 11:03:13"}]},{"id":"22133","lat":46.06434280419058,"lon":11.119818775463045,"name":"TRENTO - TRAVAI","brand":"Api-Ip","address":"VIA DEL TRAVAI 2 38122, TRENTO, TN","prices":[{"type":"petrol","price":1.759,"self":true,"updatedAt":"25/06/2026 09:09:53"},{"type":"diesel","price":1.839,"self":true,"updatedAt":"25/06/2026 11:07:03"}]},{"id":"6824","lat":46.09996612127374,"lon":11.111742854118347,"name":"Trento Gardolo","brand":"Q8","address":"12 dell'Abetone e del Brennero, Km. 382+300, NORD - 38121, TRENTO, TN","prices":[{"type":"petrol","price":1.769,"self":true,"updatedAt":"25/06/2026 00:45:03"},{"type":"diesel","price":1.849,"self":true,"updatedAt":"25/06/2026 00:45:03"}]},{"id":"55311","lat":46.0959,"lon":11.0974999,"name":"TRENTO INTERPORTO","brand":"Agip Eni","address":"DELL'INTERPORTO 8 38121, TRENTO, TN","prices":[{"type":"petrol","price":1.829,"self":true,"updatedAt":"25/06/2026 00:46:29"},{"type":"diesel","price":1.899,"self":true,"updatedAt":"25/06/2026 00:46:29"},{"type":"methane","price":1.499,"self":false,"updatedAt":"25/06/2026 00:46:29"},{"type":"lpg","price":0.789,"self":false,"updatedAt":"25/06/2026 00:46:29"}]},{"id":"28667","lat":46.06891884358758,"lon":11.136522989549235,"name":"TRENTO VIA VENEZIA 38","brand":"Q8","address":"VIA VENEZIA 38 38100, TRENTO, TN","prices":[{"type":"petrol","price":1.759,"self":true,"updatedAt":"26/06/2026 01:40:19"},{"type":"diesel","price":1.829,"self":true,"updatedAt":"26/06/2026 01:40:19"}]},{"id":"11849","lat":46.070525566346056,"lon":11.110860525131216,"name":"TRENTO-VIA BRESCIA 27","brand":"Q8","address":"VIA BRESCIA 27 38122, TRENTO, TN","prices":[{"type":"petrol","price":1.759,"self":true,"updatedAt":"25/06/2026 01:41:22"},{"type":"diesel","price":1.829,"self":true,"updatedAt":"25/06/2026 01:41:22"}]}]