[{"id":"49174","lat":46.05164802769272,"lon":12.603345513343806,"name":"02508 ESSO AVIANO","brand":"Esso","address":"SP 7 - km.6+874 dx -   33081, AVIANO, PN","prices":[{"type":"petrol","price":1.809,"self":true,"updatedAt":"28/06/2026 00:23:42"},{"type":"diesel","price":1.879,"self":true,"updatedAt":"27/06/2026 00:01:44"}]},{"id":"59409","lat":46.038002,"lon":12.614286,"name":"58099  AVIANO","brand":"Agip Eni","address":"VIA PORDENONE  95 97, AVIANO, PN","prices":[{"type":"petrol","price":1.809,"self":true,"updatedAt":"28/06/2026 00:55:01"},{"type":"diesel","price":1.889,"self":true,"updatedAt":"28/06/2026 00:55:01"}]},{"id":"9001","lat":46.06301566518978,"lon":12.597664688885516,"name":"AVIANO PORDENONE,63","brand":"Q8","address":"VIA PORDENONE 63 33081, AVIANO, PN","prices":[{"type":"petrol","price":1.819,"self":true,"updatedAt":"27/06/2026 01:40:05"},{"type":"diesel","price":1.885,"self":true,"updatedAt":"27/06/2026 01:40:05"}]},{"id":"49226","lat":46.06837381907275,"lon":12.586584402431185,"name":"Consuelo Roveredo","brand":"Loro","address":"Via Sacile  22 33081, AVIANO, PN","prices":[{"type":"petrol","price":1.839,"self":true,"updatedAt":"25/06/2026 11:21:49"},{"type":"diesel","price":1.909,"self":true,"updatedAt":"25/06/2026 11:21:48"}]},{"id":"42831","lat":46.05196306531677,"lon":12.602557354492205,"name":"ENI - AJDEZI SAFET","brand":"Agip Eni","address":"VIA PORDENONE 48/B 33081, AVIANO, PN","prices":[{"type":"petrol","price":2.045,"self":true,"updatedAt":"26/06/2026 16:09:15"},{"type":"diesel","price":2.125,"self":true,"updatedAt":"26/06/2026 16:09:15"},{"type":"lpg","price":0.806,"self":false,"updatedAt":"26/06/2026 16:09:15"}]},{"id":"61762","lat":46.0576382,"lon":12.5979947,"name":"SMP AVIANO","brand":"San Marco Petroli","address":"Via Pordenone 44 33081, AVIANO, PN","prices":[{"type":"petrol","price":1.839,"self":true,"updatedAt":"27/06/2026 23:43:04"},{"type":"diesel","price":1.905,"self":true,"updatedAt":"27/06/2026 23:43:04"}]},{"id":"45261","lat":46.191284893682884,"lon":12.56379634141922,"name":"IP BARCIS","brand":"Api-Ip","address":"VITTORIO VENETO 37 33080, BARCIS, PN","prices":[{"type":"petrol","price":1.829,"self":true,"updatedAt":"28/06/2026 00:25:27"},{"type":"diesel","price":1.909,"self":true,"updatedAt":"28/06/2026 00:25:27"}]},{"id":"8688","lat":46.04047917452594,"lon":12.541943930426214,"name":"EMA.TOM","brand":"Agip Eni","address":"via giuseppe verdi 9 33070, BUDOIA, PN","prices":[{"type":"petrol","price":1.899,"self":true,"updatedAt":"27/06/2026 10:13:31"},{"type":"diesel","price":1.979,"self":true,"updatedAt":"27/06/2026 10:13:31"}]},{"id":"45710","lat":46.103551433667135,"lon":12.74993896484375,"name":"ENI DANDOLO DI MANIAGO","brand":"Q8","address":"VIA VIVARINA 25/A 33085, MANIAGO, PN","prices":[{"type":"petrol","price":1.809,"self":true,"updatedAt":"28/06/2026 01:00:55"},{"type":"diesel","price":1.889,"self":true,"updatedAt":"27/06/2026 00:38:08"}]},{"id":"50033","lat":46.158419974748675,"lon":12.719648770553716,"name":"ENI MAZZOLI","brand":"Agip Eni","address":"Via Arba 43 33085, MANIAGO, PN","prices":[{"type":"petrol","price":1.839,"self":true,"updatedAt":"26/06/2026 07:33:46"},{"type":"diesel","price":1.909,"self":true,"updatedAt":"26/06/2026 07:33:46"}]},{"id":"58946","lat":46.15953911405626,"lon":12.708810567855835,"name":"ESSO MANIAGO 02198","brand":"Esso","address":"Via Marco Polo 25 33085, MANIAGO, PN","prices":[{"type":"petrol","price":1.819,"self":true,"updatedAt":"28/06/2026 00:23:10"},{"type":"diesel","price":1.899,"self":true,"updatedAt":"28/06/2026 00:23:10"}]},{"id":"13135","lat":46.16060908237445,"lon":12.685920991401645,"name":"Giannina Del Mistro","brand":"Agip Eni","address":"DELLA REPUBBLICA 120/A 33085, MANIAGO, PN","prices":[{"type":"petrol","price":1.825,"self":true,"updatedAt":"27/06/2026 23:47:53"},{"type":"diesel","price":1.884,"self":true,"updatedAt":"27/06/2026 00:30:48"}]},{"id":"59182","lat":46.16601887591321,"lon":12.709051966667175,"name":"MANIAGO - PONTELLO","brand":"Api-Ip","address":"VITTORIO EMANUELE 21 33085, MANIAGO, PN","prices":[{"type":"petrol","price":1.849,"self":true,"updatedAt":"26/06/2026 12:19:08"},{"type":"diesel","price":1.949,"self":true,"updatedAt":"26/06/2026 12:19:08"}]},{"id":"61718","lat":46.15978812506532,"lon":12.707948159050602,"name":"SMP MANIAGO","brand":"San Marco Petroli","address":"VIA MARCO POLO  33085, MANIAGO, PN","prices":[{"type":"petrol","price":1.819,"self":true,"updatedAt":"28/06/2026 00:25:44"},{"type":"diesel","price":1.899,"self":true,"updatedAt":"28/06/2026 00:25:44"},{"type":"lpg","price":0.779,"self":false,"updatedAt":"28/06/2026 00:25:44"}]},{"id":"43432","lat":46.12031514083677,"lon":12.65616663558194,"name":"6187","brand":"Tamoil","address":"S.P. KM 0+412 - 33086, MONTEREALE VALCELLINA, PN","prices":[{"type":"petrol","price":1.769,"self":true,"updatedAt":"27/06/2026 12:14:19"},{"type":"diesel","price":1.869,"self":true,"updatedAt":"27/06/2026 12:14:19"}]},{"id":"8420","lat":46.1516355,"lon":12.6614678,"name":"CHIARANDA WALTER","brand":"Agip Eni","address":"Via dell'Omo 47a  33086, MONTEREALE VALCELLINA, PN","prices":[{"type":"petrol","price":1.849,"self":true,"updatedAt":"28/06/2026 00:54:41"},{"type":"diesel","price":1.899,"self":true,"updatedAt":"28/06/2026 00:54:41"}]},{"id":"14191","lat":46.09627828783546,"lon":12.68066480755806,"name":"F. lli Corba","brand":"Api-Ip","address":"via giulia, frazione san leonardo valcellina  25 33086, MONTEREALE VALCELLINA, PN","prices":[{"type":"petrol","price":1.799,"self":false,"updatedAt":"27/06/2026 12:47:47"},{"type":"diesel","price":1.889,"self":false,"updatedAt":"27/06/2026 12:47:47"}]},{"id":"4789","lat":46.04090343922261,"lon":12.509181510725398,"name":"DONADEL ORFEO VALENTINO","brand":"Agip Eni","address":"Via Pedemontana 32 33070, POLCENIGO, PN","prices":[{"type":"petrol","price":2.049,"self":false,"updatedAt":"22/06/2026 09:03:55"},{"type":"diesel","price":2.119,"self":false,"updatedAt":"22/06/2026 09:03:55"}]},{"id":"14504","lat":46.016509403732485,"lon":12.514231153442324,"name":"stazione di servizio agip di Menegoz Alessandro","brand":"Agip Eni","address":"VIA PORDENONE 139/A 33070, POLCENIGO, PN","prices":[{"type":"petrol","price":1.888,"self":true,"updatedAt":"24/06/2026 09:23:19"},{"type":"diesel","price":1.958,"self":true,"updatedAt":"24/06/2026 09:23:19"},{"type":"lpg","price":0.819,"self":false,"updatedAt":"24/06/2026 09:23:19"}]},{"id":"60057","lat":46.02192635247092,"lon":12.62091189622879,"name":"CS SERVIZI DI SUFYAN ALI & C. S.N.C.","brand":"Api-Ip","address":"Via Pionieri dell'Aria 103 33080, ROVEREDO IN PIANO, PN","prices":[{"type":"petrol","price":1.769,"self":false,"updatedAt":"25/06/2026 11:57:52"},{"type":"diesel","price":1.859,"self":false,"updatedAt":"25/06/2026 11:57:52"}]},{"id":"33588","lat":46.01015156521757,"lon":12.624648279762255,"name":"ROVEREDO IN PIANO - PIONIERI DELL'ARIA","brand":"Api-Ip","address":"VIA PIONIERI DELL'ARIA  33080, ROVEREDO IN PIANO, PN","prices":[{"type":"petrol","price":1.799,"self":true,"updatedAt":"27/06/2026 09:10:07"},{"type":"diesel","price":1.859,"self":true,"updatedAt":"27/06/2026 09:10:07"}]},{"id":"55554","lat":46.03402928786734,"lon":12.676441669464111,"name":"04326 ENI SAN QUIRINO","brand":"Agip Eni","address":"MONTEGRAPPA 26 33080, SAN QUIRINO, PN","prices":[{"type":"petrol","price":1.829,"self":true,"updatedAt":"27/06/2026 23:48:29"},{"type":"diesel","price":1.879,"self":true,"updatedAt":"27/06/2026 00:50:13"}]},{"id":"56294","lat":46.04948,"lon":12.65795,"name":"costantin sedrano","brand":"Costantin","address":"Via Maniago 28 33080, SAN QUIRINO, PN","prices":[{"type":"petrol","price":1.898,"self":true,"updatedAt":"26/06/2026 21:30:51"},{"type":"diesel","price":2.019,"self":true,"updatedAt":"26/06/2026 21:30:51"}]},{"id":"49085","lat":46.0169700698766,"lon":12.650585174560547,"name":"IP di Querenghi S.n.c.","brand":"Api-Ip","address":"251 della Val di Zoldo e Val Cellina, Km. 0, 0 - 33080, SAN QUIRINO, PN","prices":[{"type":"petrol","price":1.794,"self":true,"updatedAt":"25/06/2026 19:09:37"},{"type":"diesel","price":1.894,"self":true,"updatedAt":"25/06/2026 19:09:37"},{"type":"lpg","price":0.759,"self":true,"updatedAt":"25/06/2026 19:09:37"}]}]