[{"id":"33445","lat":46.15541444757983,"lon":9.806597963023705,"name":"SO.GE. S.R.L.","brand":"Pompe Bianche","address":"VALERIANA 4/A 23010, CAIOLO, SO","prices":[{"type":"petrol","price":1.835,"self":true,"updatedAt":"23/06/2026 15:34:17"},{"type":"diesel","price":1.795,"self":true,"updatedAt":"23/06/2026 15:34:17"}]},{"id":"33884","lat":46.161986353773294,"lon":9.823633432388306,"name":"1790","brand":"Tamoil","address":"BRUNO TIRELLI 52 23012, CASTIONE ANDEVENNO, SO","prices":[{"type":"petrol","price":1.719,"self":true,"updatedAt":"24/06/2026 00:31:14"},{"type":"diesel","price":1.769,"self":true,"updatedAt":"24/06/2026 00:31:14"}]},{"id":"34643","lat":46.16181970577179,"lon":9.795046939759459,"name":"COMMERCIALE PAGANONI PC020","brand":"Pompe Bianche","address":"NAZIONALE 877 23012, CASTIONE ANDEVENNO, SO","prices":[{"type":"petrol","price":1.689,"self":true,"updatedAt":"23/06/2026 23:23:28"},{"type":"diesel","price":1.759,"self":true,"updatedAt":"23/06/2026 23:23:27"}]},{"id":"56187","lat":46.16188,"lon":9.82187,"name":"IPERAL CARBURANTI CASTIONE","brand":"Pompe Bianche","address":"Via Del Piano 1/D 23012, CASTIONE ANDEVENNO, SO","prices":[{"type":"petrol","price":1.689,"self":true,"updatedAt":"23/06/2026 12:27:06"},{"type":"diesel","price":1.759,"self":true,"updatedAt":"23/06/2026 12:27:07"},{"type":"methane","price":1.499,"self":true,"updatedAt":"23/06/2026 12:27:04"}]},{"id":"58506","lat":46.16297794206887,"lon":9.790297336210253,"name":"OIL SERVICE SRL","brand":"Pompe Bianche","address":"ANDEVENNO 177 23012, CASTIONE ANDEVENNO, SO","prices":[{"type":"lpg","price":0.799,"self":false,"updatedAt":"20/06/2026 18:28:26"}]},{"id":"38856","lat":46.16367814992121,"lon":9.979287385940552,"name":"enistation Cioccarelli CHIURO","brand":"Agip Eni","address":"STELVIO 65 23030, CHIURO, SO","prices":[{"type":"petrol","price":1.829,"self":true,"updatedAt":"23/06/2026 23:37:12"},{"type":"diesel","price":1.929,"self":true,"updatedAt":"23/06/2026 23:37:12"}]},{"id":"58846","lat":46.16988215731916,"lon":9.901697647111515,"name":"MONTAGNA IN VALTELLINA","brand":"Api-Ip","address":"Via Stelvio 310 23020, MONTAGNA IN VALTELLINA, SO","prices":[{"type":"petrol","price":1.679,"self":true,"updatedAt":"23/06/2026 19:04:21"},{"type":"diesel","price":1.749,"self":true,"updatedAt":"23/06/2026 19:04:21"}]},{"id":"57941","lat":46.1600016,"lon":9.9388096,"name":"TAMOIL","brand":"Tamoil","address":"ROMA ANG. VIA FABBRICA SNC  23020, PIATEDA, SO","prices":[{"type":"petrol","price":1.739,"self":true,"updatedAt":"23/06/2026 14:05:49"},{"type":"diesel","price":1.789,"self":true,"updatedAt":"23/06/2026 23:35:58"}]},{"id":"62913","lat":46.1753075,"lon":9.9245808,"name":"Commerciale Paganoni Poggiridenti","brand":"Pompe Bianche","address":"Via Panoramica 25  23020, POGGIRIDENTI, SO","prices":[{"type":"petrol","price":1.819,"self":true,"updatedAt":"24/06/2026 00:25:21"},{"type":"diesel","price":1.969,"self":true,"updatedAt":"24/06/2026 00:25:21"}]},{"id":"44698","lat":46.15875871687754,"lon":9.776630400024715,"name":"8488","brand":"Tamoil","address":"NAZIONALE 10 23010, POSTALESIO, SO","prices":[{"type":"petrol","price":1.719,"self":true,"updatedAt":"23/06/2026 13:38:44"},{"type":"diesel","price":1.769,"self":true,"updatedAt":"23/06/2026 23:48:12"}]},{"id":"55314","lat":46.16955564170246,"lon":9.861570589583422,"name":"105436 SONDRIO","brand":"Esso","address":"MILANO 44 23100, SONDRIO, SO","prices":[{"type":"petrol","price":1.749,"self":true,"updatedAt":"24/06/2026 06:39:03"},{"type":"diesel","price":1.799,"self":true,"updatedAt":"24/06/2026 06:39:03"}]},{"id":"53114","lat":46.16140338065851,"lon":9.867189522046829,"name":"Commerciale Paganoni Pc11","brand":"Pompe Bianche","address":"VANONI SNC 23100, SONDRIO, SO","prices":[{"type":"petrol","price":1.819,"self":true,"updatedAt":"22/06/2026 16:02:14"},{"type":"diesel","price":1.969,"self":true,"updatedAt":"22/06/2026 16:02:14"},{"type":"lpg","price":0.799,"self":false,"updatedAt":"22/06/2026 16:02:14"}]},{"id":"7209","lat":46.165870839296936,"lon":9.87237420834117,"name":"CP OCCHIO AL PREZZO","brand":"Pompe Bianche","address":"VIA TONALE 12 23100, SONDRIO, SO","prices":[{"type":"petrol","price":1.839,"self":true,"updatedAt":"23/06/2026 05:09:55"},{"type":"diesel","price":1.969,"self":true,"updatedAt":"23/06/2026 05:09:55"}]},{"id":"56843","lat":46.16806965070566,"lon":9.858158826828003,"name":"ENI STATION","brand":"Agip Eni","address":"DELLO STADIO 28 23100, SONDRIO, SO","prices":[{"type":"petrol","price":1.829,"self":true,"updatedAt":"23/06/2026 00:21:22"},{"type":"diesel","price":1.919,"self":true,"updatedAt":"23/06/2026 00:21:22"}]},{"id":"38847","lat":46.1703854956982,"lon":9.89609407294688,"name":"enistation Cioccarelli Sondrio","brand":"Agip Eni","address":"VIA STELVIO 39 23100, SONDRIO, SO","prices":[{"type":"petrol","price":1.829,"self":true,"updatedAt":"24/06/2026 01:06:37"},{"type":"diesel","price":1.919,"self":true,"updatedAt":"24/06/2026 01:06:37"}]},{"id":"18789","lat":46.166182056879165,"lon":9.864081746165198,"name":"IP","brand":"Api-Ip","address":"VIA MAFFEI 10 23100, SONDRIO, SO","prices":[{"type":"petrol","price":1.879,"self":true,"updatedAt":"12/06/2026 22:08:35"},{"type":"diesel","price":1.989,"self":true,"updatedAt":"12/06/2026 22:08:35"}]},{"id":"47212","lat":46.1706231,"lon":9.8652556,"name":"MultiService srl","brand":"Retitalia","address":"Piazzale Toccalli 15 23100, SONDRIO, SO","prices":[{"type":"petrol","price":1.819,"self":true,"updatedAt":"22/06/2026 12:04:15"},{"type":"diesel","price":1.899,"self":true,"updatedAt":"22/06/2026 12:04:15"}]},{"id":"55967","lat":46.169386550538384,"lon":9.880003791332225,"name":"Oil Service","brand":"Pompe Bianche","address":"VIA ENRICO TOTI 20 23100, SONDRIO, SO","prices":[{"type":"petrol","price":1.859,"self":true,"updatedAt":"23/06/2026 06:56:13"},{"type":"diesel","price":1.949,"self":true,"updatedAt":"23/06/2026 06:56:13"}]}]