[{"id":"23670","lat":46.32130805965985,"lon":10.841292384795679,"name":"ENI 3536","brand":"Agip Eni","address":"VIA DEL COMUN 65 38020, COMMEZZADURA, TN","prices":[{"type":"petrol","price":1.829,"self":true,"updatedAt":"29/06/2026 00:27:00"},{"type":"diesel","price":1.889,"self":true,"updatedAt":"30/06/2026 07:22:07"}]},{"id":"47466","lat":46.32254045411015,"lon":10.847856904925575,"name":"Tamoil Loc. Mastellina","brand":"Tamoil","address":"via nazionale 5 38020, COMMEZZADURA, TN","prices":[{"type":"petrol","price":1.819,"self":true,"updatedAt":"29/06/2026 23:34:34"},{"type":"diesel","price":1.899,"self":true,"updatedAt":"29/06/2026 14:05:11"}]},{"id":"28363","lat":46.34184175007542,"lon":10.903225685052803,"name":"tamoil","brand":"Tamoil","address":"Statale 42 del Tonale e della Mendola, Km. 177-600, dir. tonale  38027, CROVIANA, TN","prices":[{"type":"petrol","price":1.859,"self":true,"updatedAt":"27/06/2026 19:27:10"},{"type":"diesel","price":1.969,"self":true,"updatedAt":"27/06/2026 19:27:10"}]},{"id":"52905","lat":46.3536128,"lon":10.9248512,"name":"Distributore Eni","brand":"Agip Eni","address":"Via Nazionale 24 38027, MALÉ, TN","prices":[{"type":"petrol","price":1.829,"self":true,"updatedAt":"30/06/2026 00:00:36"},{"type":"diesel","price":1.899,"self":true,"updatedAt":"30/06/2026 00:00:36"}]},{"id":"20721","lat":46.337657480483756,"lon":10.89551623147338,"name":"ENI","brand":"Agip Eni","address":"VIA NAZIONALE 330 38025, DIMARO FOLGARIDA (TN) 330 38020, MONCLASSICO, TN","prices":[{"type":"petrol","price":1.829,"self":true,"updatedAt":"29/06/2026 09:40:12"},{"type":"diesel","price":1.919,"self":true,"updatedAt":"29/06/2026 09:40:12"},{"type":"lpg","price":0.799,"self":false,"updatedAt":"29/06/2026 00:29:26"}]},{"id":"48951","lat":46.31153689589303,"lon":10.750611259590865,"name":"Stazione di servizio Khan Imran","brand":"Api-Ip","address":"VIA G. MARCONI 51 38026, OSSANA, TN","prices":[{"type":"petrol","price":1.839,"self":true,"updatedAt":"29/06/2026 10:55:15"},{"type":"diesel","price":1.919,"self":true,"updatedAt":"29/06/2026 10:55:15"}]},{"id":"44267","lat":46.31154411620285,"lon":10.750703317791022,"name":"CRISTOFORETTI PELLIZZANO","brand":"Cristoforetti","address":"42 del Tonale e della Mendola, Km. 164, NORD  38020, PELLIZZANO, TN","prices":[{"type":"petrol","price":1.833,"self":true,"updatedAt":"25/06/2026 08:54:32"},{"type":"diesel","price":1.908,"self":true,"updatedAt":"25/06/2026 08:54:32"}]},{"id":"16804","lat":46.3884558298869,"lon":10.861760973930359,"name":"DISTRIBUTORE IP RABBI","brand":"Api-Ip","address":"LOCALITA' TASSE' 1/C 38020, RABBI, TN","prices":[{"type":"petrol","price":1.819,"self":true,"updatedAt":"29/06/2026 13:03:27"},{"type":"diesel","price":1.899,"self":true,"updatedAt":"29/06/2026 13:03:27"}]}]