[{"id":"23670","lat":46.32130805965985,"lon":10.841292384795679,"name":"ENI 3536","brand":"Agip Eni","address":"VIA DEL COMUN 65 38020, COMMEZZADURA, TN","prices":[{"type":"petrol","price":1.829,"self":true,"updatedAt":"22/06/2026 07:35:01"},{"type":"diesel","price":1.919,"self":true,"updatedAt":"22/06/2026 07:35:01"}]},{"id":"47466","lat":46.32254045411015,"lon":10.847856904925575,"name":"Tamoil Loc. Mastellina","brand":"Tamoil","address":"via nazionale 5 38020, COMMEZZADURA, TN","prices":[{"type":"petrol","price":1.839,"self":true,"updatedAt":"21/06/2026 23:38:49"},{"type":"diesel","price":1.969,"self":true,"updatedAt":"21/06/2026 23:38:49"}]},{"id":"28363","lat":46.34184175007542,"lon":10.903225685052803,"name":"tamoil","brand":"Tamoil","address":"Statale 42 del Tonale e della Mendola, Km. 177-600, dir. tonale  38027, CROVIANA, TN","prices":[{"type":"petrol","price":1.899,"self":true,"updatedAt":"19/06/2026 19:44:44"},{"type":"diesel","price":1.999,"self":true,"updatedAt":"19/06/2026 19:44:43"}]},{"id":"52905","lat":46.3536128,"lon":10.9248512,"name":"Distributore Eni","brand":"Agip Eni","address":"Via Nazionale 24 38027, MALÉ, TN","prices":[{"type":"petrol","price":1.849,"self":true,"updatedAt":"22/06/2026 00:35:10"},{"type":"diesel","price":1.949,"self":true,"updatedAt":"22/06/2026 00:35:10"}]},{"id":"20721","lat":46.337657480483756,"lon":10.89551623147338,"name":"ENI","brand":"Agip Eni","address":"VIA NAZIONALE 330 38025, DIMARO FOLGARIDA (TN) 330 38020, MONCLASSICO, TN","prices":[{"type":"petrol","price":1.879,"self":true,"updatedAt":"22/06/2026 00:21:37"},{"type":"diesel","price":1.999,"self":true,"updatedAt":"22/06/2026 00:21:37"},{"type":"lpg","price":0.799,"self":false,"updatedAt":"22/06/2026 00:21:37"}]},{"id":"48951","lat":46.31153689589303,"lon":10.750611259590865,"name":"Stazione di servizio Khan Imran","brand":"Api-Ip","address":"VIA G. MARCONI 51 38026, OSSANA, TN","prices":[{"type":"petrol","price":1.869,"self":true,"updatedAt":"19/06/2026 16:22:11"},{"type":"diesel","price":1.989,"self":true,"updatedAt":"19/06/2026 16:22:11"}]},{"id":"44267","lat":46.31154411620285,"lon":10.750703317791022,"name":"CRISTOFORETTI PELLIZZANO","brand":"Cristoforetti","address":"42 del Tonale e della Mendola, Km. 164, NORD  38020, PELLIZZANO, TN","prices":[{"type":"petrol","price":1.853,"self":true,"updatedAt":"17/06/2026 09:05:04"},{"type":"diesel","price":1.983,"self":true,"updatedAt":"17/06/2026 09:05:04"}]},{"id":"16804","lat":46.3884558298869,"lon":10.861760973930359,"name":"DISTRIBUTORE IP RABBI","brand":"Api-Ip","address":"LOCALITA' TASSE' 1/C 38020, RABBI, TN","prices":[{"type":"petrol","price":1.849,"self":true,"updatedAt":"19/06/2026 12:36:40"},{"type":"diesel","price":1.959,"self":true,"updatedAt":"19/06/2026 12:36:40"}]}]