[{"id":"58616","lat":46.5403904,"lon":10.1351424,"name":"ENI SALBORO","brand":"Agip Eni","address":"Via Pietro Bembo 200 35124, PADOVA, PD","prices":[{"type":"petrol","price":1.799,"self":true,"updatedAt":"29/06/2026 11:59:22"},{"type":"diesel","price":1.899,"self":true,"updatedAt":"29/06/2026 11:59:22"},{"type":"methane","price":1.599,"self":false,"updatedAt":"29/06/2026 11:59:22"},{"type":"lpg","price":0.724,"self":false,"updatedAt":"29/06/2026 11:59:22"}]},{"id":"51253","lat":46.554025226052566,"lon":10.145127028226852,"name":"C-ENERGIA","brand":"Agip Eni","address":"VIA RASIA 833 23041, LIVIGNO, SO","prices":[{"type":"petrol","price":1.448,"self":true,"updatedAt":"27/06/2026 17:00:25"},{"type":"diesel","price":1.357,"self":true,"updatedAt":"27/06/2026 17:00:25"}]},{"id":"22670","lat":46.52608880693164,"lon":10.12782409787178,"name":"CU.BA. SRL","brand":"Agip Eni","address":"VIA PEDRANA 500 23030, LIVIGNO, SO","prices":[{"type":"petrol","price":1.449,"self":true,"updatedAt":"27/06/2026 12:04:46"},{"type":"diesel","price":1.358,"self":true,"updatedAt":"27/06/2026 12:04:46"}]},{"id":"9205","lat":46.52654659099641,"lon":10.175803687190637,"name":"ENI TREPALLE","brand":"Agip Eni","address":"Statale 301 del Foscagno, Km. 28,400, dir. BORMIO -, LIVIGNO, SO","prices":[{"type":"petrol","price":1.44,"self":true,"updatedAt":"28/06/2026 09:24:39"},{"type":"diesel","price":1.339,"self":true,"updatedAt":"28/06/2026 09:24:39"}]},{"id":"22628","lat":46.51908386115937,"lon":10.124913901090622,"name":"GES.CAR. SAS","brand":"Agip Eni","address":"VIA BORCH 770 23030, LIVIGNO, SO","prices":[{"type":"petrol","price":1.452,"self":true,"updatedAt":"27/06/2026 12:14:59"},{"type":"diesel","price":1.362,"self":true,"updatedAt":"27/06/2026 12:14:59"}]},{"id":"51363","lat":46.556565931550104,"lon":10.143738985061646,"name":"Global Srl","brand":"Q8","address":"VIA RASIA 1077 23041, LIVIGNO, SO","prices":[{"type":"petrol","price":1.433,"self":true,"updatedAt":"26/06/2026 10:12:34"}]},{"id":"24309","lat":46.529713169182166,"lon":10.129013318979673,"name":"Market S.Anton di Compagnoni Elena & C. - S.A.S.","brand":"Api-Ip","address":"VIA PEDRANA 100 23041, LIVIGNO, SO","prices":[{"type":"petrol","price":1.451,"self":true,"updatedAt":"27/06/2026 19:02:42"},{"type":"diesel","price":1.366,"self":true,"updatedAt":"27/06/2026 19:02:42"}]},{"id":"23219","lat":46.53959047065005,"lon":10.138176083564758,"name":"PETROL","brand":"Pompe Bianche","address":"VIA PONTIGLIA N.159 23041, LIVIGNO, SO","prices":[{"type":"petrol","price":1.449,"self":true,"updatedAt":"27/06/2026 17:32:56"},{"type":"diesel","price":1.389,"self":true,"updatedAt":"27/06/2026 17:32:56"}]},{"id":"51364","lat":46.52761921935373,"lon":10.135169724327566,"name":"Q8 PETROL STATION & DUTY FREE","brand":"Q8","address":"VIA FREITA 104 23041, LIVIGNO, SO","prices":[{"type":"petrol","price":1.447,"self":true,"updatedAt":"25/06/2026 10:21:06"},{"type":"diesel","price":1.35,"self":true,"updatedAt":"28/06/2026 09:15:04"}]},{"id":"21869","lat":46.537901232396536,"lon":10.138709294686805,"name":"TOTAL ERG - LIVIGNO","brand":"Api-Ip","address":"VIA BONDI 233/A 23030, LIVIGNO, SO","prices":[{"type":"petrol","price":1.453,"self":true,"updatedAt":"29/06/2026 16:22:19"},{"type":"diesel","price":1.353,"self":true,"updatedAt":"29/06/2026 16:22:19"}]},{"id":"21866","lat":46.52810766409564,"lon":10.127918645739555,"name":"TOTAL ERG - LIVIGNO","brand":"Api-Ip","address":"VIA PEDRANA  200 23030, LIVIGNO, SO","prices":[{"type":"petrol","price":1.453,"self":true,"updatedAt":"29/06/2026 16:21:41"},{"type":"diesel","price":1.353,"self":true,"updatedAt":"29/06/2026 16:21:41"}]},{"id":"22687","lat":46.51800524520484,"lon":10.18708348274231,"name":"Tre.Car. S.r.l.","brand":"Q8","address":"VIA ARNEIRA 96 23030, LIVIGNO, SO","prices":[{"type":"petrol","price":1.446,"self":true,"updatedAt":"27/06/2026 12:02:04"},{"type":"diesel","price":1.354,"self":true,"updatedAt":"27/06/2026 12:02:04"},{"type":"lpg","price":0.698,"self":false,"updatedAt":"27/06/2026 12:02:04"}]}]