[{"id":"19890","lat":46.6049239391747,"lon":11.895854962268686,"name":"Auto Alta Badia - Tamoil - Badia","brand":"Tamoil","address":"Statale 244 della Val Badia, Km. 25,5, dir. Corvara - 39036, BADIA, BZ","prices":[{"type":"petrol","price":1.859,"self":true,"updatedAt":"24/06/2026 08:15:37"},{"type":"diesel","price":1.949,"self":true,"updatedAt":"24/06/2026 08:15:37"},{"type":"methane","price":1.95,"self":false,"updatedAt":"24/06/2026 08:15:37"}]},{"id":"56736","lat":46.5879,"lon":11.90316,"name":"Enistation 3156","brand":"Agip Eni","address":"Strada Colz  39036, BADIA, BZ","prices":[{"type":"petrol","price":1.859,"self":true,"updatedAt":"25/06/2026 01:06:05"},{"type":"diesel","price":1.964,"self":true,"updatedAt":"25/06/2026 01:06:05"}]},{"id":"56440","lat":46.551371883210834,"lon":11.867187023162842,"name":"Q8 Corvara di Rigo Gottfried","brand":"Q8","address":"S.da La Siëia   16 39033, CORVARA IN BADIA, BZ","prices":[{"type":"petrol","price":1.869,"self":true,"updatedAt":"24/06/2026 06:34:35"},{"type":"diesel","price":1.969,"self":true,"updatedAt":"24/06/2026 06:34:35"}]},{"id":"46393","lat":46.70109164675827,"lon":11.929118454830132,"name":"distributore q8","brand":"Q8","address":"STR CATARINA LANZ 2 39030, MAREBBE, BZ","prices":[{"type":"petrol","price":1.879,"self":true,"updatedAt":"24/06/2026 08:39:22"},{"type":"diesel","price":2.019,"self":true,"updatedAt":"24/06/2026 08:39:22"}]},{"id":"35939","lat":46.680068278505054,"lon":11.902342898147594,"name":"Auto Alta Badia - Tamoil - San Martino in Badia","brand":"Tamoil","address":"Statale 244 della Val Badia, Km. 15, dir. Brunico - 39030, SAN MARTINO IN BADIA, BZ","prices":[{"type":"petrol","price":1.859,"self":true,"updatedAt":"24/06/2026 08:16:45"},{"type":"diesel","price":1.949,"self":true,"updatedAt":"24/06/2026 08:16:45"}]}]