[{"id":"58616","lat":46.5403904,"lon":10.1351424,"name":"ENI SALBORO","brand":"Agip Eni","address":"Via Pietro Bembo 200 35124, PADOVA, PD","prices":[{"type":"petrol","price":1.859,"self":true,"updatedAt":"18/06/2026 10:33:48"},{"type":"diesel","price":1.969,"self":true,"updatedAt":"18/06/2026 10:33:48"},{"type":"methane","price":1.599,"self":false,"updatedAt":"18/06/2026 10:33:48"},{"type":"lpg","price":0.755,"self":false,"updatedAt":"18/06/2026 10:33:48"}]},{"id":"51253","lat":46.554025226052566,"lon":10.145127028226852,"name":"C-ENERGIA","brand":"Agip Eni","address":"VIA RASIA 833 23041, LIVIGNO, SO","prices":[{"type":"petrol","price":1.462,"self":true,"updatedAt":"21/06/2026 19:34:30"},{"type":"diesel","price":1.398,"self":true,"updatedAt":"21/06/2026 19:34:30"}]},{"id":"22670","lat":46.52608880693164,"lon":10.12782409787178,"name":"CU.BA. SRL","brand":"Agip Eni","address":"VIA PEDRANA 500 23030, LIVIGNO, SO","prices":[{"type":"petrol","price":1.461,"self":true,"updatedAt":"21/06/2026 16:23:38"},{"type":"diesel","price":1.397,"self":true,"updatedAt":"21/06/2026 16:23:38"}]},{"id":"9205","lat":46.52654659099641,"lon":10.175803687190637,"name":"ENI TREPALLE","brand":"Agip Eni","address":"Statale 301 del Foscagno, Km. 28,400, dir. BORMIO -, LIVIGNO, SO","prices":[{"type":"petrol","price":1.44,"self":true,"updatedAt":"19/06/2026 14:13:13"},{"type":"diesel","price":1.363,"self":true,"updatedAt":"19/06/2026 14:13:13"}]},{"id":"22628","lat":46.51908386115937,"lon":10.124913901090622,"name":"GES.CAR. SAS","brand":"Agip Eni","address":"VIA BORCH 770 23030, LIVIGNO, SO","prices":[{"type":"petrol","price":1.452,"self":true,"updatedAt":"21/06/2026 16:29:37"},{"type":"diesel","price":1.413,"self":true,"updatedAt":"21/06/2026 16:29:37"}]},{"id":"51363","lat":46.556565931550104,"lon":10.143738985061646,"name":"Global Srl","brand":"Q8","address":"VIA RASIA 1077 23041, LIVIGNO, SO","prices":[{"type":"petrol","price":1.448,"self":true,"updatedAt":"19/06/2026 10:28:32"}]},{"id":"24309","lat":46.529713169182166,"lon":10.129013318979673,"name":"Market S.Anton di Compagnoni Elena & C. - S.A.S.","brand":"Api-Ip","address":"VIA PEDRANA 100 23041, LIVIGNO, SO","prices":[{"type":"petrol","price":1.513,"self":true,"updatedAt":"21/06/2026 18:55:46"},{"type":"diesel","price":1.46,"self":true,"updatedAt":"21/06/2026 18:55:46"}]},{"id":"23219","lat":46.53959047065005,"lon":10.138176083564758,"name":"PETROL","brand":"Pompe Bianche","address":"VIA PONTIGLIA N.159 23041, LIVIGNO, SO","prices":[{"type":"petrol","price":1.489,"self":true,"updatedAt":"20/06/2026 15:13:43"},{"type":"diesel","price":1.439,"self":true,"updatedAt":"20/06/2026 15:13:43"}]},{"id":"51364","lat":46.52761921935373,"lon":10.135169724327566,"name":"Q8 PETROL STATION & DUTY FREE","brand":"Q8","address":"VIA FREITA 104 23041, LIVIGNO, SO","prices":[{"type":"petrol","price":1.489,"self":true,"updatedAt":"18/06/2026 10:21:05"},{"type":"diesel","price":1.449,"self":true,"updatedAt":"18/06/2026 10:21:05"}]},{"id":"21869","lat":46.537901232396536,"lon":10.138709294686805,"name":"TOTAL ERG - LIVIGNO","brand":"Api-Ip","address":"VIA BONDI 233/A 23030, LIVIGNO, SO","prices":[{"type":"petrol","price":1.493,"self":true,"updatedAt":"17/06/2026 15:02:55"},{"type":"diesel","price":1.448,"self":true,"updatedAt":"17/06/2026 15:02:55"}]},{"id":"21866","lat":46.52810766409564,"lon":10.127918645739555,"name":"TOTAL ERG - LIVIGNO","brand":"Api-Ip","address":"VIA PEDRANA  200 23030, LIVIGNO, SO","prices":[{"type":"petrol","price":1.493,"self":true,"updatedAt":"17/06/2026 15:01:20"},{"type":"diesel","price":1.448,"self":true,"updatedAt":"17/06/2026 15:01:20"}]},{"id":"22687","lat":46.51800524520484,"lon":10.18708348274231,"name":"Tre.Car. S.r.l.","brand":"Q8","address":"VIA ARNEIRA 96 23030, LIVIGNO, SO","prices":[{"type":"petrol","price":1.449,"self":true,"updatedAt":"21/06/2026 16:20:30"},{"type":"diesel","price":1.399,"self":true,"updatedAt":"21/06/2026 16:20:30"},{"type":"lpg","price":0.698,"self":false,"updatedAt":"21/06/2026 16:20:30"}]}]