[{"id":"62303","lat":46.61695989883505,"lon":10.706814861279286,"name":"DISTRIBUTORE IP LASA","brand":"Api-Ip","address":"Via Venosta 9  39023, LASA, BZ","prices":[{"type":"petrol","price":1.869,"self":true,"updatedAt":"22/06/2026 06:06:37"},{"type":"diesel","price":1.969,"self":true,"updatedAt":"22/06/2026 06:06:37"}]},{"id":"30693","lat":46.630490143531034,"lon":10.637524639878848,"name":"ESSO","brand":"Esso","address":"VIA VENOSTA Oris 44 39023, LASA, BZ","prices":[{"type":"petrol","price":1.849,"self":true,"updatedAt":"23/06/2026 11:44:08"},{"type":"diesel","price":1.939,"self":true,"updatedAt":"23/06/2026 11:44:08"}]},{"id":"49169","lat":46.69495064127975,"lon":10.539409906745924,"name":"Kostner - Malles Venosta","brand":"Kostner","address":"Staatsstraße 50 39024, MALLES VENOSTA, BZ","prices":[{"type":"petrol","price":1.869,"self":true,"updatedAt":"24/06/2026 01:14:40"},{"type":"diesel","price":1.949,"self":true,"updatedAt":"24/06/2026 01:14:40"}]},{"id":"7597","lat":46.62059286834926,"lon":10.598187159596137,"name":"Esso - Garage Olympia Sas","brand":"Esso","address":"Statale 38 dello Stelvio, Km. VIII149, dir. Merano - 634890214, PRATO ALLO STELVIO, BZ","prices":[{"type":"petrol","price":1.849,"self":true,"updatedAt":"23/06/2026 13:45:54"},{"type":"diesel","price":1.939,"self":true,"updatedAt":"23/06/2026 13:45:54"}]},{"id":"8427","lat":46.61812384925141,"lon":10.595257279134557,"name":"Hofer Jessica - distributore Tamoil","brand":"Tamoil","address":"Statale 38 dello Stelvio, Km. 149+498, dir. Passo Stelvio - 39026, PRATO ALLO STELVIO, BZ","prices":[{"type":"petrol","price":1.849,"self":true,"updatedAt":"24/06/2026 00:53:12"},{"type":"diesel","price":1.929,"self":true,"updatedAt":"23/06/2026 15:02:06"}]}]