[{"id":"37268","lat":36.7103287510913,"lon":14.935088641941547,"name":"C.DA MARINA DELLA MARZA - ISPICA","brand":"Agip Eni","address":"C.DA MARINA DELLA MARZA  97014, ISPICA, RG","prices":[{"type":"petrol","price":1.819,"self":true,"updatedAt":"26/06/2026 06:00:21"},{"type":"diesel","price":1.909,"self":true,"updatedAt":"26/06/2026 06:00:21"}]},{"id":"47083","lat":36.732138673296234,"lon":14.853090687737861,"name":"Boncoraglio","brand":"Agip Eni","address":"VIA MARIO RAPISARDI SNC 97016, POZZALLO, RG","prices":[{"type":"petrol","price":1.829,"self":true,"updatedAt":"25/06/2026 00:45:18"},{"type":"diesel","price":1.919,"self":true,"updatedAt":"25/06/2026 00:45:18"}]},{"id":"11391","lat":36.72475384369368,"lon":14.833239580356576,"name":"FIMAR","brand":"Pompe Bianche","address":"Viale Australia 58 97016, POZZALLO, RG","prices":[{"type":"petrol","price":1.819,"self":true,"updatedAt":"26/06/2026 07:50:42"},{"type":"diesel","price":1.899,"self":true,"updatedAt":"26/06/2026 07:50:42"}]},{"id":"57041","lat":36.729912802460376,"lon":14.847917527301039,"name":"IDC Pozzallo - P.zza Senia","brand":"Esso","address":"Piazza Senia 41 97016, POZZALLO, RG","prices":[{"type":"petrol","price":1.869,"self":false,"updatedAt":"20/06/2026 12:52:10"},{"type":"diesel","price":1.969,"self":false,"updatedAt":"20/06/2026 12:52:10"}]},{"id":"32731","lat":36.72796082154908,"lon":14.848490823661905,"name":"P.ZZA MADONNA DELLE LACRIME - POZZALLO","brand":"Giap","address":"P.ZZA MADONNA DELLE LACRIME  97016, POZZALLO, RG","prices":[{"type":"petrol","price":1.829,"self":true,"updatedAt":"26/06/2026 06:00:19"},{"type":"diesel","price":1.909,"self":true,"updatedAt":"26/06/2026 06:00:19"}]},{"id":"25244","lat":36.733797087551615,"lon":14.851680994033813,"name":"VIALE EUROPA POZZALLO","brand":"Agip Eni","address":"VIALE EUROPA  97016, POZZALLO, RG","prices":[{"type":"petrol","price":1.819,"self":true,"updatedAt":"26/06/2026 06:00:12"},{"type":"diesel","price":1.899,"self":true,"updatedAt":"26/06/2026 06:00:12"}]}]