[{"id":"59714","lat":37.24671,"lon":15.22008,"name":"9909 AUGUSTA","brand":"Agip Eni","address":"VIALE ITALIA  S.NC, AUGUSTA, SR","prices":[{"type":"petrol","price":1.829,"self":true,"updatedAt":"25/06/2026 00:06:56"},{"type":"diesel","price":1.909,"self":true,"updatedAt":"25/06/2026 00:06:56"}]},{"id":"27004","lat":37.24768882489802,"lon":15.18583595752716,"name":"ENI DI RAPISARDA FILIPPO","brand":"Agip Eni","address":"Statale 124 Siracusana, Km. 3.654, dir. siracusa - 96011, AUGUSTA, SR","prices":[{"type":"petrol","price":1.829,"self":true,"updatedAt":"24/06/2026 23:38:31"},{"type":"diesel","price":1.919,"self":true,"updatedAt":"24/06/2026 23:38:31"},{"type":"lpg","price":0.802,"self":false,"updatedAt":"24/06/2026 23:38:31"}]},{"id":"48784","lat":37.23773958611141,"lon":15.221250976686468,"name":"pv 55242","brand":"Agip Eni","address":"LUNGOMARE ROSSINI S.N. 96011, AUGUSTA, SR","prices":[{"type":"petrol","price":1.824,"self":true,"updatedAt":"25/06/2026 01:05:37"},{"type":"diesel","price":1.904,"self":true,"updatedAt":"25/06/2026 01:05:37"}]},{"id":"60722","lat":37.237926213235674,"lon":15.222084373130803,"name":"STAZIONE DI SERVIZIO Q8 DI GIUSEPPE DI MASI","brand":"Q8","address":"Lungomare Gioacchino Rossini  96011, AUGUSTA, SR","prices":[{"type":"petrol","price":1.814,"self":true,"updatedAt":"24/06/2026 11:24:40"},{"type":"diesel","price":1.899,"self":true,"updatedAt":"24/06/2026 11:24:40"}]},{"id":"27692","lat":37.02667642102781,"lon":15.074532030688488,"name":"Erg","brand":"Q8","address":"VIA VITTORIO EMANUELE 577 96010, CANICATTINI BAGNI, SR","prices":[{"type":"petrol","price":1.849,"self":true,"updatedAt":"24/06/2026 19:38:56"},{"type":"diesel","price":1.939,"self":true,"updatedAt":"24/06/2026 19:38:56"}]},{"id":"61146","lat":37.0257,"lon":15.07981,"name":"IDC CANICATTINI BAGNI","brand":"Esso","address":"14 MARE MONTI SNC 96010, CANICATTINI BAGNI, SR","prices":[{"type":"petrol","price":1.849,"self":true,"updatedAt":"25/06/2026 00:45:10"},{"type":"diesel","price":1.939,"self":true,"updatedAt":"25/06/2026 00:45:10"}]},{"id":"24580","lat":37.03609325668858,"lon":15.05743315594259,"name":"VIA CANALE, 74/B CANICATTINI BAGNI","brand":"Giap","address":"VIA CANALE 74/B 96010, CANICATTINI BAGNI, SR","prices":[{"type":"petrol","price":1.849,"self":true,"updatedAt":"25/06/2026 06:01:00"},{"type":"diesel","price":1.939,"self":true,"updatedAt":"25/06/2026 06:01:00"}]},{"id":"36406","lat":37.0284,"lon":15.0712,"name":"VIA VITTORIO EMANUELE - CANICATTINI BAGNI","brand":"Giap","address":"VIA VITTORIO EMANUELE  96010, CANICATTINI BAGNI, SR","prices":[{"type":"petrol","price":1.849,"self":true,"updatedAt":"25/06/2026 06:01:02"},{"type":"diesel","price":1.939,"self":true,"updatedAt":"25/06/2026 06:01:02"}]},{"id":"60055","lat":37.077162779080595,"lon":15.170883244496721,"name":"AREA DI SERVIZIO ESSO DI GIBILISCO VINCENZO","brand":"Esso","address":"S.S.124 KM 110+200 SNC 96014, FLORIDIA, SR","prices":[{"type":"petrol","price":1.899,"self":true,"updatedAt":"22/06/2026 06:14:01"},{"type":"diesel","price":1.999,"self":true,"updatedAt":"22/06/2026 06:14:01"}]},{"id":"55257","lat":37.088569284432424,"lon":15.153949593162531,"name":"ESSO","brand":"Esso","address":"VIA ARCHIMEDE 327/A 96014, FLORIDIA, SR","prices":[{"type":"petrol","price":1.869,"self":true,"updatedAt":"24/06/2026 15:20:03"},{"type":"diesel","price":1.979,"self":true,"updatedAt":"24/06/2026 15:20:03"}]},{"id":"40339","lat":37.07907397186091,"lon":15.161568423086225,"name":"Impianto Eni Fontana","brand":"Agip Eni","address":"Corso Vittorio Emanuele 698 A 96014, FLORIDIA, SR","prices":[{"type":"petrol","price":1.859,"self":true,"updatedAt":"25/06/2026 01:09:06"},{"type":"diesel","price":1.949,"self":true,"updatedAt":"25/06/2026 01:09:06"}]},{"id":"15279","lat":37.0854545,"lon":15.143996,"name":"indipendente","brand":"Pompe Bianche","address":"Corso Vittorio Emanuele 1  96014, FLORIDIA, SR","prices":[{"type":"petrol","price":1.837,"self":true,"updatedAt":"23/06/2026 17:20:15"},{"type":"diesel","price":1.948,"self":true,"updatedAt":"23/06/2026 17:20:15"}]},{"id":"6193","lat":37.08682677985748,"lon":15.141914448740863,"name":"Q8","brand":"Q8","address":"Statale 124 Siracusana, Km. 107,345, dir. SOLARINO - 96014, FLORIDIA, SR","prices":[{"type":"petrol","price":1.839,"self":true,"updatedAt":"23/06/2026 16:41:42"},{"type":"diesel","price":1.949,"self":true,"updatedAt":"23/06/2026 16:41:42"}]},{"id":"58446","lat":37.077418460945786,"lon":15.151482224464417,"name":"S.P. 12 CANICATTINI BAGNI - FLORIDIA","brand":"Giap","address":"S.P. 12 CANICATTINI BAGNI - FLORIDIA  96014, FLORIDIA, SR","prices":[{"type":"petrol","price":1.834,"self":true,"updatedAt":"25/06/2026 06:01:09"},{"type":"diesel","price":1.944,"self":true,"updatedAt":"25/06/2026 06:01:10"}]},{"id":"61310","lat":37.178855662326086,"lon":15.129972249269485,"name":"DB CARBURANTI MELILLI","brand":"DBCarburanti","address":"Viale Kennedy 22  96010, MELILLI, SR","prices":[{"type":"petrol","price":1.818,"self":false,"updatedAt":"23/06/2026 07:51:43"},{"type":"diesel","price":1.918,"self":false,"updatedAt":"23/06/2026 07:51:43"}]},{"id":"12249","lat":37.177759177466754,"lon":15.145638220000023,"name":"S.P. 95 MELILLI","brand":"Giap","address":"S.P. 95 KM 4+550  96010, MELILLI, SR","prices":[{"type":"petrol","price":1.828,"self":true,"updatedAt":"25/06/2026 06:01:04"},{"type":"diesel","price":1.908,"self":true,"updatedAt":"25/06/2026 06:01:04"}]},{"id":"34864","lat":37.108775987757895,"lon":15.230053514242172,"name":"SR044","brand":"EOS","address":"CONTRADA SPALLA SNC 96010, MELILLI, SR","prices":[{"type":"petrol","price":1.779,"self":true,"updatedAt":"24/06/2026 11:00:08"},{"type":"diesel","price":1.849,"self":true,"updatedAt":"24/06/2026 11:00:08"}]},{"id":"12251","lat":37.178364068439954,"lon":15.13244065916615,"name":"VIA SIRACUSA MEL","brand":"Esso","address":"VIA SIRACUSA 14 96010, MELILLI, SR","prices":[{"type":"petrol","price":1.818,"self":true,"updatedAt":"25/06/2026 06:01:05"},{"type":"diesel","price":1.918,"self":true,"updatedAt":"25/06/2026 06:01:05"}]},{"id":"27237","lat":37.15576656570148,"lon":15.188464522361755,"name":"DISTRIBUTORE I.P.","brand":"Api-Ip","address":"PIAZZA DI MAURO S.N. 96010, PRIOLO GARGALLO, SR","prices":[{"type":"petrol","price":1.809,"self":true,"updatedAt":"24/06/2026 09:49:39"},{"type":"diesel","price":1.919,"self":true,"updatedAt":"24/06/2026 09:49:39"}]},{"id":"21380","lat":37.1122010873689,"lon":15.185383414418373,"name":"ENI SEDICA","brand":"Agip Eni","address":"S.P PRIOLO-SOLARINO KM 6+250  96010, PRIOLO GARGALLO, SR","prices":[{"type":"petrol","price":1.954,"self":true,"updatedAt":"25/06/2026 00:46:35"},{"type":"diesel","price":2.044,"self":true,"updatedAt":"25/06/2026 00:46:35"},{"type":"lpg","price":0.887,"self":false,"updatedAt":"25/06/2026 00:46:35"}]},{"id":"20268","lat":37.149049365472564,"lon":15.194040834903717,"name":"esso","brand":"Esso","address":"ex ss114 10 96010, PRIOLO GARGALLO, SR","prices":[{"type":"petrol","price":1.839,"self":true,"updatedAt":"23/06/2026 06:41:47"},{"type":"diesel","price":1.939,"self":true,"updatedAt":"23/06/2026 06:41:47"}]},{"id":"38758","lat":37.17139247332715,"lon":15.187922045588493,"name":"EX S.S.114 PORT.CENTR.ENICHEM - PRIOLO GARGALLO","brand":"Giap","address":"EX S.S.114 PORT.CENTR.ENICHEM  96010, PRIOLO GARGALLO, SR","prices":[{"type":"petrol","price":1.825,"self":true,"updatedAt":"25/06/2026 06:00:44"},{"type":"diesel","price":1.905,"self":true,"updatedAt":"25/06/2026 06:00:44"}]},{"id":"61546","lat":37.1252975,"lon":15.2215865,"name":"IB16- IBLEA PETROLI- PRIOLO","brand":"Iblea Petroli","address":"SS. 114 km162  98035, PRIOLO GARGALLO, SR","prices":[{"type":"petrol","price":1.779,"self":true,"updatedAt":"25/06/2026 01:23:50"},{"type":"diesel","price":1.849,"self":true,"updatedAt":"25/06/2026 01:23:50"}]},{"id":"26301","lat":37.151323630331966,"lon":15.192187428474426,"name":"losa carburanti","brand":"Agip Eni","address":"EXS.S.114KM158+220LOC. S FOCA' SNC 96010, PRIOLO GARGALLO, SR","prices":[{"type":"petrol","price":1.829,"self":true,"updatedAt":"25/06/2026 01:24:02"},{"type":"diesel","price":1.919,"self":true,"updatedAt":"25/06/2026 01:24:02"}]},{"id":"26300","lat":37.17461818470664,"lon":15.152351260185242,"name":"losa carburanti","brand":"Agip Eni","address":"BONDIFE' STRADA PROV.  95 SNC 96010, PRIOLO GARGALLO, SR","prices":[{"type":"petrol","price":1.829,"self":true,"updatedAt":"24/06/2026 23:37:08"},{"type":"diesel","price":1.919,"self":true,"updatedAt":"24/06/2026 23:37:08"}]},{"id":"59814","lat":37.1525319,"lon":15.1875435,"name":"Nobile Oil (Priolo)","brand":"Nobile Oil","address":"Via Salso 1  96010, PRIOLO GARGALLO, SR","prices":[{"type":"petrol","price":1.959,"self":true,"updatedAt":"24/06/2026 17:11:21"},{"type":"diesel","price":1.979,"self":true,"updatedAt":"24/06/2026 17:11:21"}]},{"id":"20041","lat":37.15502969711857,"lon":15.189161244215029,"name":"PRIOLO GARGALLO PENTAPOLI","brand":"Q8","address":"PENTAPOLI  96010, PRIOLO GARGALLO, SR","prices":[{"type":"petrol","price":1.789,"self":true,"updatedAt":"24/06/2026 17:40:00"},{"type":"diesel","price":1.899,"self":true,"updatedAt":"24/06/2026 17:40:00"}]},{"id":"22384","lat":37.172123432690626,"lon":15.158956373016395,"name":"SS 114 BAGALI EST PRIOLO","brand":"Agip Eni","address":"S.S. 114 KM 139 + 400  96010, PRIOLO GARGALLO, SR","prices":[{"type":"petrol","price":1.829,"self":true,"updatedAt":"25/06/2026 06:00:42"},{"type":"diesel","price":1.909,"self":true,"updatedAt":"25/06/2026 06:00:42"},{"type":"methane","price":1.799,"self":false,"updatedAt":"25/06/2026 06:00:42"},{"type":"lpg","price":0.759,"self":false,"updatedAt":"25/06/2026 06:00:42"}]},{"id":"22383","lat":37.11158477665371,"lon":15.195846829361017,"name":"SS 114 LATO MONTE PRIOLO","brand":"Agip Eni","address":"S.S. 114 KM 147 + 150   96010, PRIOLO GARGALLO, SR","prices":[{"type":"petrol","price":1.829,"self":true,"updatedAt":"25/06/2026 06:00:41"},{"type":"diesel","price":1.909,"self":true,"updatedAt":"25/06/2026 06:00:41"},{"type":"lpg","price":0.759,"self":false,"updatedAt":"25/06/2026 06:00:41"}]},{"id":"5175","lat":37.11012872199861,"lon":15.240580466270444,"name":"C.DA TARGIA SR","brand":"Q8","address":"STRADA PROVINCIALE PRIOLO-SIRACUSA TARGIA SNC 96100, SIRACUSA, SR","prices":[{"type":"petrol","price":1.789,"self":true,"updatedAt":"25/06/2026 06:00:47"},{"type":"diesel","price":1.849,"self":true,"updatedAt":"25/06/2026 06:00:47"},{"type":"methane","price":1.799,"self":false,"updatedAt":"25/06/2026 06:00:47"},{"type":"lpg","price":0.758,"self":false,"updatedAt":"25/06/2026 06:00:47"}]},{"id":"48655","lat":37.07235789900003,"lon":15.231355000000017,"name":"ENI","brand":"Agip Eni","address":"S.S 124 Loc. Tremmilia km 115+973  96100, SIRACUSA, SR","prices":[{"type":"petrol","price":1.954,"self":true,"updatedAt":"25/06/2026 00:46:24"},{"type":"diesel","price":2.044,"self":true,"updatedAt":"25/06/2026 00:46:24"}]},{"id":"50501","lat":37.108013948857334,"lon":15.246572985191264,"name":"LUKOIL","brand":"Lukoil","address":"114 Orientale Sicula, Km. 164+0,80, NORD - 96100, SIRACUSA, SR","prices":[{"type":"petrol","price":1.799,"self":true,"updatedAt":"23/06/2026 20:54:09"},{"type":"diesel","price":1.849,"self":true,"updatedAt":"23/06/2026 20:54:09"},{"type":"lpg","price":0.759,"self":false,"updatedAt":"23/06/2026 20:54:09"}]},{"id":"56841","lat":37.09275160768329,"lon":15.208456367254257,"name":"PIAZZA BONANNO - FRAZ. BELVEDERE","brand":"Giap","address":"Piazza Paolo Bonanno 26 96100, SIRACUSA, SR","prices":[{"type":"petrol","price":1.829,"self":true,"updatedAt":"25/06/2026 06:00:47"},{"type":"diesel","price":1.909,"self":true,"updatedAt":"25/06/2026 06:00:47"}]},{"id":"8706","lat":37.05888983206205,"lon":15.225497644180336,"name":"SERRAMEND. OVEST","brand":"Esso","address":"C.DA SERRAMENDOLA OVEST  96100, SIRACUSA, SR","prices":[{"type":"petrol","price":1.829,"self":true,"updatedAt":"25/06/2026 06:00:50"},{"type":"diesel","price":1.909,"self":true,"updatedAt":"25/06/2026 06:00:50"}]},{"id":"5173","lat":37.059394426082406,"lon":15.226675203704872,"name":"SERRAMENDOLA EST","brand":"Q8","address":"LOCALITA' SERRAMENDOLA EST SNC 96100, SIRACUSA, SR","prices":[{"type":"petrol","price":1.829,"self":true,"updatedAt":"25/06/2026 06:00:48"},{"type":"diesel","price":1.909,"self":true,"updatedAt":"25/06/2026 06:00:48"},{"type":"lpg","price":0.759,"self":false,"updatedAt":"25/06/2026 06:00:49"}]},{"id":"30601","lat":37.098506407234076,"lon":15.123740136623383,"name":"C.SO V. EMANUELE SOLARINO","brand":"Giap","address":"C.SO VITTORIO EMANUELE  96010, SOLARINO, SR","prices":[{"type":"petrol","price":1.835,"self":true,"updatedAt":"25/06/2026 06:01:08"},{"type":"diesel","price":1.955,"self":true,"updatedAt":"25/06/2026 06:01:08"}]},{"id":"54182","lat":37.095900708237856,"lon":15.12744409936522,"name":"SI.GEST.","brand":"Esso","address":"S.S. 124 KM. 105 702 SN 96010, SOLARINO, SR","prices":[{"type":"petrol","price":1.839,"self":true,"updatedAt":"24/06/2026 05:59:59"},{"type":"diesel","price":1.959,"self":true,"updatedAt":"24/06/2026 05:59:59"}]},{"id":"27982","lat":37.160807761547424,"lon":15.028002709150314,"name":"C.SO UMBERTO I SORTINO","brand":"Giap","address":"C.SO UMBERTO I  96010, SORTINO, SR","prices":[{"type":"petrol","price":1.825,"self":true,"updatedAt":"25/06/2026 06:01:06"},{"type":"diesel","price":1.915,"self":true,"updatedAt":"25/06/2026 06:01:06"}]},{"id":"6810","lat":37.16311932493388,"lon":15.034648328172352,"name":"eni","brand":"Agip Eni","address":"viale mario giardino 37 96010, SORTINO, SR","prices":[{"type":"petrol","price":1.829,"self":true,"updatedAt":"25/06/2026 00:46:11"},{"type":"diesel","price":1.919,"self":true,"updatedAt":"25/06/2026 00:46:11"}]},{"id":"7253","lat":37.16352905102957,"lon":15.037114173173904,"name":"RANNO LINO","brand":"Sidoti Fuel","address":"VIALE MARIO GIARDINO 27 96010, SORTINO, SR","prices":[{"type":"petrol","price":1.825,"self":true,"updatedAt":"22/06/2026 08:30:27"},{"type":"diesel","price":1.915,"self":true,"updatedAt":"22/06/2026 08:30:27"}]}]