[{"id":"59535","lat":37.08997106458327,"lon":15.271546020463475,"name":"108183 Siracusa V Scala Greca","brand":"Esso","address":"SCALA GRECA 154 96100, SIRACUSA, SR","prices":[{"type":"petrol","price":1.869,"self":true,"updatedAt":"09/06/2026 15:55:06"},{"type":"diesel","price":1.999,"self":true,"updatedAt":"09/06/2026 15:55:06"}]},{"id":"55652","lat":37.078706716999804,"lon":15.295781069591973,"name":"108208 SIRACUSA","brand":"Esso","address":"PUGLIA SNC 96100, SIRACUSA, SR","prices":[{"type":"petrol","price":1.799,"self":true,"updatedAt":"30/06/2026 07:27:12"},{"type":"diesel","price":1.879,"self":true,"updatedAt":"30/06/2026 15:55:07"}]},{"id":"60521","lat":37.07676,"lon":15.28172,"name":"19870  SIRACUSA","brand":"Agip Eni","address":"VIALE TERACATI  32, SIRACUSA, SR","prices":[{"type":"petrol","price":1.829,"self":true,"updatedAt":"30/06/2026 00:23:39"},{"type":"diesel","price":1.889,"self":true,"updatedAt":"30/06/2026 00:23:39"}]},{"id":"58588","lat":37.057602,"lon":15.267955,"name":"19873 SIRACUSA","brand":"Agip Eni","address":"S.S. 115 KM. 407+254 C/DA PANTANELLI, SIRACUSA, SR","prices":[{"type":"petrol","price":1.829,"self":true,"updatedAt":"30/06/2026 00:09:52"},{"type":"diesel","price":1.889,"self":true,"updatedAt":"30/06/2026 00:09:52"}]},{"id":"48785","lat":37.08318163382286,"lon":15.254159906745896,"name":"19884","brand":"Agip Eni","address":"VIALE EPIPOLI 175 96100, SIRACUSA, SR","prices":[{"type":"petrol","price":1.824,"self":true,"updatedAt":"01/07/2026 00:09:53"},{"type":"diesel","price":1.884,"self":true,"updatedAt":"01/07/2026 00:09:52"}]},{"id":"46277","lat":37.09172009344713,"lon":15.283740817127182,"name":"29920","brand":"Agip Eni","address":"MADRE TERESA DI CALCUTTA SNC 96100, SIRACUSA, SR","prices":[{"type":"petrol","price":1.789,"self":true,"updatedAt":"01/07/2026 00:05:53"},{"type":"diesel","price":1.834,"self":true,"updatedAt":"01/07/2026 00:05:53"}]},{"id":"58742","lat":37.0894598,"lon":15.2938646,"name":"AM PETROLI - GROTTASANTA","brand":"Pompe Bianche","address":"Via Grotta Santa 259  96100, SIRACUSA, SR","prices":[{"type":"petrol","price":1.959,"self":true,"updatedAt":"28/06/2026 20:40:42"},{"type":"diesel","price":1.959,"self":true,"updatedAt":"28/06/2026 20:40:42"}]},{"id":"16160","lat":37.04457592531377,"lon":15.267816334962845,"name":"BELLOBUONO CORRADO","brand":"SEPA","address":"VIA LIDO SACRAMENTO 19 96100, SIRACUSA, SR","prices":[{"type":"petrol","price":1.829,"self":true,"updatedAt":"29/06/2026 12:49:10"},{"type":"diesel","price":1.929,"self":true,"updatedAt":"29/06/2026 12:49:10"}]},{"id":"36137","lat":37.070868421663214,"lon":15.270856285232185,"name":"Distributore di Carburanti di Castro Daniele","brand":"Esso","address":"VIALE PAOLO ORSI SN 96100, SIRACUSA, SR","prices":[{"type":"petrol","price":1.839,"self":true,"updatedAt":"29/06/2026 08:33:12"},{"type":"diesel","price":1.909,"self":true,"updatedAt":"29/06/2026 08:33:12"}]},{"id":"59279","lat":37.0849791,"lon":15.2845003,"name":"DISTRIBUTORE ENI","brand":"Agip Eni","address":"Via Elorina 106 96100, SIRACUSA, SR","prices":[{"type":"petrol","price":1.839,"self":true,"updatedAt":"30/06/2026 07:15:01"},{"type":"diesel","price":1.899,"self":true,"updatedAt":"30/06/2026 07:15:01"}]},{"id":"53401","lat":37.07666,"lon":15.28694,"name":"ENI","brand":"Agip Eni","address":"VON PLATEN 25 96100, SIRACUSA, SR","prices":[{"type":"petrol","price":1.824,"self":true,"updatedAt":"01/07/2026 00:37:21"},{"type":"diesel","price":1.884,"self":true,"updatedAt":"01/07/2026 00:37:21"}]},{"id":"50588","lat":37.09152119155358,"lon":15.276845445830785,"name":"esso","brand":"Esso","address":"VIALE SANTA PANAGIA 166 96100, SIRACUSA, SR","prices":[{"type":"petrol","price":1.819,"self":true,"updatedAt":"01/07/2026 06:10:46"},{"type":"diesel","price":1.899,"self":true,"updatedAt":"01/07/2026 06:10:46"}]},{"id":"60748","lat":37.0867247,"lon":15.2870577,"name":"IBLEA PETROLI","brand":"Iblea Petroli","address":"Via Diaz 5 96019, SIRACUSA, SR","prices":[{"type":"petrol","price":1.859,"self":false,"updatedAt":"30/06/2026 23:19:00"},{"type":"diesel","price":1.935,"self":false,"updatedAt":"30/06/2026 23:19:00"}]},{"id":"62085","lat":37.10037,"lon":15.26683,"name":"IDC SIRACUSA SCALA GRECA","brand":"Esso","address":"VIA SCALA GRECA 366\\F 96100, SIRACUSA, SR","prices":[{"type":"petrol","price":1.829,"self":true,"updatedAt":"26/06/2026 22:51:31"},{"type":"diesel","price":1.919,"self":true,"updatedAt":"26/06/2026 22:51:31"}]},{"id":"61606","lat":37.07552,"lon":15.28531,"name":"IDC Viale Teocrito, Siracusa","brand":"Esso","address":"Viale Teocrito SN 96100, SIRACUSA, SR","prices":[{"type":"petrol","price":1.829,"self":true,"updatedAt":"26/06/2026 22:53:03"},{"type":"diesel","price":1.919,"self":true,"updatedAt":"26/06/2026 22:53:03"}]},{"id":"59261","lat":37.09045,"lon":15.2729,"name":"IP VIALE SCALA GRECA","brand":"Api-Ip","address":"SCALA GRECA 80 96100, SIRACUSA, SR","prices":[{"type":"petrol","price":1.819,"self":true,"updatedAt":"30/06/2026 23:51:04"},{"type":"diesel","price":1.899,"self":true,"updatedAt":"30/06/2026 23:51:04"},{"type":"lpg","price":0.769,"self":false,"updatedAt":"30/06/2026 23:51:04"}]},{"id":"12254","lat":37.08293239761979,"lon":15.290164000137793,"name":"LARGO DICONE SR","brand":"Giap","address":"LARGO DICONE SNC 96100, SIRACUSA, SR","prices":[{"type":"petrol","price":1.819,"self":true,"updatedAt":"01/07/2026 06:00:56"},{"type":"diesel","price":1.879,"self":true,"updatedAt":"01/07/2026 06:00:56"}]},{"id":"33736","lat":37.06356739205526,"lon":15.29053196310997,"name":"Marine Service S.n.c","brand":"Pompe Bianche","address":"molo mazzini sn 96100, SIRACUSA, SR","prices":[{"type":"petrol","price":1.971,"self":true,"updatedAt":"30/06/2026 23:25:16"},{"type":"diesel","price":2.1,"self":true,"updatedAt":"30/06/2026 23:25:16"}]},{"id":"52454","lat":37.10622747580266,"lon":15.253768540338534,"name":"MV PETROLI - TARGIA","brand":"Pompe Bianche","address":"Contrada Targia  96100, SIRACUSA, SR","prices":[{"type":"petrol","price":1.789,"self":true,"updatedAt":"01/07/2026 04:33:53"},{"type":"diesel","price":1.849,"self":true,"updatedAt":"01/07/2026 04:33:53"},{"type":"methane","price":1.799,"self":false,"updatedAt":"01/07/2026 04:33:53"},{"type":"lpg","price":0.759,"self":false,"updatedAt":"01/07/2026 04:33:53"}]},{"id":"58191","lat":37.0789399318573,"lon":15.280885398387909,"name":"MV PETROLI - TERACATI","brand":"Pompe Bianche","address":"TERACATI 13/A 96100, SIRACUSA, SR","prices":[{"type":"petrol","price":1.799,"self":true,"updatedAt":"30/06/2026 09:47:53"},{"type":"diesel","price":1.879,"self":true,"updatedAt":"30/06/2026 09:47:53"}]},{"id":"22193","lat":37.080646905175854,"lon":15.277108690731893,"name":"Nobile Oilgroup S.p.A","brand":"Nobile Oil","address":"VIA NECROPOLI GROTTICELLE 32 96100, SIRACUSA, SR","prices":[{"type":"petrol","price":1.799,"self":true,"updatedAt":"26/06/2026 19:52:29"},{"type":"diesel","price":1.879,"self":true,"updatedAt":"26/06/2026 19:52:29"}]},{"id":"52033","lat":37.06633379164494,"lon":15.284170357244193,"name":"Q8","brand":"Q8","address":"PIAZZA MARCONI 18 96100, SIRACUSA, SR","prices":[{"type":"petrol","price":1.859,"self":true,"updatedAt":"29/06/2026 06:57:05"},{"type":"diesel","price":1.919,"self":true,"updatedAt":"29/06/2026 06:57:05"}]},{"id":"61784","lat":37.037992,"lon":15.2577175,"name":"SIRACUSA  S.S. 115 KM. 404+826","brand":"Q8","address":"S.S. 115 KM. 404+826, SIRACUSA, SR","prices":[{"type":"petrol","price":1.839,"self":true,"updatedAt":"01/07/2026 07:44:52"},{"type":"diesel","price":1.919,"self":true,"updatedAt":"01/07/2026 07:44:52"}]},{"id":"34856","lat":37.09477939057171,"lon":15.286355763673782,"name":"SIRACUSA - VIA BARTOLOMEO CANNIZZO","brand":"Q8","address":"VIA BARTOLOMEO CANNIZZO  96100, SIRACUSA, SR","prices":[{"type":"petrol","price":1.799,"self":true,"updatedAt":"01/07/2026 01:43:29"},{"type":"diesel","price":1.879,"self":true,"updatedAt":"01/07/2026 01:43:29"}]},{"id":"25321","lat":37.071841086902666,"lon":15.267953776057425,"name":"SIRACUSA S.S. 124 KM 119+538","brand":"Q8","address":"S.S. 124 KM 119+538  96100, SIRACUSA, SR","prices":[{"type":"petrol","price":1.799,"self":true,"updatedAt":"01/07/2026 01:43:27"},{"type":"diesel","price":1.879,"self":true,"updatedAt":"01/07/2026 01:43:27"}]},{"id":"6776","lat":37.08172364978188,"lon":15.281288225794924,"name":"SIRACUSA VIA TERACATI 32","brand":"Q8","address":"VIA TERACATI 32 96100, SIRACUSA, SR","prices":[{"type":"petrol","price":1.799,"self":true,"updatedAt":"29/06/2026 18:04:35"},{"type":"diesel","price":1.879,"self":true,"updatedAt":"29/06/2026 18:04:35"}]},{"id":"41104","lat":37.09057195888999,"lon":15.271010525794964,"name":"SIRACUSA VIALE SCALA GRECA 215","brand":"Q8","address":"VIALE SCALA GRECA  215 96100, SIRACUSA, SR","prices":[{"type":"petrol","price":1.819,"self":true,"updatedAt":"29/06/2026 18:04:36"},{"type":"diesel","price":1.899,"self":true,"updatedAt":"29/06/2026 18:04:36"}]},{"id":"4351","lat":37.06382487907658,"lon":15.274544682209012,"name":"SOLAR","brand":"Pompe Bianche","address":"VIA ELORINA 51 96100, SIRACUSA, SR","prices":[{"type":"petrol","price":1.827,"self":true,"updatedAt":"29/06/2026 18:23:53"},{"type":"diesel","price":1.887,"self":true,"updatedAt":"29/06/2026 18:23:53"}]},{"id":"33661","lat":37.0617093616627,"lon":15.290471613407135,"name":"SOLAR Zanagora","brand":"Pompe Bianche","address":"Molo Zanagora  Porto Grande   96100, SIRACUSA, SR","prices":[{"type":"petrol","price":2.05,"self":false,"updatedAt":"26/06/2026 18:51:35"},{"type":"diesel","price":2.15,"self":false,"updatedAt":"26/06/2026 18:51:35"}]},{"id":"36589","lat":37.0735082904516,"lon":15.281240791082382,"name":"SR026","brand":"Q8","address":"VIALE PAOLO ORSI SNC 96100, SIRACUSA, SR","prices":[{"type":"petrol","price":1.799,"self":true,"updatedAt":"30/06/2026 15:21:03"},{"type":"diesel","price":1.899,"self":true,"updatedAt":"30/06/2026 15:21:03"}]},{"id":"47684","lat":37.087401418569044,"lon":15.282511562108988,"name":"SR033","brand":"Q8","address":"VIA ANTONELLO DA MESSINA S.N. 96100, SIRACUSA, SR","prices":[{"type":"petrol","price":1.799,"self":true,"updatedAt":"26/06/2026 07:48:05"},{"type":"diesel","price":1.899,"self":true,"updatedAt":"26/06/2026 07:48:05"}]},{"id":"49935","lat":37.08217108385137,"lon":15.260589122772217,"name":"STAZIONE DI SERVIZIO ESSO LA BRACA ANTONIO","brand":"Esso","address":"EPIPOLI 196 96100, SIRACUSA, SR","prices":[{"type":"petrol","price":1.819,"self":true,"updatedAt":"27/06/2026 08:54:40"},{"type":"diesel","price":1.909,"self":true,"updatedAt":"27/06/2026 08:54:40"}]},{"id":"57275","lat":37.073239117747335,"lon":15.280034067020987,"name":"STAZIONE DI SERVIZIO Q8 DI CICERO PAOLO","brand":"Q8","address":"Viale Paolo Orsi 2  96100, SIRACUSA, SR","prices":[{"type":"petrol","price":1.819,"self":true,"updatedAt":"29/06/2026 19:22:40"},{"type":"diesel","price":1.899,"self":true,"updatedAt":"29/06/2026 19:22:40"}]},{"id":"63270","lat":37.0928787,"lon":15.2702528,"name":"TOIL342 - SCALA GRECA","brand":"Esso","address":"Viale Scala Greca 154 96100, SIRACUSA, SR","prices":[{"type":"petrol","price":1.819,"self":true,"updatedAt":"01/07/2026 00:17:36"},{"type":"diesel","price":1.899,"self":true,"updatedAt":"01/07/2026 00:17:36"}]},{"id":"63274","lat":37.0792087,"lon":15.2958812,"name":"TOIL352 - V. PUGLIA (SR)","brand":"Esso","address":"Via Puglia 2 96100, SIRACUSA, SR","prices":[{"type":"petrol","price":1.799,"self":true,"updatedAt":"30/06/2026 13:35:15"},{"type":"diesel","price":1.879,"self":true,"updatedAt":"30/06/2026 13:35:15"}]},{"id":"12276","lat":37.09905187026108,"lon":15.27214072883612,"name":"V. DEI COMUNI SR","brand":"Esso","address":"VIALE DEI COMUNI SNC 96100, SIRACUSA, SR","prices":[{"type":"petrol","price":1.819,"self":true,"updatedAt":"01/07/2026 06:01:01"},{"type":"diesel","price":1.879,"self":true,"updatedAt":"01/07/2026 06:01:01"}]},{"id":"12275","lat":37.09835967200183,"lon":15.275067000000035,"name":"V. S. PANAGIA SR","brand":"Agip Eni","address":"VIALE SANTA PANAGIA SNC 96100, SIRACUSA, SR","prices":[{"type":"petrol","price":1.799,"self":true,"updatedAt":"01/07/2026 06:00:53"},{"type":"diesel","price":1.859,"self":true,"updatedAt":"01/07/2026 06:00:53"}]},{"id":"57040","lat":37.08868218565052,"lon":15.289551615715027,"name":"VIA FILISTO, 178 - SIRACUSA","brand":"Giap","address":"Via Filisto 178  96100, SIRACUSA, SR","prices":[{"type":"petrol","price":1.809,"self":true,"updatedAt":"01/07/2026 06:00:57"},{"type":"diesel","price":1.869,"self":true,"updatedAt":"01/07/2026 06:00:57"}]}]