[{"id":"13915","lat":37.162472577458054,"lon":14.752985396355143,"name":"ESSO \"A.S.V. DI ANTIVIGILIA SNC\"","brand":"Esso","address":"VIA ROMA 98 95049, VIZZINI, CT","prices":[{"type":"petrol","price":1.849,"self":false,"updatedAt":"28/06/2026 20:07:55"},{"type":"diesel","price":1.949,"self":false,"updatedAt":"28/06/2026 20:07:55"}]},{"id":"12375","lat":37.16358535118034,"lon":14.756556408563597,"name":"VIA DEI GALLI VIZZINI","brand":"Giap","address":"VIA DEI GALLI  95049, VIZZINI, CT","prices":[{"type":"petrol","price":1.838,"self":true,"updatedAt":"01/07/2026 05:58:12"},{"type":"diesel","price":1.938,"self":true,"updatedAt":"01/07/2026 05:58:12"}]},{"id":"51318","lat":37.04810011221438,"lon":14.796255826950073,"name":"AVVEDUTO VINCENZO","brand":"DBCarburanti","address":"MARTIRI D'UNGHERIA SN 97010, GIARRATANA, RG","prices":[{"type":"petrol","price":1.859,"self":false,"updatedAt":"28/06/2026 20:12:59"},{"type":"diesel","price":1.929,"self":false,"updatedAt":"28/06/2026 20:12:59"}]},{"id":"12351","lat":37.045989873513925,"lon":14.794313091926597,"name":"C.SO UMBERTO GIARRATANA","brand":"Giap","address":"C.SO UMBERTO SS 194  97010, GIARRATANA, RG","prices":[{"type":"petrol","price":1.858,"self":true,"updatedAt":"01/07/2026 06:00:34"},{"type":"diesel","price":1.928,"self":true,"updatedAt":"01/07/2026 06:00:34"}]},{"id":"38516","lat":37.04019690262676,"lon":14.795051515102386,"name":"NOBILE (GIARRATANA)","brand":"Nobile Oil","address":"SS KM 53 + 929  97010, GIARRATANA, RG","prices":[{"type":"petrol","price":1.999,"self":true,"updatedAt":"29/06/2026 11:15:26"},{"type":"diesel","price":1.999,"self":true,"updatedAt":"29/06/2026 11:15:26"}]},{"id":"34251","lat":37.086011481916024,"lon":14.77419063448906,"name":"Tamoil","brand":"Tamoil","address":"194 KM. 47,555 SNC 97010, MONTEROSSO ALMO, RG","prices":[{"type":"petrol","price":1.859,"self":true,"updatedAt":"30/06/2026 00:13:27"},{"type":"diesel","price":1.929,"self":true,"updatedAt":"30/06/2026 00:13:27"}]},{"id":"38776","lat":37.12491053684247,"lon":14.853266850113869,"name":"Distributore Carburanti Esso di Failla Andrea","brand":"Esso","address":"VIA SABAUDA 79 96010, BUCCHERI, SR","prices":[{"type":"petrol","price":1.829,"self":true,"updatedAt":"29/06/2026 18:45:53"},{"type":"diesel","price":1.909,"self":true,"updatedAt":"29/06/2026 18:45:53"}]},{"id":"7688","lat":37.07145922815007,"lon":14.88343303802867,"name":"SS 124 KM 72+700","brand":"Giap","address":"Statale 124 Siracusana, Km. KM 72+700, dir. BUSCEMI - 96010, BUSCEMI, SR","prices":[{"type":"petrol","price":1.824,"self":true,"updatedAt":"01/07/2026 06:01:08"},{"type":"diesel","price":1.884,"self":true,"updatedAt":"01/07/2026 06:01:08"}]},{"id":"60331","lat":37.1939571,"lon":14.9382544,"name":"NOBILE OIL (PEDAGAGGI)","brand":"Nobile Oil","address":"Via Principe Emanuele  96013, CARLENTINI, SR","prices":[{"type":"petrol","price":1.879,"self":true,"updatedAt":"29/06/2026 11:16:04"},{"type":"diesel","price":1.979,"self":true,"updatedAt":"29/06/2026 11:16:05"}]},{"id":"59888","lat":37.10374919447,"lon":14.945650320849436,"name":"IDC CASSARO","brand":"Esso","address":"Via Regina Margherita S.N 96010, CASSARO, SR","prices":[{"type":"petrol","price":1.849,"self":true,"updatedAt":"01/07/2026 00:12:30"},{"type":"diesel","price":1.949,"self":true,"updatedAt":"01/07/2026 00:12:30"}]},{"id":"10687","lat":37.12112537593818,"lon":14.935562461614609,"name":"IP Costanzo Giuseppe","brand":"Api-Ip","address":"Via Garibaldi 169 bis 96010, FERLA, SR","prices":[{"type":"petrol","price":1.846,"self":true,"updatedAt":"23/06/2026 19:49:52"},{"type":"diesel","price":1.949,"self":true,"updatedAt":"23/06/2026 19:49:52"}]},{"id":"59228","lat":37.22611,"lon":14.88851,"name":"19891 FRANCOFONTE","brand":"Agip Eni","address":"VIA ON. SEBASTIANO  FRANCO  S.N.C, FRANCOFONTE, SR","prices":[{"type":"petrol","price":1.829,"self":true,"updatedAt":"30/06/2026 00:06:09"},{"type":"diesel","price":1.889,"self":true,"updatedAt":"30/06/2026 00:06:09"}]},{"id":"4928","lat":37.21879910483669,"lon":14.854015856981277,"name":"FRANCOFONTE","brand":"Lukoil","address":"CONTRADA CONTRASTO SN 96015, FRANCOFONTE, SR","prices":[{"type":"petrol","price":1.799,"self":true,"updatedAt":"30/06/2026 18:00:29"},{"type":"diesel","price":1.879,"self":true,"updatedAt":"30/06/2026 18:00:29"},{"type":"lpg","price":0.768,"self":false,"updatedAt":"30/06/2026 18:00:29"}]},{"id":"24245","lat":37.22910813824452,"lon":14.883305855155982,"name":"IDC Via Roma, 50","brand":"Esso","address":"VIA ROMA 50 96015, FRANCOFONTE, SR","prices":[{"type":"petrol","price":1.819,"self":true,"updatedAt":"30/06/2026 16:06:06"},{"type":"diesel","price":1.879,"self":true,"updatedAt":"30/06/2026 16:06:06"}]},{"id":"26687","lat":37.227206028304735,"lon":14.8790734822976,"name":"P.ZZA ARCHIMEDE FRANCOFONTE","brand":"Giap","address":"PIAZZA ARCHIMEDE 1 96015, FRANCOFONTE, SR","prices":[{"type":"petrol","price":1.819,"self":true,"updatedAt":"01/07/2026 06:01:23"},{"type":"diesel","price":1.879,"self":true,"updatedAt":"01/07/2026 06:01:23"}]},{"id":"27443","lat":37.22674793690949,"lon":14.88669197071738,"name":"P.ZZA CARMINE VECCHIO","brand":"Giap","address":"PIAZZA CARMINE VECCHIO  96015, FRANCOFONTE, SR","prices":[{"type":"petrol","price":1.819,"self":true,"updatedAt":"01/07/2026 06:01:23"},{"type":"diesel","price":1.879,"self":true,"updatedAt":"01/07/2026 06:01:23"}]},{"id":"61852","lat":37.22731726798043,"lon":14.897853268209158,"name":"SR020","brand":"EOS","address":"S.S. 194 RAGUSA-CATANIA SN 96015, FRANCOFONTE, SR","prices":[{"type":"petrol","price":1.789,"self":true,"updatedAt":"30/06/2026 10:00:11"},{"type":"diesel","price":1.889,"self":true,"updatedAt":"30/06/2026 10:00:11"}]},{"id":"57958","lat":37.22584409201454,"lon":14.879421457672114,"name":"Via Onorevole Sebastiano Franco","brand":"Giap","address":"Via Onorevole Sebastiano Franco 10  96015, FRANCOFONTE, SR","prices":[{"type":"petrol","price":1.829,"self":true,"updatedAt":"01/07/2026 06:01:24"},{"type":"diesel","price":1.889,"self":true,"updatedAt":"01/07/2026 06:01:24"}]},{"id":"21856","lat":37.03751764002398,"lon":14.966836273670197,"name":"S.S. 287 KM 3+800 SX NOTO","brand":"Esso","address":"Statale 287 di Noto, Km. KM 3+800, dir. NOTO - 96017, NOTO, SR","prices":[{"type":"petrol","price":1.829,"self":true,"updatedAt":"01/07/2026 06:01:15"},{"type":"diesel","price":1.889,"self":true,"updatedAt":"01/07/2026 06:01:15"}]},{"id":"18060","lat":37.05951958946061,"lon":14.910994286508185,"name":"BONAIUTO ENERGY SRL","brand":"Pompe Bianche","address":"VIA NAZIONALE 113 96010, PALAZZOLO ACREIDE, SR","prices":[{"type":"petrol","price":1.823,"self":true,"updatedAt":"30/06/2026 22:03:27"},{"type":"diesel","price":1.887,"self":true,"updatedAt":"30/06/2026 22:03:27"}]},{"id":"51464","lat":37.05917530789765,"lon":14.913826804258875,"name":"Self Area Eni","brand":"Agip Eni","address":"124 Siracusana, Km. 79.4, Palazzolo Acreide - 96010, PALAZZOLO ACREIDE, SR","prices":[{"type":"petrol","price":1.829,"self":true,"updatedAt":"01/07/2026 00:09:19"},{"type":"diesel","price":1.889,"self":true,"updatedAt":"01/07/2026 00:09:19"}]}]