[{"id":"32227","lat":37.26858330867809,"lon":14.594796448946,"name":"C.DA MAGAZZINAZZO SS 417 KM 24","brand":"Agip Eni","address":"Statale 417 di Caltagirone, Km. 24+185, dir. CALTAGIRONE - 95041, CALTAGIRONE, CT","prices":[{"type":"petrol","price":1.819,"self":true,"updatedAt":"23/06/2026 05:58:02"},{"type":"diesel","price":1.909,"self":true,"updatedAt":"23/06/2026 05:58:02"},{"type":"lpg","price":0.929,"self":false,"updatedAt":"23/06/2026 05:58:02"}]},{"id":"33660","lat":37.25321527525555,"lon":14.505173366146778,"name":"eni","brand":"Agip Eni","address":"Statale 124 Siracusana, Km. 13+900, dir. San michele di ganzaria - 95041, CALTAGIRONE, CT","prices":[{"type":"petrol","price":1.879,"self":true,"updatedAt":"23/06/2026 00:06:44"},{"type":"diesel","price":1.969,"self":true,"updatedAt":"23/06/2026 00:06:44"}]},{"id":"60966","lat":37.25070674136449,"lon":14.541497603058815,"name":"PETROL COMPANY S.R.L.","brand":"Petrol Company","address":"SP. 180 - C.DA MALASOLAZZO SNC 95041, CALTAGIRONE, CT","prices":[{"type":"petrol","price":1.828,"self":true,"updatedAt":"22/06/2026 23:48:13"},{"type":"diesel","price":1.928,"self":true,"updatedAt":"22/06/2026 23:48:13"},{"type":"lpg","price":0.924,"self":false,"updatedAt":"23/06/2026 00:26:27"}]},{"id":"33354","lat":37.46723157370535,"lon":14.645580053329468,"name":"D'AGATI GRAZIA","brand":"Pompe Bianche","address":"VIA SAN GIUSEPPE 102 95040, CASTEL DI IUDICA, CT","prices":[{"type":"petrol","price":1.909,"self":true,"updatedAt":"23/06/2026 07:49:12"},{"type":"diesel","price":2.029,"self":true,"updatedAt":"23/06/2026 07:49:12"},{"type":"lpg","price":0.999,"self":false,"updatedAt":"23/06/2026 07:49:12"}]},{"id":"43769","lat":37.464828160475186,"lon":14.64591350735759,"name":"S.S. 288 CATANIA-AIDONE KM 20+270 CASTEL DI IUDICA","brand":"Giap","address":"288 di Aidone, Km. 20 + 270 , AIDONE - 95040, CASTEL DI IUDICA, CT","prices":[{"type":"petrol","price":1.909,"self":true,"updatedAt":"23/06/2026 05:58:47"},{"type":"diesel","price":2.029,"self":true,"updatedAt":"23/06/2026 05:58:47"}]},{"id":"20360","lat":37.49469621077054,"lon":14.646946837608084,"name":"VIA GARIBALDI CASTEL DI IUDICA","brand":"Giap","address":"VIA GARIBALDI  95040, CASTEL DI IUDICA, CT","prices":[{"type":"petrol","price":1.909,"self":true,"updatedAt":"23/06/2026 05:58:44"},{"type":"diesel","price":2.029,"self":true,"updatedAt":"23/06/2026 05:58:44"}]},{"id":"26372","lat":37.30998261819935,"lon":14.659935235977173,"name":"ESSO","brand":"Esso","address":"Statale 417 di Caltagirone, Km. 31,700, dir. CATANIA  95044, MINEO, CT","prices":[{"type":"petrol","price":1.839,"self":true,"updatedAt":"23/06/2026 06:48:40"},{"type":"diesel","price":1.939,"self":true,"updatedAt":"23/06/2026 06:48:40"}]},{"id":"48025","lat":37.34935310913972,"lon":14.69715091809578,"name":"Gas Point","brand":"Api-Ip","address":"417 di Caltagirone, Km. 37,300, loc.Monaci snc - 95046, MINEO, CT","prices":[{"type":"lpg","price":0.949,"self":false,"updatedAt":"22/06/2026 21:45:55"}]},{"id":"37483","lat":37.26490533075749,"lon":14.692186988989647,"name":"LARGO ADINOLFO - MINEO","brand":"Giap","address":"LARGO ADINOLFO  95044, MINEO, CT","prices":[{"type":"petrol","price":1.859,"self":true,"updatedAt":"23/06/2026 05:58:16"},{"type":"diesel","price":1.969,"self":true,"updatedAt":"23/06/2026 05:58:16"}]},{"id":"31845","lat":37.311224213525826,"lon":14.725516587495804,"name":"SS 385 KM 33 + 493 MINEO","brand":"Giap","address":"Statale 385 di Palagonia, Km. 33 + 493, dir. MINEO - 95044, MINEO, CT","prices":[{"type":"petrol","price":1.859,"self":true,"updatedAt":"23/06/2026 05:58:12"},{"type":"diesel","price":1.969,"self":true,"updatedAt":"23/06/2026 05:58:12"}]},{"id":"37484","lat":37.265215819268754,"lon":14.69275139272213,"name":"VIA FRANCESCO CRISPI - MINEO","brand":"Giap","address":"VIA FRANCESCO CRISPI  95044, MINEO, CT","prices":[{"type":"petrol","price":1.859,"self":true,"updatedAt":"23/06/2026 05:58:16"},{"type":"diesel","price":1.969,"self":true,"updatedAt":"23/06/2026 05:58:17"}]},{"id":"40414","lat":37.33864746602621,"lon":14.736840364656814,"name":"CT065","brand":"Q8","address":"VIA PALERMO LOC. VALCOCO SN 95046, PALAGONIA, CT","prices":[{"type":"petrol","price":1.859,"self":true,"updatedAt":"19/06/2026 11:36:06"},{"type":"diesel","price":1.949,"self":true,"updatedAt":"19/06/2026 11:36:06"}]},{"id":"28353","lat":37.33384219135509,"lon":14.741684272885323,"name":"SICILPETROLI","brand":"Sicilpetroli","address":"VIA PALERMO S.N. 95046, PALAGONIA, CT","prices":[{"type":"petrol","price":1.949,"self":true,"updatedAt":"22/06/2026 19:01:06"},{"type":"diesel","price":1.999,"self":true,"updatedAt":"22/06/2026 19:01:06"}]},{"id":"58044","lat":37.47427,"lon":14.5376,"name":"SICILPETROLI RADDUSA","brand":"Sicilpetroli","address":"Via Catania 17 95040, RADDUSA, CT","prices":[{"type":"petrol","price":1.859,"self":true,"updatedAt":"22/06/2026 00:25:26"},{"type":"diesel","price":1.969,"self":true,"updatedAt":"22/06/2026 00:25:26"}]},{"id":"47098","lat":37.37905904045153,"lon":14.748820825120927,"name":"ESSO","brand":"Esso","address":"417 di Caltagirone, Km. 43,150, CATANIA - 95040, RAMACCA, CT","prices":[{"type":"petrol","price":1.839,"self":true,"updatedAt":"22/06/2026 09:23:29"},{"type":"diesel","price":1.939,"self":true,"updatedAt":"22/06/2026 09:23:29"}]},{"id":"35714","lat":37.38949958988124,"lon":14.694912069940528,"name":"FE.SA.PI. di Fede Salvatore e Fede Pietro S.N.C.","brand":"DBCarburanti","address":"VIA ROMA 178 95040, RAMACCA, CT","prices":[{"type":"petrol","price":1.849,"self":true,"updatedAt":"22/06/2026 08:25:05"},{"type":"diesel","price":1.949,"self":true,"updatedAt":"22/06/2026 08:25:05"}]},{"id":"52303","lat":37.424071083287814,"lon":14.726490839973895,"name":"SP ENERGIA SICILIANA","brand":"SP Energia Siciliana","address":"121 Catanese, Km. 10, ENNA - 95040, RAMACCA, CT","prices":[{"type":"petrol","price":1.939,"self":true,"updatedAt":"19/06/2026 08:41:59"},{"type":"diesel","price":1.969,"self":true,"updatedAt":"19/06/2026 08:41:59"}]},{"id":"12050","lat":37.38026386030079,"lon":14.700018167495728,"name":"SP RAMACCA-PALAG","brand":"Esso","address":"SP 25 RAMACCA - PALAGONIA  95040, RAMACCA, CT","prices":[{"type":"petrol","price":1.828,"self":true,"updatedAt":"23/06/2026 05:58:49"},{"type":"diesel","price":1.918,"self":true,"updatedAt":"23/06/2026 05:58:49"}]},{"id":"37634","lat":37.3916503570063,"lon":14.693855792284012,"name":"STAZIONE Q8 DI OLIVERI F.SCO","brand":"Q8","address":"VIA CATANIA S.P. 25/I 95040, RAMACCA, CT","prices":[{"type":"petrol","price":1.863,"self":true,"updatedAt":"19/06/2026 19:48:23"},{"type":"diesel","price":1.963,"self":true,"updatedAt":"19/06/2026 19:48:23"}]}]