[{"id":"25667","lat":37.599213511873806,"lon":13.915021419525146,"name":"fasciana cataldo & c. s.a.s.","brand":"Pompe Bianche","address":"Statale 121 Catanese, Km. 153, dir. palermo - -, MARIANOPOLI, CL","prices":[{"type":"petrol","price":1.825,"self":true,"updatedAt":"20/06/2026 20:33:40"},{"type":"diesel","price":1.895,"self":true,"updatedAt":"20/06/2026 20:33:40"}]},{"id":"21709","lat":37.58205127878793,"lon":13.750255331397057,"name":"STAZIONE DI SERVIZIO ESSO - GIARDINA AUTOMOBILI SAS","brand":"Esso","address":"PEPPE SORCE SN 93014, MUSSOMELI, CL","prices":[{"type":"petrol","price":1.824,"self":true,"updatedAt":"19/06/2026 20:12:34"},{"type":"diesel","price":1.924,"self":true,"updatedAt":"19/06/2026 20:12:34"}]},{"id":"22987","lat":37.58207114352494,"lon":13.750995562478238,"name":"VIA PALERMO MUSSOMELI","brand":"Giap","address":"VIA PALERMO  93014, MUSSOMELI, CL","prices":[{"type":"petrol","price":1.824,"self":true,"updatedAt":"26/06/2026 05:57:57"},{"type":"diesel","price":1.909,"self":true,"updatedAt":"26/06/2026 05:57:57"}]},{"id":"24760","lat":37.68739230337941,"lon":13.824247419834137,"name":"IDROCARBURI CAMMARATA S.A.S.","brand":"Pompe Bianche","address":"CONTRADA PONTICELLO SNC, 93010, VALLELUNGA PRATAMENO, CL","prices":[{"type":"petrol","price":1.859,"self":true,"updatedAt":"23/06/2026 13:50:42"},{"type":"diesel","price":1.899,"self":true,"updatedAt":"23/06/2026 13:50:42"},{"type":"lpg","price":0.799,"self":false,"updatedAt":"23/06/2026 13:50:42"}]},{"id":"40548","lat":37.683556051318746,"lon":13.835068121552467,"name":"STAZIONE DI SERVIZIO Q8 VALLELUNGA PRATAMENO","brand":"Q8","address":"Statale 121 Catanese, Km. Via Nazionale,30, dir. Caltanissetta - 93010, VALLELUNGA PRATAMENO, CL","prices":[{"type":"petrol","price":1.859,"self":true,"updatedAt":"25/06/2026 12:58:47"},{"type":"diesel","price":1.899,"self":true,"updatedAt":"25/06/2026 12:58:47"}]},{"id":"62246","lat":37.71184568931606,"lon":13.769290867272943,"name":"DB Carburanti Sclafani Bagni","brand":"DBCarburanti","address":"SS.121 CT-PA KM.178.019 BIVIO SNC 90020, SCLAFANI BAGNI, PA","prices":[{"type":"petrol","price":1.999,"self":false,"updatedAt":"19/06/2026 09:27:09"},{"type":"diesel","price":2.099,"self":false,"updatedAt":"19/06/2026 09:27:09"}]},{"id":"31435","lat":37.74603954158422,"lon":13.821901828050613,"name":"POMPA BIANCA","brand":"Pompe Bianche","address":"VIA GARIBALDI KM.17,800  90029, VALLEDOLMO, PA","prices":[{"type":"petrol","price":1.999,"self":false,"updatedAt":"24/06/2026 11:40:08"},{"type":"diesel","price":1.999,"self":false,"updatedAt":"24/06/2026 11:40:08"}]}]