[{"id":"11226","lat":37.9817371897579,"lon":14.236629449101656,"name":"Q8 TUSA","brand":"Q8","address":"VIA ROMA SNC 98079, TUSA, ME","prices":[{"type":"petrol","price":1.859,"self":true,"updatedAt":"25/06/2026 14:27:09"},{"type":"diesel","price":1.959,"self":true,"updatedAt":"25/06/2026 14:27:09"}]},{"id":"35482","lat":37.935630373218274,"lon":14.091729372739792,"name":"Impianto Eni 09735","brand":"Agip Eni","address":"Statale 286 di Castelbuono, Km. 13+343, dir. Gangi  90013, CASTELBUONO, PA","prices":[{"type":"petrol","price":1.829,"self":true,"updatedAt":"28/06/2026 00:20:42"},{"type":"diesel","price":1.909,"self":true,"updatedAt":"28/06/2026 00:20:42"}]},{"id":"40544","lat":37.9341374840075,"lon":14.090236888568825,"name":"Sferruzza Vincenzo","brand":"Q8","address":"VIA CEFALU' 92 90013, CASTELBUONO, PA","prices":[{"type":"petrol","price":1.829,"self":true,"updatedAt":"24/06/2026 07:03:52"},{"type":"diesel","price":1.919,"self":true,"updatedAt":"24/06/2026 07:03:52"}]},{"id":"47750","lat":37.78554452089814,"lon":14.038402271163939,"name":"Impianto Eni 09813","brand":"Agip Eni","address":"CORSO MAZZINI SNC 90020, CASTELLANA SICULA, PA","prices":[{"type":"petrol","price":1.859,"self":true,"updatedAt":"28/06/2026 00:00:24"},{"type":"diesel","price":1.944,"self":true,"updatedAt":"28/06/2026 00:00:24"}]},{"id":"33419","lat":37.79794878973098,"lon":14.20122116804123,"name":"DCM SRL","brand":"Pompe Bianche","address":"S.S.120 KM 80+676 SN 90024, GANGI, PA","prices":[{"type":"petrol","price":1.719,"self":false,"updatedAt":"30/04/2026 17:57:43"},{"type":"diesel","price":2.049,"self":false,"updatedAt":"30/04/2026 17:57:43"}]},{"id":"53635","lat":37.79348099120723,"lon":14.20607927383747,"name":"Eni 19727","brand":"Agip Eni","address":"NAZIONALE 212/A 90024, GANGI, PA","prices":[{"type":"petrol","price":1.829,"self":true,"updatedAt":"28/06/2026 00:33:22"},{"type":"diesel","price":1.899,"self":true,"updatedAt":"28/06/2026 00:33:21"}]},{"id":"18870","lat":37.78506710523204,"lon":14.201653003692627,"name":"Esso","brand":"Esso","address":"CONTRADA SANTA CATERINA SN 90024, GANGI, PA","prices":[{"type":"petrol","price":1.807,"self":true,"updatedAt":"26/06/2026 10:19:46"},{"type":"diesel","price":1.897,"self":true,"updatedAt":"26/06/2026 10:19:46"},{"type":"lpg","price":0.839,"self":false,"updatedAt":"26/06/2026 10:19:46"}]},{"id":"42737","lat":37.86427088437559,"lon":14.15430723229997,"name":"Eos srl - Geraci Siculo","brand":"EOS","address":"286 di Castelbuono, Km. 35+325, geraci - castelbuono  90010, GERACI SICULO, PA","prices":[{"type":"petrol","price":1.881,"self":true,"updatedAt":"24/06/2026 17:46:40"},{"type":"diesel","price":1.931,"self":true,"updatedAt":"24/06/2026 17:46:40"}]},{"id":"41064","lat":37.94178169903374,"lon":14.005767482999772,"name":"ECO ENERGY SRL IP \"ISNELLO - VIA COLLESANO\"","brand":"Api-Ip","address":"VIA COLLESANO SNC 90010, ISNELLO, PA","prices":[{"type":"petrol","price":1.927,"self":false,"updatedAt":"22/06/2026 09:35:34"},{"type":"diesel","price":1.997,"self":false,"updatedAt":"22/06/2026 09:35:34"}]},{"id":"39697","lat":37.77501530117046,"lon":14.096316833551441,"name":"ECO ENERGY SRL IP \"PETRALIA SOPRANA - BIVIO TRINITA' \"","brand":"Api-Ip","address":"BIVIO TRINITA' ss. 290 02 90026, PETRALIA SOPRANA, PA","prices":[{"type":"petrol","price":1.877,"self":true,"updatedAt":"22/06/2026 08:02:04"},{"type":"diesel","price":1.957,"self":true,"updatedAt":"23/06/2026 12:02:16"}]},{"id":"21130","lat":37.79152503529076,"lon":14.106290973367663,"name":"Madonnuzza Petroli srl","brand":"Pompe Bianche","address":"PRIMO MAGGIO 56 90026, PETRALIA SOPRANA, PA","prices":[{"type":"petrol","price":1.959,"self":true,"updatedAt":"24/06/2026 11:14:55"},{"type":"diesel","price":1.999,"self":true,"updatedAt":"24/06/2026 11:14:55"}]},{"id":"44160","lat":37.813689535356865,"lon":14.09300327116398,"name":"Q8 Nigrelli SRL","brand":"Q8","address":"S.P. 54 Km 33+800 (Quartiere S.Giuseppe)  90027, PETRALIA SOTTANA, PA","prices":[{"type":"petrol","price":1.859,"self":true,"updatedAt":"27/06/2026 07:24:22"},{"type":"diesel","price":1.939,"self":true,"updatedAt":"27/06/2026 07:24:22"},{"type":"methane","price":1.859,"self":false,"updatedAt":"27/06/2026 07:24:22"}]},{"id":"46836","lat":37.91685938613601,"lon":14.19264554977417,"name":"PA101","brand":"EOS","address":"S.P. 52 snc 90010, SAN MAURO CASTELVERDE, PA","prices":[{"type":"petrol","price":1.999,"self":true,"updatedAt":"25/06/2026 13:03:04"},{"type":"diesel","price":1.999,"self":true,"updatedAt":"25/06/2026 13:03:04"}]}]