[{"id":"11226","lat":37.9817371897579,"lon":14.236629449101656,"name":"Q8 TUSA","brand":"Q8","address":"VIA ROMA SNC 98079, TUSA, ME","prices":[{"type":"petrol","price":1.859,"self":true,"updatedAt":"25/06/2026 14:27:09"},{"type":"diesel","price":1.959,"self":true,"updatedAt":"25/06/2026 14:27:09"}]},{"id":"35482","lat":37.935630373218274,"lon":14.091729372739792,"name":"Impianto Eni 09735","brand":"Agip Eni","address":"Statale 286 di Castelbuono, Km. 13+343, dir. Gangi  90013, CASTELBUONO, PA","prices":[{"type":"petrol","price":1.829,"self":true,"updatedAt":"29/06/2026 00:53:09"},{"type":"diesel","price":1.889,"self":true,"updatedAt":"29/06/2026 19:20:16"}]},{"id":"40544","lat":37.9341374840075,"lon":14.090236888568825,"name":"Sferruzza Vincenzo","brand":"Q8","address":"VIA CEFALU' 92 90013, CASTELBUONO, PA","prices":[{"type":"petrol","price":1.829,"self":true,"updatedAt":"24/06/2026 07:03:52"},{"type":"diesel","price":1.919,"self":true,"updatedAt":"24/06/2026 07:03:52"}]},{"id":"47750","lat":37.78554452089814,"lon":14.038402271163939,"name":"Impianto Eni 09813","brand":"Agip Eni","address":"CORSO MAZZINI SNC 90020, CASTELLANA SICULA, PA","prices":[{"type":"petrol","price":1.859,"self":true,"updatedAt":"29/06/2026 00:02:11"},{"type":"diesel","price":1.934,"self":true,"updatedAt":"29/06/2026 18:44:16"}]},{"id":"53635","lat":37.79348099120723,"lon":14.20607927383747,"name":"Eni 19727","brand":"Agip Eni","address":"NAZIONALE 212/A 90024, GANGI, PA","prices":[{"type":"petrol","price":1.829,"self":true,"updatedAt":"30/06/2026 00:27:59"},{"type":"diesel","price":1.889,"self":true,"updatedAt":"30/06/2026 00:27:59"}]},{"id":"18870","lat":37.78506710523204,"lon":14.201653003692627,"name":"Esso","brand":"Esso","address":"CONTRADA SANTA CATERINA SN 90024, GANGI, PA","prices":[{"type":"petrol","price":1.807,"self":true,"updatedAt":"29/06/2026 08:18:45"},{"type":"diesel","price":1.897,"self":true,"updatedAt":"29/06/2026 08:18:45"},{"type":"lpg","price":0.819,"self":false,"updatedAt":"29/06/2026 08:18:45"}]},{"id":"42737","lat":37.86427088437559,"lon":14.15430723229997,"name":"Eos srl - Geraci Siculo","brand":"EOS","address":"286 di Castelbuono, Km. 35+325, geraci - castelbuono  90010, GERACI SICULO, PA","prices":[{"type":"petrol","price":1.881,"self":true,"updatedAt":"24/06/2026 17:46:40"},{"type":"diesel","price":1.931,"self":true,"updatedAt":"24/06/2026 17:46:40"}]},{"id":"41064","lat":37.94178169903374,"lon":14.005767482999772,"name":"ECO ENERGY SRL IP \"ISNELLO - VIA COLLESANO\"","brand":"Api-Ip","address":"VIA COLLESANO SNC 90010, ISNELLO, PA","prices":[{"type":"petrol","price":1.927,"self":false,"updatedAt":"29/06/2026 13:51:56"},{"type":"diesel","price":1.997,"self":false,"updatedAt":"29/06/2026 13:51:56"}]},{"id":"39697","lat":37.77501530117046,"lon":14.096316833551441,"name":"ECO ENERGY SRL IP \"PETRALIA SOPRANA - BIVIO TRINITA' \"","brand":"Api-Ip","address":"BIVIO TRINITA' ss. 290 02 90026, PETRALIA SOPRANA, PA","prices":[{"type":"petrol","price":1.857,"self":true,"updatedAt":"29/06/2026 10:13:07"},{"type":"diesel","price":1.937,"self":true,"updatedAt":"29/06/2026 10:13:07"}]},{"id":"21130","lat":37.79152503529076,"lon":14.106290973367663,"name":"Madonnuzza Petroli srl","brand":"Pompe Bianche","address":"PRIMO MAGGIO 56 90026, PETRALIA SOPRANA, PA","prices":[{"type":"petrol","price":1.959,"self":true,"updatedAt":"24/06/2026 11:14:55"},{"type":"diesel","price":1.999,"self":true,"updatedAt":"24/06/2026 11:14:55"}]},{"id":"44160","lat":37.813689535356865,"lon":14.09300327116398,"name":"Q8 Nigrelli SRL","brand":"Q8","address":"S.P. 54 Km 33+800 (Quartiere S.Giuseppe)  90027, PETRALIA SOTTANA, PA","prices":[{"type":"petrol","price":1.859,"self":true,"updatedAt":"29/06/2026 10:31:08"},{"type":"diesel","price":1.939,"self":true,"updatedAt":"29/06/2026 10:31:08"},{"type":"methane","price":1.859,"self":false,"updatedAt":"29/06/2026 10:31:08"}]},{"id":"46836","lat":37.91685938613601,"lon":14.19264554977417,"name":"PA101","brand":"EOS","address":"S.P. 52 snc 90010, SAN MAURO CASTELVERDE, PA","prices":[{"type":"petrol","price":1.999,"self":true,"updatedAt":"25/06/2026 13:03:04"},{"type":"diesel","price":1.999,"self":true,"updatedAt":"25/06/2026 13:03:04"}]}]