[{"id":"50824","lat":37.86204189254564,"lon":13.779628276824946,"name":"PA120","brand":"Q8","address":"GENERALE GRISANTI SNC 90020, ALIMINUSA, PA","prices":[{"type":"petrol","price":1.789,"self":true,"updatedAt":"25/06/2026 12:18:06"},{"type":"diesel","price":1.889,"self":true,"updatedAt":"25/06/2026 12:18:06"}]},{"id":"50198","lat":37.81718869245987,"lon":13.891192428241736,"name":"MESSINA CARBURANTI","brand":"messina carburanti","address":"120 dell'Etna e delle Madonie, Km. 29,800, CALTAVUTURO  90022, CALTAVUTURO, PA","prices":[{"type":"petrol","price":1.839,"self":true,"updatedAt":"26/06/2026 17:43:19"},{"type":"diesel","price":1.909,"self":true,"updatedAt":"26/06/2026 17:43:19"}]},{"id":"19507","lat":37.977897018536304,"lon":13.836998641490936,"name":"Eni Buonfornello","brand":"Agip Eni","address":"Statale 113 Settentrionale Sicula, Km. 205+0.50, dir. CEFALU'  90010, CAMPOFELICE DI ROCCELLA, PA","prices":[{"type":"petrol","price":1.829,"self":true,"updatedAt":"29/06/2026 00:52:39"},{"type":"diesel","price":1.899,"self":true,"updatedAt":"28/06/2026 22:46:09"}]},{"id":"43981","lat":37.99483716861094,"lon":13.886034166559966,"name":"PA114","brand":"Q8","address":"S.S.113 KM.199+920 SNC 90010, CAMPOFELICE DI ROCCELLA, PA","prices":[{"type":"petrol","price":1.849,"self":true,"updatedAt":"26/06/2026 11:39:05"},{"type":"diesel","price":1.919,"self":true,"updatedAt":"26/06/2026 11:39:05"},{"type":"lpg","price":0.859,"self":false,"updatedAt":"26/06/2026 11:39:05"}]},{"id":"46193","lat":37.992208467206595,"lon":13.88469668513801,"name":"Virzì Joseph carburanti","brand":"Q8","address":"Via Avv. Cipolla 15 90010, CAMPOFELICE DI ROCCELLA, PA","prices":[{"type":"petrol","price":1.849,"self":true,"updatedAt":"27/06/2026 09:28:20"},{"type":"diesel","price":1.919,"self":true,"updatedAt":"27/06/2026 09:28:20"}]},{"id":"43194","lat":37.905126004383895,"lon":13.81421972066164,"name":"Prestano flaviana","brand":"Pompe Bianche","address":"113 Settentrionale Sicula, Km. 7, Cerda - 90010, CERDA, PA","prices":[{"type":"petrol","price":1.809,"self":true,"updatedAt":"28/06/2026 02:18:12"},{"type":"diesel","price":1.899,"self":true,"updatedAt":"28/06/2026 02:18:12"}]},{"id":"8716","lat":37.92239145735142,"lon":13.92505556344986,"name":"impianto eni 29760","brand":"Agip Eni","address":"strada provinciale n.9 km 11+510  90016, COLLESANO, PA","prices":[{"type":"petrol","price":1.829,"self":true,"updatedAt":"29/06/2026 00:22:05"},{"type":"diesel","price":1.899,"self":true,"updatedAt":"29/06/2026 06:22:07"}]},{"id":"25818","lat":37.96920349102368,"lon":13.97257878747132,"name":"Esso Gratteri","brand":"Esso","address":"sp 28 km 13 +850  90010, GRATTERI, PA","prices":[{"type":"petrol","price":1.959,"self":true,"updatedAt":"27/06/2026 12:34:02"},{"type":"diesel","price":2.059,"self":true,"updatedAt":"27/06/2026 12:34:02"}]},{"id":"47532","lat":37.84994104987144,"lon":13.764371871948237,"name":"PA055","brand":"Q8","address":"VIA TRIPI 10 90020, MONTEMAGGIORE BELSITO, PA","prices":[{"type":"petrol","price":1.949,"self":true,"updatedAt":"25/06/2026 11:21:06"},{"type":"diesel","price":1.979,"self":true,"updatedAt":"25/06/2026 11:21:06"}]},{"id":"62039","lat":37.92494439086108,"lon":13.765820860862732,"name":"VF CARBURANTI","brand":"Pompe Bianche","address":"COZZI SECCHI SNC 90020, SCIARA, PA","prices":[{"type":"petrol","price":1.829,"self":true,"updatedAt":"27/06/2026 13:24:37"},{"type":"diesel","price":1.919,"self":true,"updatedAt":"27/06/2026 13:24:37"},{"type":"lpg","price":0.829,"self":false,"updatedAt":"27/06/2026 13:24:37"}]},{"id":"32720","lat":37.85948083538077,"lon":13.898847699165344,"name":"SCILLATO SUD","brand":"Esso","address":"Autostrada A19 PALERMO-CATANIA, Km. 55,500, dir. catania - 90020, SCILLATO, PA","prices":[{"type":"petrol","price":1.878,"self":true,"updatedAt":"29/06/2026 03:48:02"},{"type":"diesel","price":1.978,"self":true,"updatedAt":"29/06/2026 03:48:02"},{"type":"lpg","price":0.878,"self":false,"updatedAt":"29/06/2026 03:48:02"}]},{"id":"62783","lat":37.8559569,"lon":13.9052588,"name":"SCILLATO SUD","brand":"Esso","address":"Autostrada A19 PALERMO-CATANIA,  Km. 55,500, dir. catania 90020, SCILLATO, PA","prices":[{"type":"diesel","price":1.948,"self":true,"updatedAt":"29/06/2026 03:48:13"}]},{"id":"53155","lat":37.9686353,"lon":13.7804593,"name":"DB Carburanti Termini Imerese","brand":"DBCarburanti","address":"Contrada Canne Masche snc 90018, TERMINI IMERESE, PA","prices":[{"type":"petrol","price":1.799,"self":false,"updatedAt":"25/06/2026 10:19:43"},{"type":"diesel","price":1.899,"self":false,"updatedAt":"25/06/2026 10:19:43"},{"type":"lpg","price":0.799,"self":false,"updatedAt":"25/06/2026 10:19:43"}]}]