[{"id":"11226","lat":37.9817371897579,"lon":14.236629449101656,"name":"Q8 TUSA","brand":"Q8","address":"VIA ROMA SNC 98079, TUSA, ME","prices":[{"type":"petrol","price":1.899,"self":true,"updatedAt":"18/06/2026 14:59:08"},{"type":"diesel","price":1.999,"self":true,"updatedAt":"18/06/2026 14:59:08"}]},{"id":"35482","lat":37.935630373218274,"lon":14.091729372739792,"name":"Impianto Eni 09735","brand":"Agip Eni","address":"Statale 286 di Castelbuono, Km. 13+343, dir. Gangi  90013, CASTELBUONO, PA","prices":[{"type":"petrol","price":1.849,"self":true,"updatedAt":"21/06/2026 00:01:07"},{"type":"diesel","price":1.949,"self":true,"updatedAt":"21/06/2026 00:01:07"}]},{"id":"40544","lat":37.9341374840075,"lon":14.090236888568825,"name":"Sferruzza Vincenzo","brand":"Q8","address":"VIA CEFALU' 92 90013, CASTELBUONO, PA","prices":[{"type":"petrol","price":1.859,"self":true,"updatedAt":"21/06/2026 06:28:52"},{"type":"diesel","price":1.969,"self":true,"updatedAt":"21/06/2026 06:28:52"}]},{"id":"47750","lat":37.78554452089814,"lon":14.038402271163939,"name":"Impianto Eni 09813","brand":"Agip Eni","address":"CORSO MAZZINI SNC 90020, CASTELLANA SICULA, PA","prices":[{"type":"petrol","price":1.879,"self":true,"updatedAt":"20/06/2026 23:52:10"},{"type":"diesel","price":1.994,"self":true,"updatedAt":"20/06/2026 23:52:10"}]},{"id":"33419","lat":37.79794878973098,"lon":14.20122116804123,"name":"DCM SRL","brand":"Pompe Bianche","address":"S.S.120 KM 80+676 SN 90024, GANGI, PA","prices":[{"type":"petrol","price":1.719,"self":false,"updatedAt":"30/04/2026 17:57:43"},{"type":"diesel","price":2.049,"self":false,"updatedAt":"30/04/2026 17:57:43"}]},{"id":"53635","lat":37.79348099120723,"lon":14.20607927383747,"name":"Eni 19727","brand":"Agip Eni","address":"NAZIONALE 212/A 90024, GANGI, PA","prices":[{"type":"petrol","price":1.849,"self":true,"updatedAt":"21/06/2026 00:18:01"},{"type":"diesel","price":1.949,"self":true,"updatedAt":"21/06/2026 00:18:01"}]},{"id":"18870","lat":37.78506710523204,"lon":14.201653003692627,"name":"Esso","brand":"Esso","address":"CONTRADA SANTA CATERINA SN 90024, GANGI, PA","prices":[{"type":"petrol","price":1.827,"self":true,"updatedAt":"20/06/2026 08:20:16"},{"type":"diesel","price":1.927,"self":true,"updatedAt":"20/06/2026 08:20:16"},{"type":"lpg","price":0.849,"self":false,"updatedAt":"20/06/2026 08:20:16"}]},{"id":"42737","lat":37.86427088437559,"lon":14.15430723229997,"name":"Eos srl - Geraci Siculo","brand":"EOS","address":"286 di Castelbuono, Km. 35+325, geraci - castelbuono  90010, GERACI SICULO, PA","prices":[{"type":"petrol","price":1.999,"self":true,"updatedAt":"17/06/2026 08:18:44"},{"type":"diesel","price":1.999,"self":true,"updatedAt":"17/06/2026 08:18:45"}]},{"id":"41064","lat":37.94178169903374,"lon":14.005767482999772,"name":"ECO ENERGY SRL IP \"ISNELLO - VIA COLLESANO\"","brand":"Api-Ip","address":"VIA COLLESANO SNC 90010, ISNELLO, PA","prices":[{"type":"petrol","price":1.977,"self":false,"updatedAt":"18/06/2026 09:28:45"},{"type":"diesel","price":2.057,"self":false,"updatedAt":"18/06/2026 09:28:45"}]},{"id":"39697","lat":37.77501530117046,"lon":14.096316833551441,"name":"ECO ENERGY SRL IP \"PETRALIA SOPRANA - BIVIO TRINITA' \"","brand":"Api-Ip","address":"BIVIO TRINITA' ss. 290 02 90026, PETRALIA SOPRANA, PA","prices":[{"type":"petrol","price":1.967,"self":true,"updatedAt":"19/06/2026 08:26:40"},{"type":"diesel","price":1.997,"self":true,"updatedAt":"18/06/2026 07:51:32"}]},{"id":"21130","lat":37.79152503529076,"lon":14.106290973367663,"name":"Madonnuzza Petroli srl","brand":"Pompe Bianche","address":"PRIMO MAGGIO 56 90026, PETRALIA SOPRANA, PA","prices":[{"type":"petrol","price":1.959,"self":true,"updatedAt":"18/06/2026 17:00:20"},{"type":"diesel","price":1.999,"self":true,"updatedAt":"18/06/2026 17:00:20"}]},{"id":"44160","lat":37.813689535356865,"lon":14.09300327116398,"name":"Q8 Nigrelli SRL","brand":"Q8","address":"S.P. 54 Km 33+800 (Quartiere S.Giuseppe)  90027, PETRALIA SOTTANA, PA","prices":[{"type":"petrol","price":1.969,"self":true,"updatedAt":"20/06/2026 09:47:20"},{"type":"diesel","price":1.999,"self":true,"updatedAt":"20/06/2026 09:47:20"},{"type":"methane","price":1.859,"self":false,"updatedAt":"20/06/2026 09:47:20"}]},{"id":"46836","lat":37.91685938613601,"lon":14.19264554977417,"name":"PA101","brand":"EOS","address":"S.P. 52 snc 90010, SAN MAURO CASTELVERDE, PA","prices":[{"type":"petrol","price":1.999,"self":true,"updatedAt":"18/06/2026 13:03:06"},{"type":"diesel","price":1.999,"self":true,"updatedAt":"18/06/2026 13:03:06"}]}]