[{"id":"60678","lat":38.1495729,"lon":15.2217506,"name":"Alessi S.A.S.","brand":"Esso","address":"PAPA GIOVANNI XXIII 85 98051, BARCELLONA POZZO DI GOTTO, ME","prices":[{"type":"petrol","price":1.819,"self":true,"updatedAt":"23/06/2026 06:58:20"},{"type":"diesel","price":1.909,"self":true,"updatedAt":"23/06/2026 06:58:20"}]},{"id":"18354","lat":38.14699647809833,"lon":15.212107331871948,"name":"BARCELLONA POZZO DI GOT VIA MARCONI, 81","brand":"Q8","address":"VIA MARCONI 81 98051, BARCELLONA POZZO DI GOTTO, ME","prices":[{"type":"petrol","price":1.829,"self":true,"updatedAt":"23/06/2026 17:06:00"},{"type":"diesel","price":1.919,"self":true,"updatedAt":"23/06/2026 17:06:00"}]},{"id":"20773","lat":38.149456055770244,"lon":15.21927677056965,"name":"BARCELLONA POZZO DI GOTTO KENNEDY,90","brand":"Q8","address":"KENNEDY 90 98051, BARCELLONA POZZO DI GOTTO, ME","prices":[{"type":"petrol","price":1.819,"self":true,"updatedAt":"23/06/2026 16:36:02"},{"type":"diesel","price":1.909,"self":true,"updatedAt":"23/06/2026 16:36:02"}]},{"id":"62412","lat":38.14474752804626,"lon":15.206353515386581,"name":"BIONDO OIL S.A.S. DI COPPOLINO DOMENICA & C.","brand":"Agip Eni","address":"ON. GAETANO MARTINO 52 98051, BARCELLONA POZZO DI GOTTO, ME","prices":[{"type":"petrol","price":1.829,"self":true,"updatedAt":"24/06/2026 00:14:29"},{"type":"diesel","price":1.919,"self":true,"updatedAt":"24/06/2026 00:14:29"},{"type":"methane","price":1.678,"self":false,"updatedAt":"24/06/2026 00:14:29"},{"type":"lpg","price":0.812,"self":false,"updatedAt":"24/06/2026 00:14:29"}]},{"id":"9241","lat":38.140327848908406,"lon":15.216753325129162,"name":"BN PETROLI","brand":"BN petroli","address":"UMBERTO I 28 BIS 98051, BARCELLONA POZZO DI GOTTO, ME","prices":[{"type":"petrol","price":1.849,"self":true,"updatedAt":"23/06/2026 09:24:22"},{"type":"diesel","price":1.939,"self":true,"updatedAt":"23/06/2026 09:24:22"}]},{"id":"53154","lat":38.1804594,"lon":15.2078089,"name":"DB Carburanti Barcellona Pozzo di Gotto","brand":"DBCarburanti","address":"Via Caldà snc 98051, BARCELLONA POZZO DI GOTTO, ME","prices":[{"type":"petrol","price":1.799,"self":false,"updatedAt":"23/06/2026 07:50:03"},{"type":"diesel","price":1.899,"self":false,"updatedAt":"23/06/2026 07:50:03"}]},{"id":"60675","lat":38.151011006568886,"lon":15.22274193554688,"name":"Esso Barcellona P.G.","brand":"Esso","address":"Via John F. Kennedy 195 98051, BARCELLONA POZZO DI GOTTO, ME","prices":[{"type":"petrol","price":1.829,"self":true,"updatedAt":"23/06/2026 07:53:35"},{"type":"diesel","price":1.919,"self":true,"updatedAt":"23/06/2026 07:53:35"}]},{"id":"34910","lat":38.15471601742442,"lon":15.232879221439362,"name":"Impianto distribuzione carburanti IP SACCNE RETE","brand":"Api-Ip","address":"Via Kennedy ang. Via Garibaldi  98051, BARCELLONA POZZO DI GOTTO, ME","prices":[{"type":"petrol","price":1.819,"self":true,"updatedAt":"24/06/2026 00:36:25"},{"type":"diesel","price":1.909,"self":true,"updatedAt":"24/06/2026 00:36:25"}]},{"id":"63307","lat":38.152129841176226,"lon":15.225315164040778,"name":"IP di via Kennedy","brand":"Api-Ip","address":"Via Kennedy  98051, BARCELLONA POZZO DI GOTTO, ME","prices":[{"type":"petrol","price":1.829,"self":true,"updatedAt":"24/06/2026 00:52:22"},{"type":"diesel","price":1.919,"self":true,"updatedAt":"24/06/2026 00:52:22"}]},{"id":"62235","lat":38.1485,"lon":15.2161,"name":"IP DI VIA MARCONI","brand":"Api-Ip","address":"Via del Mare 157  98051, BARCELLONA POZZO DI GOTTO, ME","prices":[{"type":"petrol","price":1.819,"self":true,"updatedAt":"24/06/2026 00:14:35"},{"type":"diesel","price":1.909,"self":true,"updatedAt":"24/06/2026 00:14:35"}]},{"id":"49508","lat":38.15106186704688,"lon":15.194764943502198,"name":"MAURIZIO SEBASTIANO MARCHETTA","brand":"Pompe Bianche","address":"VIALE SICILIA snc 98051, BARCELLONA POZZO DI GOTTO, ME","prices":[{"type":"petrol","price":1.839,"self":true,"updatedAt":"23/06/2026 19:52:08"},{"type":"diesel","price":1.939,"self":true,"updatedAt":"23/06/2026 19:52:08"},{"type":"lpg","price":0.819,"self":true,"updatedAt":"23/06/2026 19:52:08"}]},{"id":"8859","lat":38.1489712629476,"lon":15.21989786624863,"name":"Oieni Sas di Oieni Andrea & C.","brand":"Agip Eni","address":"Via Papa Giovanni XXIII, dir Messina 51 98051, BARCELLONA POZZO DI GOTTO, ME","prices":[{"type":"petrol","price":1.829,"self":true,"updatedAt":"24/06/2026 00:10:36"},{"type":"diesel","price":1.919,"self":true,"updatedAt":"24/06/2026 00:10:36"}]},{"id":"50236","lat":38.148311324688,"lon":15.199450850486755,"name":"Q8","brand":"Q8","address":"Strada Statale, Km. 46+821, messina-palermo - 98051, BARCELLONA POZZO DI GOTTO, ME","prices":[{"type":"petrol","price":1.859,"self":true,"updatedAt":"22/06/2026 08:27:46"},{"type":"diesel","price":1.959,"self":true,"updatedAt":"22/06/2026 08:27:46"}]},{"id":"54981","lat":38.100162,"lon":15.210717,"name":"FULL SERVICES CASTROREALE","brand":"Pompe Bianche","address":"Via Cesare Battisti snc 98053, CASTROREALE, ME","prices":[{"type":"petrol","price":1.869,"self":true,"updatedAt":"22/06/2026 07:58:34"},{"type":"diesel","price":1.959,"self":true,"updatedAt":"22/06/2026 07:58:34"}]},{"id":"9967","lat":38.11651938905595,"lon":15.086095206745881,"name":"FALCONE S.S. 113 KM. 60+ 023","brand":"Q8","address":"S.S. 113 KM. 60+ 023  98060, FALCONE, ME","prices":[{"type":"petrol","price":1.779,"self":true,"updatedAt":"23/06/2026 16:36:02"},{"type":"diesel","price":1.879,"self":true,"updatedAt":"23/06/2026 16:36:02"}]},{"id":"46492","lat":38.116519160056654,"lon":15.07605791091919,"name":"ME018","brand":"Q8","address":"S.S. 113 KM 60+524 SN, FALCONE (ME)  98060, FALCONE, ME","prices":[{"type":"petrol","price":1.799,"self":true,"updatedAt":"23/06/2026 12:18:05"},{"type":"diesel","price":1.899,"self":true,"updatedAt":"23/06/2026 12:18:05"}]},{"id":"61578","lat":38.10221,"lon":15.1217273,"name":"Esso","brand":"Esso","address":"NUOVA RUSSO SNC 98054, FURNARI, ME","prices":[{"type":"petrol","price":1.849,"self":false,"updatedAt":"17/06/2026 08:25:45"},{"type":"diesel","price":1.939,"self":false,"updatedAt":"17/06/2026 08:25:45"}]},{"id":"62465","lat":38.11056758931849,"lon":15.10444184313051,"name":"Sicilpetroli","brand":"Sicilpetroli","address":"Contrada S. Filippo sn 98054, FURNARI, ME","prices":[{"type":"petrol","price":1.779,"self":true,"updatedAt":"24/06/2026 06:17:46"},{"type":"diesel","price":1.879,"self":true,"updatedAt":"24/06/2026 06:17:46"}]},{"id":"41040","lat":38.163906450006166,"lon":15.246729478240013,"name":"Rifornimento IP di Munafò Carmelo","brand":"Api-Ip","address":"STATALE 113 KM 41,780 SNC 98040, MERÌ, ME","prices":[{"type":"petrol","price":1.829,"self":true,"updatedAt":"22/06/2026 14:23:41"},{"type":"diesel","price":1.919,"self":true,"updatedAt":"22/06/2026 14:23:41"}]},{"id":"62104","lat":38.19665047862419,"lon":15.241752901603949,"name":"DB CARBURANTI MILAZZO","brand":"DBCarburanti","address":"Contrada S. Pietro di Spadafora   snc 98057, MILAZZO, ME","prices":[{"type":"petrol","price":1.759,"self":false,"updatedAt":"23/06/2026 07:52:12"},{"type":"diesel","price":1.899,"self":false,"updatedAt":"23/06/2026 07:52:12"}]},{"id":"24081","lat":38.21244147850145,"lon":15.245465487241745,"name":"ENI","brand":"Agip Eni","address":"VIA ACQUEVIOLE 3 98057, MILAZZO, ME","prices":[{"type":"petrol","price":1.829,"self":true,"updatedAt":"24/06/2026 00:05:18"},{"type":"diesel","price":1.919,"self":true,"updatedAt":"24/06/2026 00:05:18"}]},{"id":"26826","lat":38.21105538084856,"lon":15.237445011734962,"name":"GLOBAL AUTOSERVICE stazione di servizio Q8","brand":"Q8","address":"S.GIOVANNI C.SICILIA A.V. SN 98057, MILAZZO, ME","prices":[{"type":"petrol","price":1.839,"self":true,"updatedAt":"22/06/2026 17:03:28"},{"type":"diesel","price":1.939,"self":true,"updatedAt":"22/06/2026 17:03:28"}]},{"id":"34844","lat":38.20121410817978,"lon":15.247047990560532,"name":"impianto carburanti Saccne Rete Milazzo","brand":"Api-Ip","address":"Nuovo Asse Viario c.da Barone ESt   98057, MILAZZO, ME","prices":[{"type":"petrol","price":1.819,"self":true,"updatedAt":"24/06/2026 00:48:33"},{"type":"diesel","price":1.919,"self":true,"updatedAt":"24/06/2026 00:48:33"},{"type":"lpg","price":0.809,"self":false,"updatedAt":"24/06/2026 00:48:33"}]},{"id":"46081","lat":38.211646071150625,"lon":15.236922675323513,"name":"On the Run di Mento Santi Sas","brand":"Esso","address":"Asse Viario - Corso Sicilia  98057, MILAZZO, ME","prices":[{"type":"petrol","price":1.889,"self":true,"updatedAt":"22/06/2026 08:19:31"},{"type":"diesel","price":2.009,"self":true,"updatedAt":"22/06/2026 08:19:31"}]},{"id":"43568","lat":38.02597922572127,"lon":15.017220457672124,"name":"Carmelo Nasisi","brand":"Q8","address":"via provinciale  132 98065, MONTALBANO ELICONA, ME","prices":[{"type":"petrol","price":1.879,"self":true,"updatedAt":"23/06/2026 05:20:08"},{"type":"diesel","price":1.989,"self":true,"updatedAt":"23/06/2026 05:20:08"}]},{"id":"59195","lat":38.1188005,"lon":15.1247996,"name":"8423","brand":"Tamoil","address":"VIA NAZIONALE-SS. 113 KM. 56+100, TERME VIGLIATORE, ME","prices":[{"type":"petrol","price":1.799,"self":true,"updatedAt":"24/06/2026 00:25:26"},{"type":"diesel","price":1.889,"self":true,"updatedAt":"24/06/2026 00:25:26"}]},{"id":"57707","lat":38.12834106066806,"lon":15.142266154289246,"name":"ENI","brand":"Agip Eni","address":"NAZIONALE,SAN BIAGIO SNC 98050, TERME VIGLIATORE, ME","prices":[{"type":"petrol","price":1.829,"self":true,"updatedAt":"24/06/2026 00:11:35"},{"type":"diesel","price":1.919,"self":true,"updatedAt":"24/06/2026 00:11:35"}]},{"id":"41446","lat":38.134478306177996,"lon":15.167098715901375,"name":"SALVO PETROL","brand":"Pompe Bianche","address":"VIA NAZIONALE TERME KM 51.2 SNC 98050, TERME VIGLIATORE, ME","prices":[{"type":"petrol","price":1.855,"self":true,"updatedAt":"19/06/2026 22:32:05"},{"type":"diesel","price":1.963,"self":true,"updatedAt":"19/06/2026 22:32:05"}]},{"id":"31019","lat":38.07375784242715,"lon":15.099862166235766,"name":"CARBURANTI CAUTELA","brand":"Pompe Bianche","address":"VIA ALDO MORO 27 98060, TRIPI, ME","prices":[{"type":"petrol","price":1.899,"self":false,"updatedAt":"24/06/2026 07:39:10"},{"type":"diesel","price":1.999,"self":false,"updatedAt":"24/06/2026 07:39:10"}]}]