[{"id":"49328","lat":39.104673220435224,"lon":8.37281755284891,"name":"CALASETTA-ISOLA GAS SRL","brand":"ISOLA GAS","address":"S.S.126 KM. 10,500 SNC 09011, CALASETTA, SU","prices":[{"type":"petrol","price":1.847,"self":true,"updatedAt":"20/06/2026 07:50:56"},{"type":"diesel","price":2.037,"self":false,"updatedAt":"20/06/2026 07:50:56"}]},{"id":"62228","lat":39.18402,"lon":8.475167,"name":"17583 CARBONIA","brand":"Agip Eni","address":"S.P. PORTOVESME KM 1,700, CARBONIA, SU","prices":[{"type":"petrol","price":1.809,"self":true,"updatedAt":"25/06/2026 00:55:55"},{"type":"diesel","price":1.909,"self":true,"updatedAt":"25/06/2026 00:55:55"}]},{"id":"61157","lat":39.18615,"lon":8.499451,"name":"54493 CARBONIA","brand":"Agip Eni","address":"LOC.TA SIRAI, CARBONIA, SU","prices":[{"type":"petrol","price":1.809,"self":true,"updatedAt":"25/06/2026 01:07:59"},{"type":"diesel","price":1.909,"self":true,"updatedAt":"25/06/2026 01:07:59"},{"type":"lpg","price":0.782,"self":false,"updatedAt":"25/06/2026 00:54:57"}]},{"id":"47822","lat":39.1471903967808,"lon":8.308545080198128,"name":"Distributore Q8 Biggio Denise Schiavina","brand":"Q8","address":"CORSO CAVOUR SNC 09014, CARLOFORTE, SU","prices":[{"type":"petrol","price":1.908,"self":true,"updatedAt":"22/06/2026 18:40:29"},{"type":"diesel","price":2.039,"self":true,"updatedAt":"22/06/2026 18:40:29"}]},{"id":"40776","lat":39.14817113280114,"lon":8.309232453581217,"name":"gia s.a.s di FERRARO NADIA","brand":"Agip Eni","address":"porto pescherecci  snc 09014, CARLOFORTE, SU","prices":[{"type":"petrol","price":1.858,"self":true,"updatedAt":"25/06/2026 00:53:32"},{"type":"diesel","price":1.959,"self":true,"updatedAt":"25/06/2026 00:53:32"}]},{"id":"58522","lat":39.2079741,"lon":8.38646158,"name":"3760","brand":"Tamoil","address":"VIA DANTE ALIGHIERI, PORTOSCUSO, SU","prices":[{"type":"petrol","price":1.759,"self":true,"updatedAt":"25/06/2026 00:57:18"},{"type":"diesel","price":1.869,"self":true,"updatedAt":"25/06/2026 00:57:18"}]},{"id":"59769","lat":39.06355,"lon":8.4603,"name":"51879  SANT'ANTIOCO","brand":"Agip Eni","address":"LUNGOMARE DE POMPEIS, SANT'ANTIOCO, SU","prices":[{"type":"petrol","price":1.829,"self":true,"updatedAt":"25/06/2026 00:54:15"},{"type":"diesel","price":1.909,"self":true,"updatedAt":"25/06/2026 00:54:15"}]},{"id":"60951","lat":39.059727,"lon":8.459942,"name":"7628 SANT'ANTIOCO","brand":"Agip Eni","address":"VIA NAZIONALE, SANT'ANTIOCO, SU","prices":[{"type":"petrol","price":1.829,"self":true,"updatedAt":"25/06/2026 01:22:37"},{"type":"diesel","price":1.909,"self":true,"updatedAt":"25/06/2026 01:22:37"}]},{"id":"9994","lat":39.05950403755129,"lon":8.475839495658875,"name":"p.v. Esso 0265","brand":"Esso","address":"Statale 126 Sud Occidentale Sarda, Km. 0,0832, dir. Sant'Antioco - 09017, SANT'ANTIOCO, SU","prices":[{"type":"petrol","price":1.799,"self":true,"updatedAt":"24/06/2026 09:31:17"},{"type":"diesel","price":1.899,"self":true,"updatedAt":"24/06/2026 09:31:17"}]}]