[{"id":"12471","lat":39.04689801881477,"lon":16.764959620476475,"name":"CANTAGALLO STAZIONE DI SERVIZIO","brand":"Pompe Bianche","address":"RIONE ARENACCHIO SNC 88050, PETRONÀ, CZ","prices":[{"type":"petrol","price":1.85,"self":true,"updatedAt":"24/06/2026 12:10:04"},{"type":"diesel","price":1.95,"self":true,"updatedAt":"24/06/2026 12:10:04"}]},{"id":"21368","lat":39.21151074682281,"lon":16.887994534587733,"name":"Ip di Aiello Vincenzo","brand":"Api-Ip","address":"CARLO ALBERTO DALLA CHIESA  88824, BELVEDERE DI SPINELLO, KR","prices":[{"type":"petrol","price":2.216,"self":true,"updatedAt":"22/06/2026 03:05:20"},{"type":"diesel","price":2.293,"self":true,"updatedAt":"22/06/2026 03:05:19"}]},{"id":"40498","lat":39.23540023246647,"lon":16.787555292248726,"name":"AUTO NOCE SRL","brand":"Pompe Bianche","address":"S.P 32 - LOC. LACONI SNC 88833, CACCURI, KR","prices":[{"type":"petrol","price":1.898,"self":true,"updatedAt":"22/06/2026 15:06:02"},{"type":"diesel","price":1.998,"self":true,"updatedAt":"22/06/2026 15:06:02"}]},{"id":"21021","lat":39.18790057752364,"lon":16.844380525131214,"name":"CLARA' CARBURANTI di Clarà Teresa","brand":"Q8","address":"CAMPODENARO SNC 88833, CACCURI, KR","prices":[{"type":"petrol","price":1.879,"self":true,"updatedAt":"21/06/2026 07:25:57"},{"type":"diesel","price":1.999,"self":true,"updatedAt":"21/06/2026 07:25:57"},{"type":"lpg","price":0.869,"self":false,"updatedAt":"21/06/2026 07:25:57"}]},{"id":"52496","lat":39.24898275461953,"lon":16.960389715951237,"name":"SDS CARBURANTI SAS","brand":"Pompe Bianche","address":"VIA CROTONE SNC 88822, CASABONA, KR","prices":[{"type":"petrol","price":1.899,"self":true,"updatedAt":"18/06/2026 17:25:26"},{"type":"diesel","price":1.999,"self":true,"updatedAt":"18/06/2026 17:25:26"}]},{"id":"32537","lat":39.160161524796315,"lon":16.789530845403647,"name":"COTRONEI - C.DA SBERNO","brand":"Api-Ip","address":"S.P. COTRONEI - ROCCA DI NETO  88836, COTRONEI, KR","prices":[{"type":"petrol","price":1.879,"self":true,"updatedAt":"24/06/2026 09:01:21"},{"type":"diesel","price":1.999,"self":true,"updatedAt":"24/06/2026 09:01:21"}]},{"id":"25292","lat":39.159098972769904,"lon":16.778501085041853,"name":"Esso di Carvelli Dajana & c. s.a.s.","brand":"Esso","address":"VIA VITTORIO EMANUELE III 98, 88836, COTRONEI, KR","prices":[{"type":"petrol","price":1.939,"self":true,"updatedAt":"24/06/2026 05:58:45"},{"type":"diesel","price":2.019,"self":true,"updatedAt":"24/06/2026 05:58:45"}]},{"id":"39130","lat":39.08499684818162,"lon":16.786343604326248,"name":"Impianto distribuzione carburanti IP di Saporito Claudio","brand":"Api-Ip","address":"VIA GRAMSCI SNC 88838, MESORACA, KR","prices":[{"type":"petrol","price":1.876,"self":true,"updatedAt":"24/06/2026 08:39:00"},{"type":"diesel","price":1.966,"self":true,"updatedAt":"24/06/2026 08:39:00"}]},{"id":"52826","lat":39.109845261263615,"lon":16.79729774594307,"name":"IMPIANTO F.LLI SCORDAMAGLIA","brand":"Pompe Bianche","address":"LOCALITA' SAN LIBORIO  88837, PETILIA POLICASTRO, KR","prices":[{"type":"petrol","price":1.856,"self":true,"updatedAt":"24/06/2026 18:17:38"},{"type":"diesel","price":1.936,"self":true,"updatedAt":"24/06/2026 18:17:38"},{"type":"lpg","price":0.819,"self":true,"updatedAt":"24/06/2026 18:17:38"}]},{"id":"51774","lat":39.09839559777309,"lon":16.80614617724609,"name":"IMPIANTO Q8 7805","brand":"Q8","address":"109 della Piccola Sila, Km. 2,4, Ovest via Garibaldi  94 88837, PETILIA POLICASTRO, KR","prices":[{"type":"petrol","price":1.939,"self":true,"updatedAt":"22/06/2026 19:42:39"},{"type":"diesel","price":2.099,"self":true,"updatedAt":"22/06/2026 19:42:39"}]},{"id":"52494","lat":39.162670215800105,"lon":16.914599543200556,"name":"SDS CARBURANTI SAS","brand":"Pompe Bianche","address":"MANESTRIA SNC 88832, SANTA SEVERINA, KR","prices":[{"type":"petrol","price":1.879,"self":true,"updatedAt":"18/06/2026 17:24:23"},{"type":"diesel","price":1.979,"self":true,"updatedAt":"18/06/2026 17:24:23"}]}]