[{"id":"12471","lat":39.04689801881477,"lon":16.764959620476475,"name":"CANTAGALLO STAZIONE DI SERVIZIO","brand":"Pompe Bianche","address":"RIONE ARENACCHIO SNC 88050, PETRONÀ, CZ","prices":[{"type":"petrol","price":1.85,"self":true,"updatedAt":"24/06/2026 12:10:04"},{"type":"diesel","price":1.95,"self":true,"updatedAt":"24/06/2026 12:10:04"}]},{"id":"21368","lat":39.21151074682281,"lon":16.887994534587733,"name":"Ip di Aiello Vincenzo","brand":"Api-Ip","address":"CARLO ALBERTO DALLA CHIESA  88824, BELVEDERE DI SPINELLO, KR","prices":[{"type":"petrol","price":2.11,"self":true,"updatedAt":"26/06/2026 01:08:04"},{"type":"diesel","price":2.201,"self":true,"updatedAt":"26/06/2026 01:08:04"}]},{"id":"40498","lat":39.23540023246647,"lon":16.787555292248726,"name":"AUTO NOCE SRL","brand":"Pompe Bianche","address":"S.P 32 - LOC. LACONI SNC 88833, CACCURI, KR","prices":[{"type":"petrol","price":1.868,"self":true,"updatedAt":"27/06/2026 09:22:21"},{"type":"diesel","price":1.968,"self":true,"updatedAt":"27/06/2026 09:22:21"}]},{"id":"21021","lat":39.18790057752364,"lon":16.844380525131214,"name":"CLARA' CARBURANTI di Clarà Teresa","brand":"Q8","address":"CAMPODENARO SNC 88833, CACCURI, KR","prices":[{"type":"petrol","price":1.879,"self":true,"updatedAt":"29/06/2026 09:41:48"},{"type":"diesel","price":1.979,"self":true,"updatedAt":"29/06/2026 09:41:48"},{"type":"lpg","price":0.869,"self":false,"updatedAt":"29/06/2026 09:41:48"}]},{"id":"52496","lat":39.24898275461953,"lon":16.960389715951237,"name":"SDS CARBURANTI SAS","brand":"Pompe Bianche","address":"VIA CROTONE SNC 88822, CASABONA, KR","prices":[{"type":"petrol","price":1.829,"self":true,"updatedAt":"25/06/2026 16:46:16"},{"type":"diesel","price":1.879,"self":true,"updatedAt":"25/06/2026 16:46:16"}]},{"id":"32537","lat":39.160161524796315,"lon":16.789530845403647,"name":"COTRONEI - C.DA SBERNO","brand":"Api-Ip","address":"S.P. COTRONEI - ROCCA DI NETO  88836, COTRONEI, KR","prices":[{"type":"petrol","price":1.879,"self":true,"updatedAt":"30/06/2026 09:01:28"},{"type":"diesel","price":1.979,"self":true,"updatedAt":"30/06/2026 09:01:28"}]},{"id":"25292","lat":39.159098972769904,"lon":16.778501085041853,"name":"Esso di Carvelli Dajana & c. s.a.s.","brand":"Esso","address":"VIA VITTORIO EMANUELE III 98, 88836, COTRONEI, KR","prices":[{"type":"petrol","price":1.879,"self":true,"updatedAt":"01/07/2026 06:27:11"},{"type":"diesel","price":1.989,"self":true,"updatedAt":"01/07/2026 06:27:11"}]},{"id":"39130","lat":39.08499684818162,"lon":16.786343604326248,"name":"Impianto distribuzione carburanti IP di Saporito Claudio","brand":"Api-Ip","address":"VIA GRAMSCI SNC 88838, MESORACA, KR","prices":[{"type":"petrol","price":1.866,"self":true,"updatedAt":"30/06/2026 18:49:40"},{"type":"diesel","price":1.956,"self":true,"updatedAt":"30/06/2026 18:49:40"}]},{"id":"52826","lat":39.109845261263615,"lon":16.79729774594307,"name":"IMPIANTO F.LLI SCORDAMAGLIA","brand":"Pompe Bianche","address":"LOCALITA' SAN LIBORIO  88837, PETILIA POLICASTRO, KR","prices":[{"type":"petrol","price":1.836,"self":true,"updatedAt":"30/06/2026 17:34:13"},{"type":"diesel","price":1.896,"self":true,"updatedAt":"30/06/2026 17:34:13"},{"type":"lpg","price":0.819,"self":true,"updatedAt":"30/06/2026 17:34:13"}]},{"id":"51774","lat":39.09839559777309,"lon":16.80614617724609,"name":"IMPIANTO Q8 7805","brand":"Q8","address":"109 della Piccola Sila, Km. 2,4, Ovest via Garibaldi  94 88837, PETILIA POLICASTRO, KR","prices":[{"type":"petrol","price":1.939,"self":true,"updatedAt":"29/06/2026 10:16:26"},{"type":"diesel","price":2.099,"self":true,"updatedAt":"29/06/2026 10:16:26"}]},{"id":"52494","lat":39.162670215800105,"lon":16.914599543200556,"name":"SDS CARBURANTI SAS","brand":"Pompe Bianche","address":"MANESTRIA SNC 88832, SANTA SEVERINA, KR","prices":[{"type":"petrol","price":1.789,"self":true,"updatedAt":"25/06/2026 16:45:22"},{"type":"diesel","price":1.859,"self":true,"updatedAt":"25/06/2026 16:45:22"}]}]