[{"id":"17777","lat":39.435650249237234,"lon":17.054394856095314,"name":"IP","brand":"Api-Ip","address":"VIA SS 106 C.DA CAPPELLIERI KM290+7 SN 88813, CIRO' (KR) SNC 88071, CIRÒ, KR","prices":[{"type":"petrol","price":1.859,"self":true,"updatedAt":"22/06/2026 08:34:56"},{"type":"diesel","price":1.959,"self":true,"updatedAt":"22/06/2026 08:34:56"}]},{"id":"24116","lat":39.36464117404158,"lon":17.112869024276733,"name":"Agip","brand":"Agip Eni","address":"Statale 106 Jonica, Km. 279, dir. Cirò Marina -, CIRÒ MARINA, KR","prices":[{"type":"petrol","price":1.83,"self":true,"updatedAt":"23/06/2026 00:08:52"},{"type":"diesel","price":1.919,"self":true,"updatedAt":"23/06/2026 00:08:52"}]},{"id":"25457","lat":39.36743063701257,"lon":17.11991786956787,"name":"AGIP RICCI","brand":"Agip Eni","address":"VIA ROMA 140, 88811 - -, CIRÒ MARINA, KR","prices":[{"type":"petrol","price":1.83,"self":true,"updatedAt":"23/06/2026 00:08:32"},{"type":"diesel","price":1.919,"self":true,"updatedAt":"23/06/2026 00:08:32"}]},{"id":"38890","lat":39.33788927210581,"lon":17.108838334679604,"name":"Easy Service Cirò Marina dir. Nord","brand":"Energas","address":"ss 106 Jonica Loc. Feudo  88811, CIRÒ MARINA, KR","prices":[{"type":"petrol","price":1.83,"self":true,"updatedAt":"23/06/2026 00:26:20"},{"type":"diesel","price":1.919,"self":true,"updatedAt":"23/06/2026 00:26:20"},{"type":"lpg","price":0.839,"self":true,"updatedAt":"22/06/2026 23:51:40"}]},{"id":"38889","lat":39.38193023360774,"lon":17.120660841464996,"name":"Easy Service Cirò Marina dir. Sud","brand":"Energas","address":"106 Jonica, Km. 12+500, Reggio Calabria - 88072, CIRÒ MARINA, KR","prices":[{"type":"petrol","price":1.83,"self":true,"updatedAt":"22/06/2026 14:40:17"},{"type":"diesel","price":1.919,"self":true,"updatedAt":"22/06/2026 14:40:17"},{"type":"lpg","price":0.839,"self":false,"updatedAt":"22/06/2026 23:51:33"}]},{"id":"61347","lat":39.36446994457213,"lon":17.121085130763113,"name":"ESSO","brand":"Esso","address":"Via Sotto Palazzo 85 88811, CIRÒ MARINA, KR","prices":[{"type":"petrol","price":1.899,"self":true,"updatedAt":"23/06/2026 06:25:26"},{"type":"diesel","price":1.999,"self":true,"updatedAt":"23/06/2026 06:25:26"}]},{"id":"59068","lat":39.36749508366501,"lon":17.11524144806927,"name":"SC Petroli","brand":"Pompe Bianche","address":"STAZIONE 12/B 88811, CIRÒ MARINA, KR","prices":[{"type":"petrol","price":1.85,"self":true,"updatedAt":"22/06/2026 19:39:51"},{"type":"diesel","price":1.949,"self":true,"updatedAt":"22/06/2026 19:39:51"}]},{"id":"17000","lat":39.45264444596991,"lon":17.03712087605743,"name":"CRUCOLI TORRETTA SS 106 KM 292+46 LOC.TORRETTA","brand":"Q8","address":"SS 106 KM 292+46 LOC.TORRETTA  88812, CRUCOLI, KR","prices":[{"type":"petrol","price":1.819,"self":true,"updatedAt":"22/06/2026 16:03:59"},{"type":"diesel","price":1.919,"self":true,"updatedAt":"22/06/2026 16:03:59"}]},{"id":"32566","lat":39.26490207664149,"lon":17.051837550926166,"name":"STRONGOLI - GIARDINELLO","brand":"Api-Ip","address":"S.S.492 KM.8+730  88816, STRONGOLI, KR","prices":[{"type":"petrol","price":1.849,"self":true,"updatedAt":"22/06/2026 09:01:05"},{"type":"diesel","price":1.949,"self":true,"updatedAt":"22/06/2026 09:01:05"}]}]