[{"id":"35294","lat":39.4995155132356,"lon":16.94567419588566,"name":"eni","brand":"Agip Eni","address":"Statale 106 Jonica, Km. 302, dir. nord/sud - 87062, CARIATI, CS","prices":[{"type":"petrol","price":1.849,"self":true,"updatedAt":"20/06/2026 23:23:15"},{"type":"diesel","price":1.959,"self":true,"updatedAt":"20/06/2026 23:23:15"}]},{"id":"43479","lat":39.4794869,"lon":16.9940488,"name":"TEXAS PETROLI","brand":"Pompe Bianche","address":"STATALE 106 KM 297+715 SNC 87062, CARIATI, CS","prices":[{"type":"petrol","price":1.879,"self":true,"updatedAt":"19/06/2026 07:26:59"},{"type":"diesel","price":1.979,"self":true,"updatedAt":"19/06/2026 07:26:59"},{"type":"lpg","price":0.819,"self":false,"updatedAt":"19/06/2026 07:26:59"}]},{"id":"61080","lat":39.4659212042488,"lon":16.83253384843055,"name":"Q8","brand":"Q8","address":"NAZIONALE SNC 87060, MANDATORICCIO, CS","prices":[{"type":"petrol","price":2.049,"self":true,"updatedAt":"16/06/2026 02:41:07"},{"type":"diesel","price":2.189,"self":true,"updatedAt":"16/06/2026 02:41:07"}]},{"id":"31133","lat":39.25961038399201,"lon":16.7544624490738,"name":"CACCURI - BIVIO CASTELSILANO","brand":"Api-Ip","address":"BIVIO CASTELSILANO  88100, CACCURI, KR","prices":[{"type":"petrol","price":1.919,"self":true,"updatedAt":"20/06/2026 09:01:15"},{"type":"diesel","price":2.029,"self":true,"updatedAt":"20/06/2026 09:01:15"}]},{"id":"32838","lat":39.30110866247298,"lon":16.910189241170883,"name":"CAR.PAL S.R.L.","brand":"Esso","address":"VIA PROVINCIALE PER ZINGA  88818, PALLAGORIO, KR","prices":[{"type":"petrol","price":1.999,"self":false,"updatedAt":"17/06/2026 14:50:56"},{"type":"diesel","price":2.099,"self":false,"updatedAt":"17/06/2026 14:50:56"}]},{"id":"17965","lat":39.31381890456588,"lon":16.776828339142753,"name":"Stazione di servizio Esso","brand":"Esso","address":"VIA MARCONI  88077, SAVELLI, KR","prices":[{"type":"petrol","price":2.243,"self":false,"updatedAt":"20/06/2026 12:42:11"},{"type":"diesel","price":2.25,"self":false,"updatedAt":"20/06/2026 12:42:11"}]},{"id":"10229","lat":39.311425137194504,"lon":16.861473619937897,"name":"Q8 rotondo cataldo","brand":"Q8","address":"Pzza marconi - -, VERZINO, KR","prices":[{"type":"petrol","price":1.999,"self":true,"updatedAt":"20/06/2026 16:04:24"},{"type":"diesel","price":2.049,"self":true,"updatedAt":"20/06/2026 16:04:24"}]}]