[{"id":"9850","lat":39.778415686508055,"lon":16.3240085542202,"name":"AGIP DI LOMBARDI OSVALDO","brand":"Agip Eni","address":"VIA PROVINCIALE SNC 87011, CASSANO ALL'IONIO, CS","prices":[{"type":"petrol","price":1.829,"self":true,"updatedAt":"01/07/2026 00:23:23"},{"type":"diesel","price":1.889,"self":true,"updatedAt":"01/07/2026 00:23:23"}]},{"id":"55795","lat":39.780352,"lon":16.4757504,"name":"ESSO CASSANO","brand":"Esso","address":"SS 106 BIS KM 371 900 SNC 87011, CASSANO ALL'IONIO, CS","prices":[{"type":"petrol","price":1.759,"self":true,"updatedAt":"01/07/2026 06:49:48"},{"type":"diesel","price":1.859,"self":true,"updatedAt":"01/07/2026 06:49:48"}]},{"id":"60589","lat":39.777728,"lon":16.3419497,"name":"FALBO GIOVANNI BATTISTA","brand":"Api-Ip","address":"Via Sibari  87011, CASSANO ALL'IONIO, CS","prices":[{"type":"petrol","price":1.769,"self":true,"updatedAt":"01/07/2026 07:32:39"},{"type":"diesel","price":1.849,"self":true,"updatedAt":"01/07/2026 07:32:39"}]},{"id":"14099","lat":39.76964617203755,"lon":16.374409943819046,"name":"FALBO GIOVANNI BATTISTA","brand":"Api-Ip","address":"CONTRADA SISTO - LACCATA SNC 87011, CASSANO ALL'IONIO, CS","prices":[{"type":"petrol","price":1.749,"self":true,"updatedAt":"01/07/2026 07:31:46"},{"type":"diesel","price":1.829,"self":true,"updatedAt":"01/07/2026 07:31:46"}]},{"id":"61574","lat":39.760914,"lon":16.462124,"name":"PETROL CALABRA","brand":"Pompe Bianche","address":"EX SS 106 KM 369+743 / 87011, CASSANO ALL'IONIO, CS","prices":[{"type":"petrol","price":1.759,"self":true,"updatedAt":"30/06/2026 19:01:10"},{"type":"diesel","price":1.839,"self":true,"updatedAt":"30/06/2026 19:01:10"},{"type":"lpg","price":0.819,"self":false,"updatedAt":"30/06/2026 19:01:10"}]},{"id":"55722","lat":39.80975581180426,"lon":16.408252716064453,"name":"SILVIO LA REGINA","brand":"Agip Eni","address":"STRADA STATALE SS 92 KM 17+215 CONTRADA VIGNE S.N. 87072, FRANCAVILLA MARITTIMA (CS) SNC 87072, FRANCAVILLA MARITTIMA, CS","prices":[{"type":"petrol","price":1.829,"self":true,"updatedAt":"01/07/2026 00:06:27"},{"type":"diesel","price":1.889,"self":true,"updatedAt":"01/07/2026 00:06:27"}]},{"id":"45180","lat":39.832189544233614,"lon":16.259015947580338,"name":"Stazione di servizio ESSO Vincenzo Mastrota","brand":"Esso","address":"VIA VALENTINO ARCURI SNC 87010, FRASCINETO, CS","prices":[{"type":"petrol","price":1.859,"self":true,"updatedAt":"01/07/2026 00:26:26"},{"type":"diesel","price":1.959,"self":true,"updatedAt":"01/07/2026 00:26:26"}]},{"id":"47985","lat":39.789115657675076,"lon":16.478011569940563,"name":"3396","brand":"Tamoil","address":"SS. 106 KM 375+160 SN 87076, VILLAPIANA, CS","prices":[{"type":"petrol","price":1.759,"self":true,"updatedAt":"01/07/2026 00:03:07"},{"type":"diesel","price":1.839,"self":true,"updatedAt":"01/07/2026 00:03:07"}]},{"id":"21120","lat":39.80978836619585,"lon":16.489366739988327,"name":"EREDI DI TUCCI ROCCO SAS","brand":"Api-Ip","address":"VIA NAZIONALE  87070, VILLAPIANA, CS","prices":[{"type":"petrol","price":1.759,"self":true,"updatedAt":"30/06/2026 09:34:48"},{"type":"diesel","price":1.839,"self":true,"updatedAt":"30/06/2026 09:34:48"}]},{"id":"26341","lat":39.79330357312618,"lon":16.46987646818161,"name":"kuwait petroleum italia spa pv7907","brand":"Q8","address":"Statale 92 dell'Appennino Meridionale, Km. 22+712, dir. ovest - 87076, VILLAPIANA, CS","prices":[{"type":"petrol","price":1.769,"self":true,"updatedAt":"27/06/2026 23:40:00"},{"type":"diesel","price":1.869,"self":true,"updatedAt":"27/06/2026 23:40:00"}]},{"id":"39476","lat":39.81661579267284,"lon":16.485425233840942,"name":"VILLAPIANA - SS 106","brand":"Api-Ip","address":"STRADA STATALE 106 KM 375 + 736 SNC  87076, VILLAPIANA, CS","prices":[{"type":"petrol","price":1.749,"self":true,"updatedAt":"30/06/2026 13:05:56"},{"type":"diesel","price":1.829,"self":true,"updatedAt":"30/06/2026 13:05:56"},{"type":"lpg","price":0.829,"self":false,"updatedAt":"30/06/2026 09:08:44"}]},{"id":"9120","lat":39.79284413398783,"lon":16.48024984543838,"name":"VILLAPIANA SCALO S.S.106 LOV.TORRE CERCHIARA","brand":"Q8","address":"S.S.106 LOV.TORRE CERCHIARA  87076, VILLAPIANA, CS","prices":[{"type":"petrol","price":1.769,"self":true,"updatedAt":"01/07/2026 01:42:57"},{"type":"diesel","price":1.849,"self":true,"updatedAt":"01/07/2026 01:42:57"}]}]