[{"id":"62232","lat":40.00009948841263,"lon":15.373966097831726,"name":"magliano impianto stradale","brand":"Api-Ip","address":"PORTO SNC 84040, CAMEROTA, SA","prices":[{"type":"petrol","price":1.899,"self":true,"updatedAt":"20/06/2026 16:58:50"},{"type":"diesel","price":1.999,"self":true,"updatedAt":"20/06/2026 16:58:50"}]},{"id":"16206","lat":40.05496324218752,"lon":15.359800322753927,"name":"no log","brand":"Api-Ip","address":"VIA GIOACCHINO MURAT 7 84050, CAMEROTA, SA","prices":[{"type":"petrol","price":1.899,"self":false,"updatedAt":"19/06/2026 21:20:58"},{"type":"diesel","price":1.999,"self":false,"updatedAt":"19/06/2026 21:20:58"}]},{"id":"38823","lat":40.00281532371576,"lon":15.364697689549303,"name":"Q8-cesarpetroil","brand":"Q8","address":"via sirene  snc 84059, CAMEROTA, SA","prices":[{"type":"petrol","price":1.889,"self":true,"updatedAt":"25/06/2026 20:04:09"},{"type":"diesel","price":1.989,"self":true,"updatedAt":"25/06/2026 20:04:09"}]},{"id":"39221","lat":40.094306165778576,"lon":15.358785182538895,"name":"PETROL PALMIERI","brand":"Pompe Bianche","address":"LOCALITA' ROSSINI S.N. 84040, CELLE DI BULGHERIA, SA","prices":[{"type":"petrol","price":1.869,"self":true,"updatedAt":"22/06/2026 07:22:02"},{"type":"diesel","price":1.979,"self":true,"updatedAt":"22/06/2026 07:22:02"}]},{"id":"19973","lat":40.0367252,"lon":15.2866356,"name":"ESSO IANNACO R. & A. SNC","brand":"Esso","address":"Corso Carlo Pisacane 153 84051, CENTOLA, SA","prices":[{"type":"petrol","price":1.947,"self":true,"updatedAt":"25/06/2026 13:41:47"},{"type":"diesel","price":1.988,"self":true,"updatedAt":"25/06/2026 13:41:47"}]},{"id":"44545","lat":40.042721000123,"lon":15.290694000123,"name":"IP","brand":"Api-Ip","address":"447 di Palinuro, Km. 46+900, CENTOLA - 84064, CENTOLA, SA","prices":[{"type":"petrol","price":1.919,"self":true,"updatedAt":"25/06/2026 11:12:30"},{"type":"diesel","price":1.959,"self":true,"updatedAt":"25/06/2026 11:12:31"}]},{"id":"44100","lat":40.03925812874101,"lon":15.310790247850377,"name":"IP AREA MEROLA","brand":"Api-Ip","address":"PIANA S.S. 562 KM. 2 SN 84051, CENTOLA, SA","prices":[{"type":"petrol","price":1.949,"self":true,"updatedAt":"25/06/2026 11:41:16"},{"type":"diesel","price":1.989,"self":true,"updatedAt":"25/06/2026 11:41:16"}]},{"id":"53292","lat":40.04425088408308,"lon":15.287984684388736,"name":"palinuro","brand":"Api-Ip","address":"SALINE EX S.S.447 KM 6+550 SNC 84051, CENTOLA, SA","prices":[{"type":"petrol","price":1.939,"self":true,"updatedAt":"22/06/2026 12:54:57"},{"type":"diesel","price":1.979,"self":true,"updatedAt":"22/06/2026 12:54:57"}]},{"id":"42711","lat":40.19600888443112,"lon":15.262747238622978,"name":"SATURNO","brand":"Pompe Bianche","address":"VIA ISCA 24 84052, CERASO, SA","prices":[{"type":"petrol","price":1.879,"self":true,"updatedAt":"25/06/2026 10:57:01"},{"type":"diesel","price":1.993,"self":true,"updatedAt":"25/06/2026 10:57:01"}]},{"id":"58703","lat":40.159858,"lon":15.3052,"name":"EASY SERVICE CUCCARO VETERE","brand":"Energas","address":"S.S. 18-KM. 19.603 - LOC. ACQUA CORRIA SNC  SNC 84050, CUCCARO VETERE, SA","prices":[{"type":"petrol","price":1.829,"self":true,"updatedAt":"25/06/2026 23:26:59"},{"type":"diesel","price":1.919,"self":true,"updatedAt":"25/06/2026 23:26:59"}]},{"id":"58952","lat":40.14538541777168,"lon":15.34895639281617,"name":"AREA SERVIZIO ANTILIA","brand":"357","address":"Frazione Abate Marco -  Località Traverse  SNC  84060, MONTANO ANTILIA, SA","prices":[{"type":"petrol","price":1.889,"self":true,"updatedAt":"20/06/2026 20:22:06"},{"type":"diesel","price":1.989,"self":true,"updatedAt":"20/06/2026 20:22:06"}]},{"id":"50378","lat":40.08994707889531,"lon":15.454724058508873,"name":"CP petroli Ciccio S.a.s di Fonseca F. & C","brand":"Pompe Bianche","address":"VARIANTE SS 18 KM 38+990 km 38+ 98 84069, ROCCAGLORIOSA, SA","prices":[{"type":"petrol","price":1.899,"self":true,"updatedAt":"20/06/2026 08:00:51"},{"type":"diesel","price":1.999,"self":true,"updatedAt":"20/06/2026 08:00:51"},{"type":"lpg","price":0.859,"self":false,"updatedAt":"20/06/2026 08:00:51"}]},{"id":"8829","lat":40.211491732628616,"lon":15.427283190867911,"name":"no logo","brand":"Api-Ip","address":"PIAZZA S.SOFIA SNC 84070, ROFRANO, SA","prices":[{"type":"petrol","price":1.899,"self":true,"updatedAt":"24/06/2026 07:52:27"},{"type":"diesel","price":1.999,"self":true,"updatedAt":"24/06/2026 07:52:27"}]},{"id":"56654","lat":40.0543407,"lon":15.4771199,"name":"CARBURANTI MAGLIANO","brand":"Pompe Bianche","address":"RIONE NUOVO 42 84070, SAN GIOVANNI A PIRO, SA","prices":[{"type":"petrol","price":1.899,"self":true,"updatedAt":"21/06/2026 19:17:33"},{"type":"diesel","price":1.999,"self":true,"updatedAt":"21/06/2026 19:17:33"}]},{"id":"57012","lat":40.0491142,"lon":15.4419661,"name":"SALVUCCI MICHELE","brand":"Pompe Bianche","address":"S.S. 18 KM 205 203 SNC 84067, SANTA MARINA, SA","prices":[{"type":"petrol","price":1.899,"self":true,"updatedAt":"23/06/2026 06:53:41"},{"type":"diesel","price":1.999,"self":true,"updatedAt":"23/06/2026 06:53:41"}]},{"id":"51761","lat":40.22959877132167,"lon":15.258962662458837,"name":"IP","brand":"Api-Ip","address":"Via Badolato, 20 20 84078, VALLO DELLA LUCANIA, SA","prices":[{"type":"petrol","price":1.836,"self":true,"updatedAt":"25/06/2026 13:02:53"},{"type":"diesel","price":1.936,"self":true,"updatedAt":"25/06/2026 13:02:53"}]},{"id":"37500","lat":40.227878928996,"lon":15.262389555573463,"name":"SELF AREA VALIANTE","brand":"Agip Eni","address":"Statale 18 Tirrena Inferiore, Km. 800, dir. Sapri Salerno - 84078, VALLO DELLA LUCANIA, SA","prices":[{"type":"petrol","price":1.829,"self":true,"updatedAt":"25/06/2026 01:03:26"},{"type":"diesel","price":1.919,"self":true,"updatedAt":"25/06/2026 01:03:26"}]},{"id":"25773","lat":40.226361154755566,"lon":15.25998884418027,"name":"Vallo della Lucania","brand":"Api-Ip","address":"Via Croce  84078, VALLO DELLA LUCANIA, SA","prices":[{"type":"petrol","price":1.819,"self":true,"updatedAt":"25/06/2026 09:16:12"},{"type":"diesel","price":1.919,"self":true,"updatedAt":"25/06/2026 09:16:12"}]}]