[{"id":"47432","lat":40.062669951809326,"lon":17.99732342362404,"name":"Esso","brand":"Esso","address":"VIA LECCE 114 73014, GALLIPOLI, LE","prices":[{"type":"petrol","price":1.829,"self":true,"updatedAt":"28/06/2026 08:27:04"},{"type":"diesel","price":1.909,"self":true,"updatedAt":"28/06/2026 08:27:04"}]},{"id":"51265","lat":40.06424851054112,"lon":17.99928608447817,"name":"FEDELE FABRIZIO","brand":"Agip Eni","address":"VIA LECCE, SNC 73014, GALLIPOLI, LE","prices":[{"type":"petrol","price":1.829,"self":true,"updatedAt":"29/06/2026 00:50:56"},{"type":"diesel","price":1.889,"self":true,"updatedAt":"29/06/2026 00:50:56"}]},{"id":"42605","lat":40.06002459528904,"lon":17.994129263991113,"name":"IP","brand":"Api-Ip","address":"VIA LECCE S.N. 73014, GALLIPOLI, LE","prices":[{"type":"petrol","price":1.839,"self":true,"updatedAt":"24/06/2026 20:00:17"},{"type":"diesel","price":1.929,"self":true,"updatedAt":"24/06/2026 20:00:17"}]},{"id":"21983","lat":40.14539550180291,"lon":17.987294644117355,"name":"Ip - Stazione di Servizio","brand":"Api-Ip","address":"via Porto Selvaggio 1 - Santa Caterina frazione di Nardò 1 73050, NARDÒ, LE","prices":[{"type":"petrol","price":1.819,"self":false,"updatedAt":"24/06/2026 17:31:32"},{"type":"diesel","price":1.889,"self":false,"updatedAt":"24/06/2026 17:31:32"}]},{"id":"58407","lat":40.185,"lon":17.9717,"name":"PREITE PETROLI","brand":"Pompe Bianche","address":"SP112 SNC 73048, NARDÒ, LE","prices":[{"type":"petrol","price":1.899,"self":true,"updatedAt":"23/06/2026 17:39:56"},{"type":"diesel","price":1.989,"self":true,"updatedAt":"23/06/2026 17:39:56"}]},{"id":"53681","lat":40.12941745436036,"lon":17.994114990710386,"name":"Stazione di servizio Santa Maria al bagno","brand":"Pompe Bianche","address":"VIA LAMARMORA  73048, NARDÒ, LE","prices":[{"type":"petrol","price":1.799,"self":true,"updatedAt":"27/06/2026 16:45:23"},{"type":"diesel","price":1.877,"self":true,"updatedAt":"27/06/2026 16:45:23"}]}]