[{"id":"55919","lat":40.17519375097331,"lon":15.157236152114878,"name":"AREA DI SERVIZIO YES","brand":"Pompe Bianche","address":"Località Stampella, SP ex SS 447, KM 4+125 SNC 84046, ASCEA, SA","prices":[{"type":"petrol","price":1.899,"self":true,"updatedAt":"22/06/2026 19:30:20"},{"type":"diesel","price":1.989,"self":true,"updatedAt":"22/06/2026 19:30:20"},{"type":"lpg","price":0.829,"self":false,"updatedAt":"22/06/2026 19:30:20"}]},{"id":"55918","lat":40.17519375097331,"lon":15.157236152114878,"name":"AREA DI SERVIZIO YES","brand":"Pompe Bianche","address":"Località Stampella, SP ex SS 447, KM 4+125 SNC 84046, ASCEA, SA","prices":[{"type":"petrol","price":1.899,"self":true,"updatedAt":"22/06/2026 19:29:55"},{"type":"diesel","price":1.989,"self":true,"updatedAt":"22/06/2026 19:29:55"}]},{"id":"6740","lat":40.17737542069334,"lon":15.124516539881142,"name":"CASALVELINO PROVINCIALE 161","brand":"Q8","address":"VIA PROVINCIALE 161 84040, CASAL VELINO, SA","prices":[{"type":"petrol","price":1.849,"self":true,"updatedAt":"22/06/2026 17:34:48"},{"type":"diesel","price":1.969,"self":true,"updatedAt":"22/06/2026 17:34:48"}]},{"id":"46880","lat":40.193856132654375,"lon":15.141182541847229,"name":"Easy Service Casal Velino","brand":"Energas","address":"fraz. marina snc 84040, CASAL VELINO, SA","prices":[{"type":"petrol","price":1.879,"self":true,"updatedAt":"25/06/2026 00:38:49"},{"type":"diesel","price":1.969,"self":true,"updatedAt":"25/06/2026 00:38:49"},{"type":"lpg","price":0.769,"self":false,"updatedAt":"26/06/2026 00:24:56"}]},{"id":"10049","lat":40.20323831222262,"lon":15.150023893174989,"name":"F.LLI FEDULLO SNC","brand":"Agip Eni","address":"STRADA PROV.PEDEMONTANA 1 84040, CASAL VELINO, SA","prices":[{"type":"petrol","price":1.829,"self":true,"updatedAt":"26/06/2026 00:08:29"},{"type":"diesel","price":1.919,"self":true,"updatedAt":"26/06/2026 00:08:29"}]},{"id":"52857","lat":40.1939,"lon":15.14131,"name":"Fuel Service srl","brand":"Api-Ip","address":"LOC. ARDISANI SNC 84040, CASAL VELINO, SA","prices":[{"type":"petrol","price":1.829,"self":true,"updatedAt":"24/06/2026 17:59:22"},{"type":"diesel","price":1.929,"self":true,"updatedAt":"24/06/2026 17:59:22"},{"type":"lpg","price":0.769,"self":false,"updatedAt":"24/06/2026 17:59:22"}]},{"id":"9665","lat":40.231369140048635,"lon":15.160210132598877,"name":"GRUPPO MEOLA SRL","brand":"Agip Eni","address":"\"S.S. 18/CILENTANA\" KM.126+929 SNC 84040, CASAL VELINO, SA","prices":[{"type":"petrol","price":1.83,"self":true,"updatedAt":"22/06/2026 09:09:38"},{"type":"diesel","price":1.919,"self":true,"updatedAt":"22/06/2026 09:09:38"},{"type":"lpg","price":0.777,"self":false,"updatedAt":"22/06/2026 09:09:38"}]},{"id":"30810","lat":40.21401542131929,"lon":15.160285234451294,"name":"GGPETROLI","brand":"Pompe Bianche","address":"LOCALITA' FIERA SNC 84040, CASTELNUOVO CILENTO, SA","prices":[{"type":"petrol","price":1.839,"self":true,"updatedAt":"22/06/2026 09:01:21"},{"type":"diesel","price":1.939,"self":true,"updatedAt":"22/06/2026 09:01:21"}]},{"id":"52084","lat":40.20056654658498,"lon":15.159183918595653,"name":"IP","brand":"Api-Ip","address":"VIA NAZIONALE SNC 84040, CASTELNUOVO CILENTO, SA","prices":[{"type":"petrol","price":1.839,"self":true,"updatedAt":"25/06/2026 13:09:07"},{"type":"diesel","price":1.979,"self":true,"updatedAt":"25/06/2026 13:09:07"}]},{"id":"9224","lat":40.188349824615955,"lon":15.024350058802838,"name":"TOP STATION - ACCIAROLI","brand":"Api-Ip","address":"VIA NAZIONALE DEL CILENTO 267 SNC 84068, POLLICA, SA","prices":[{"type":"petrol","price":1.879,"self":true,"updatedAt":"24/06/2026 21:55:04"},{"type":"diesel","price":1.969,"self":true,"updatedAt":"24/06/2026 21:55:04"}]},{"id":"57622","lat":40.231579404587954,"lon":15.245902041768273,"name":"Maiese Srl","brand":"Pompe Bianche","address":"LEVATELLE, SNC S.N.C. 84078, VALLO DELLA LUCANIA, SA","prices":[{"type":"petrol","price":1.939,"self":true,"updatedAt":"19/06/2026 11:57:19"},{"type":"diesel","price":2.099,"self":true,"updatedAt":"19/06/2026 11:57:19"}]},{"id":"62560","lat":40.2326684,"lon":15.2479556,"name":"VALLO DELLA LUCANIA S.P. 430 KM 134+900","brand":"Q8","address":"S.P. 430 KM 134+900, VALLO DELLA LUCANIA, SA","prices":[{"type":"petrol","price":1.819,"self":true,"updatedAt":"24/06/2026 17:39:39"},{"type":"diesel","price":1.919,"self":true,"updatedAt":"24/06/2026 17:39:39"}]}]