[{"id":"61363","lat":40.3866439,"lon":15.0272952,"name":"8514","brand":"Tamoil","address":"EX SS. 18 KM. 100+200, AGROPOLI, SA","prices":[{"type":"petrol","price":1.779,"self":true,"updatedAt":"29/06/2026 23:40:37"},{"type":"diesel","price":1.879,"self":true,"updatedAt":"29/06/2026 23:40:37"}]},{"id":"4445","lat":40.335553467399386,"lon":15.003397464752197,"name":"Giovanni Palumbo","brand":"Api-Ip","address":"CONTRADA MARROTA S.P. 267 Km. 8+070  84043, AGROPOLI, SA","prices":[{"type":"petrol","price":1.819,"self":true,"updatedAt":"29/06/2026 00:16:06"},{"type":"diesel","price":1.919,"self":true,"updatedAt":"29/06/2026 00:16:06"},{"type":"lpg","price":0.799,"self":false,"updatedAt":"29/06/2026 00:16:06"}]},{"id":"56957","lat":40.3838077,"lon":15.014026,"name":"GP Srl","brand":"Pompe Bianche","address":"MATTINE SNC 84043, AGROPOLI, SA","prices":[{"type":"petrol","price":1.849,"self":true,"updatedAt":"28/06/2026 19:46:16"},{"type":"diesel","price":1.899,"self":true,"updatedAt":"28/06/2026 19:46:16"}]},{"id":"21649","lat":40.33498336520981,"lon":15.014221617840576,"name":"M PETROLI","brand":"Pompe Bianche","address":"VIA MADONNA DEL CARMINE SNC 84043, AGROPOLI, SA","prices":[{"type":"petrol","price":1.819,"self":false,"updatedAt":"22/06/2026 21:57:48"},{"type":"diesel","price":1.919,"self":false,"updatedAt":"22/06/2026 21:57:48"}]},{"id":"51017","lat":40.3782643060395,"lon":15.00279492394391,"name":"STAZIONE DI SERVIZIO DIPEROIL","brand":"Pompe Bianche","address":"VIA LITORANEA DI PAESTUM 8 84043, AGROPOLI, SA","prices":[{"type":"petrol","price":1.797,"self":true,"updatedAt":"29/06/2026 23:23:23"},{"type":"diesel","price":1.877,"self":true,"updatedAt":"29/06/2026 23:23:23"},{"type":"lpg","price":0.757,"self":false,"updatedAt":"29/06/2026 23:23:23"}]},{"id":"41034","lat":40.48134927593041,"lon":15.112633779644966,"name":"stazione di servizio Sgangarella Valvano mario","brand":"Api-Ip","address":"via roma 36 84044, ALBANELLA, SA","prices":[{"type":"petrol","price":2.119,"self":false,"updatedAt":"29/06/2026 07:34:43"},{"type":"diesel","price":2.169,"self":false,"updatedAt":"29/06/2026 07:34:43"}]},{"id":"57150","lat":40.451960010281326,"lon":15.031324625015259,"name":"CB CARBURANTI","brand":"Pompe Bianche","address":"SANDRO PERTINI, S.S. 166 54 84047, CAPACCIO PAESTUM, SA","prices":[{"type":"petrol","price":1.936,"self":true,"updatedAt":"27/06/2026 09:21:46"},{"type":"diesel","price":1.943,"self":true,"updatedAt":"27/06/2026 09:21:46"}]},{"id":"56999","lat":40.477714,"lon":15.014883,"name":"ENI Service Station","brand":"Agip Eni","address":"SABATELLA 77 84047, CAPACCIO PAESTUM, SA","prices":[{"type":"petrol","price":1.789,"self":true,"updatedAt":"29/06/2026 00:20:55"},{"type":"diesel","price":1.834,"self":true,"updatedAt":"29/06/2026 00:20:55"}]},{"id":"44420","lat":40.451402000123,"lon":15.041754000123,"name":"FUEL PETROL STATION","brand":"Q8","address":"PIETRALE SNC 84047, CAPACCIO PAESTUM, SA","prices":[{"type":"petrol","price":1.799,"self":true,"updatedAt":"29/06/2026 09:17:21"},{"type":"diesel","price":1.879,"self":true,"updatedAt":"29/06/2026 09:17:21"}]},{"id":"19905","lat":40.47068995026931,"lon":15.018881857395172,"name":"GAS AUTO","brand":"Pompe Bianche","address":"Statale 18 Tirrena Inferiore, Km. 90.00, dir. Sud - 84040, CAPACCIO PAESTUM, SA","prices":[{"type":"lpg","price":0.679,"self":false,"updatedAt":"29/06/2026 06:54:14"}]},{"id":"46574","lat":40.457010527880364,"lon":15.012222295294464,"name":"MARINO SAS","brand":"Esso","address":"VIA MAGNA GRAECIA 43 84047, CAPACCIO PAESTUM, SA","prices":[{"type":"petrol","price":1.789,"self":true,"updatedAt":"29/06/2026 12:52:29"},{"type":"diesel","price":1.899,"self":true,"updatedAt":"29/06/2026 12:52:29"}]},{"id":"47565","lat":40.458913000123,"lon":15.056754000123,"name":"SP FUEL SRL","brand":"Pompe Bianche","address":"166 degli Alburni, Km. 4,355, SALERNO - 84047, CAPACCIO PAESTUM, SA","prices":[{"type":"petrol","price":1.789,"self":true,"updatedAt":"26/06/2026 16:02:45"},{"type":"diesel","price":1.899,"self":true,"updatedAt":"26/06/2026 16:02:45"}]},{"id":"45835","lat":40.425539435303,"lon":15.076728457672061,"name":"Star Oil","brand":"Pompe Bianche","address":"Via Costabile Carducci 45 84047, CAPACCIO PAESTUM, SA","prices":[{"type":"petrol","price":1.919,"self":true,"updatedAt":"28/06/2026 15:29:15"},{"type":"diesel","price":1.999,"self":true,"updatedAt":"28/06/2026 15:29:15"}]},{"id":"56915","lat":40.4206502,"lon":15.0206871,"name":"stazione di sevizio DIPEROIL","brand":"Pompe Bianche","address":"SS18 km 97+458 84047, CAPACCIO PAESTUM, SA","prices":[{"type":"petrol","price":1.877,"self":true,"updatedAt":"29/06/2026 00:26:24"},{"type":"diesel","price":1.897,"self":true,"updatedAt":"29/06/2026 00:26:24"}]},{"id":"62452","lat":40.4304164,"lon":15.0056923,"name":"STAZIONE IP","brand":"Itala Petroli","address":"Via Magna Graecia 552  84047, CAPACCIO PAESTUM, SA","prices":[{"type":"petrol","price":1.819,"self":true,"updatedAt":"24/06/2026 19:15:55"},{"type":"diesel","price":1.919,"self":true,"updatedAt":"24/06/2026 19:15:55"}]},{"id":"44475","lat":40.481851,"lon":15.013067,"name":"TOPVAS SRL","brand":"Pompe Bianche","address":"CONSORTILE PER GROMOLA S.N.C. 84047, CAPACCIO PAESTUM, SA","prices":[{"type":"petrol","price":1.895,"self":true,"updatedAt":"28/06/2026 20:09:55"},{"type":"diesel","price":1.897,"self":true,"updatedAt":"28/06/2026 20:09:55"},{"type":"lpg","price":0.789,"self":false,"updatedAt":"28/06/2026 20:09:55"}]},{"id":"47090","lat":40.49811454520646,"lon":15.029012398537093,"name":"Up service","brand":"Pompe Bianche","address":"strada provinciale 11 - km 1.1  84047, CAPACCIO PAESTUM, SA","prices":[{"type":"petrol","price":1.859,"self":true,"updatedAt":"26/06/2026 07:55:30"},{"type":"diesel","price":1.979,"self":true,"updatedAt":"26/06/2026 07:55:30"}]},{"id":"11062","lat":40.452679390399894,"lon":15.011730292993093,"name":"YES FUEL","brand":"Pompe Bianche","address":"VIA MAGNA GRACIA 389 84047, CAPACCIO PAESTUM, SA","prices":[{"type":"petrol","price":1.932,"self":true,"updatedAt":"29/06/2026 13:55:32"},{"type":"diesel","price":2.182,"self":true,"updatedAt":"29/06/2026 13:55:32"}]},{"id":"59103","lat":40.38322232038781,"lon":15.232807768786607,"name":"Tamoil","brand":"Tamoil","address":"ss 488 km 34+959 SNC 84055, FELITTO, SA","prices":[{"type":"petrol","price":1.789,"self":true,"updatedAt":"29/06/2026 14:06:25"},{"type":"diesel","price":1.869,"self":true,"updatedAt":"29/06/2026 14:06:25"}]},{"id":"53190","lat":40.2685952,"lon":15.0536192,"name":"RIZZOPETROLI","brand":"Economy","address":"PROVINCIALE 47 84056, GIOI, SA","prices":[{"type":"petrol","price":1.869,"self":true,"updatedAt":"28/06/2026 22:04:38"},{"type":"diesel","price":1.899,"self":true,"updatedAt":"28/06/2026 22:04:38"}]},{"id":"48629","lat":40.265484659404066,"lon":15.128471418385313,"name":"3965","brand":"Tamoil","address":"S.S. 18 VARIANTE KM 121+625 SX SNC 84050, LUSTRA, SA","prices":[{"type":"petrol","price":1.829,"self":true,"updatedAt":"29/06/2026 23:38:26"},{"type":"diesel","price":1.899,"self":true,"updatedAt":"29/06/2026 23:38:26"}]},{"id":"49505","lat":40.2662809901432,"lon":15.128013629450354,"name":"STAZIONE DI SERVIZIO SAS F & G.","brand":"Pompe Bianche","address":"18 Tirrena Inferiore, Km. 1 + 980, LATO DX AGROPOLI  84050, LUSTRA, SA","prices":[{"type":"petrol","price":1.889,"self":true,"updatedAt":"29/06/2026 11:09:48"},{"type":"diesel","price":1.959,"self":true,"updatedAt":"29/06/2026 11:09:48"}]},{"id":"8284","lat":40.25781692459535,"lon":15.131264414827797,"name":"DISTRIBUTORE CARBURANTI ESSO","brand":"Esso","address":"Statale 18 Tirrena Inferiore, Km. 128+693, dir. REGGIO CALABRIA  84060, OMIGNANO, SA","prices":[{"type":"petrol","price":1.799,"self":true,"updatedAt":"29/06/2026 18:24:46"},{"type":"diesel","price":1.879,"self":true,"updatedAt":"29/06/2026 18:24:46"}]},{"id":"42630","lat":40.267658647517315,"lon":15.04196307319944,"name":"esso","brand":"Esso","address":"VIA CASTAGNONE  84060, PERDIFUMO, SA","prices":[{"type":"petrol","price":1.899,"self":false,"updatedAt":"29/06/2026 12:00:18"},{"type":"diesel","price":1.989,"self":false,"updatedAt":"29/06/2026 12:00:18"}]},{"id":"33747","lat":40.424426216818844,"lon":15.187930762767792,"name":"AREA DI SERVIZIO DI IULIANO GIUSEPPE","brand":"Energas","address":"LOCALITA' CARPINE SNC 84069, ROCCADASPIDE, SA","prices":[{"type":"petrol","price":1.788,"self":true,"updatedAt":"29/06/2026 04:27:27"},{"type":"diesel","price":1.889,"self":true,"updatedAt":"29/06/2026 04:27:27"}]},{"id":"59303","lat":40.455411822616576,"lon":15.107819355229951,"name":"FONTEGAS GROUP SRL","brand":"Q8","address":"NAZIONALE 125 84069, ROCCADASPIDE, SA","prices":[{"type":"petrol","price":1.881,"self":true,"updatedAt":"26/06/2026 12:20:49"},{"type":"diesel","price":1.949,"self":true,"updatedAt":"26/06/2026 12:20:49"},{"type":"lpg","price":0.749,"self":false,"updatedAt":"26/06/2026 12:20:49"}]},{"id":"33619","lat":40.260266083434495,"lon":15.075110788685151,"name":"distributore de stefano - pompa bianca","brand":"Pompe Bianche","address":"VIA ROMA 45 84074, SESSA CILENTO, SA","prices":[{"type":"petrol","price":2.03,"self":true,"updatedAt":"29/06/2026 10:30:58"},{"type":"diesel","price":2.05,"self":true,"updatedAt":"29/06/2026 10:30:58"}]},{"id":"15076","lat":40.335526836410594,"lon":15.24882632943195,"name":"Trotta CARBURANTI S.A.S DI TROTTA GIANCARLO & C:","brand":"Pompe Bianche","address":"PALAZZO SOCCORSO,5 5 84075, STIO, SA","prices":[{"type":"petrol","price":1.958,"self":true,"updatedAt":"26/06/2026 08:32:28"},{"type":"diesel","price":1.998,"self":true,"updatedAt":"26/06/2026 08:32:28"}]},{"id":"10001","lat":40.32013245972658,"lon":15.060904026031494,"name":"impianto ENI spa","brand":"Agip Eni","address":"Statale 18 Tirrena Inferiore, Km. 113,500, dir. Torchiara - 84076, TORCHIARA, SA","prices":[{"type":"petrol","price":1.824,"self":true,"updatedAt":"29/06/2026 15:28:10"},{"type":"diesel","price":1.884,"self":true,"updatedAt":"29/06/2026 15:28:10"}]}]