[{"id":"36153","lat":40.475354072553216,"lon":15.625164359807968,"name":"38051 ENI","brand":"Agip Eni","address":"NAZIONALE SNC 85050, BRIENZA, PZ","prices":[{"type":"petrol","price":1.85,"self":true,"updatedAt":"28/06/2026 00:29:49"},{"type":"diesel","price":1.909,"self":true,"updatedAt":"28/06/2026 00:29:49"}]},{"id":"59925","lat":40.4015054,"lon":15.7397245,"name":"al.ge. carburanti","brand":"Pompe Bianche","address":"SS 598 di Fondo Valle d'Agri 2  85052, MARSICO NUOVO, PZ","prices":[{"type":"petrol","price":1.799,"self":true,"updatedAt":"26/06/2026 14:26:57"},{"type":"diesel","price":1.889,"self":true,"updatedAt":"26/06/2026 14:26:57"}]},{"id":"25514","lat":40.4262489915006,"lon":15.736260150849148,"name":"Marsico nuovo","brand":"Esso","address":"VIA SAN DONATO 2 85052, MARSICO NUOVO, PZ","prices":[{"type":"petrol","price":1.809,"self":true,"updatedAt":"27/06/2026 23:21:50"},{"type":"diesel","price":1.909,"self":true,"updatedAt":"27/06/2026 23:21:50"}]},{"id":"10385","lat":40.381751215805046,"lon":15.747281312942505,"name":"Distributore Carburanti e Lubrificanti - PATERNO PETROLI SAS","brand":"Api-Ip","address":"PATERNO GALAINO snc 85050, PATERNO, PZ","prices":[{"type":"petrol","price":1.849,"self":true,"updatedAt":"25/06/2026 17:34:32"},{"type":"diesel","price":1.949,"self":true,"updatedAt":"25/06/2026 17:34:32"}]},{"id":"50172","lat":40.439274822126116,"lon":15.56742652741797,"name":"ATENA LUCANA","brand":"Pompe Bianche","address":"Strada Statale 598 - Val D'Agri C.da Saracena km 4+0.44  84030, ATENA LUCANA, SA","prices":[{"type":"petrol","price":1.675,"self":true,"updatedAt":"28/06/2026 00:39:55"},{"type":"diesel","price":1.574,"self":true,"updatedAt":"28/06/2026 00:39:55"}]},{"id":"56686","lat":40.45573743803425,"lon":15.54142713546753,"name":"eni sustaninable mobility spa","brand":"Agip Eni","address":"SS 19 KM.64+0.50 SNC 84030, ATENA LUCANA, SA","prices":[{"type":"petrol","price":1.829,"self":true,"updatedAt":"28/06/2026 00:38:30"},{"type":"diesel","price":1.909,"self":true,"updatedAt":"28/06/2026 00:38:29"}]},{"id":"30895","lat":40.45479452956363,"lon":15.532742142677307,"name":"MIGLIORE METANAUTO","brand":"Q8","address":"VIA TANAGRO 21 84030, ATENA LUCANA, SA","prices":[{"type":"petrol","price":1.829,"self":true,"updatedAt":"21/06/2026 00:32:32"},{"type":"diesel","price":1.919,"self":true,"updatedAt":"21/06/2026 00:32:32"},{"type":"methane","price":1.479,"self":false,"updatedAt":"21/06/2026 00:32:32"},{"type":"lpg","price":0.799,"self":false,"updatedAt":"21/06/2026 00:32:32"}]},{"id":"59534","lat":40.281,"lon":15.6377,"name":"FD Petroli1 srl","brand":"Pompe Bianche","address":"STS 517 SNC 84032, BUONABITACOLO, SA","prices":[{"type":"petrol","price":1.789,"self":true,"updatedAt":"25/06/2026 12:52:32"},{"type":"diesel","price":1.879,"self":true,"updatedAt":"25/06/2026 12:52:32"}]},{"id":"46578","lat":40.33651005994621,"lon":15.62810376062,"name":"IP Ener.G Srl","brand":"Api-Ip","address":"Via Provinciale 51/b, c.da Starze  84034, PADULA, SA","prices":[{"type":"petrol","price":1.849,"self":false,"updatedAt":"26/06/2026 20:29:48"},{"type":"diesel","price":1.899,"self":false,"updatedAt":"26/06/2026 20:29:48"},{"type":"lpg","price":0.739,"self":false,"updatedAt":"26/06/2026 20:29:48"}]},{"id":"62627","lat":40.329301,"lon":15.62589,"name":"ENERGY FUEL SRL","brand":"Pompe Bianche","address":"VIA NAZIONALE S.S.19 KM.81+130 SNC 84034, PADULA, SA","prices":[{"type":"petrol","price":1.799,"self":true,"updatedAt":"26/06/2026 16:18:46"},{"type":"diesel","price":1.879,"self":true,"updatedAt":"26/06/2026 16:18:46"}]},{"id":"62626","lat":40.329187,"lon":15.626564,"name":"ENERGY FUEL SRL","brand":"Pompe Bianche","address":"Via Camerelle 12  84039, PADULA, SA","prices":[{"type":"lpg","price":0.739,"self":false,"updatedAt":"26/06/2026 16:19:17"}]},{"id":"38410","lat":40.29980715822243,"lon":15.643746703863144,"name":"MARIO PETRIZZO PETROLI S.R.L.","brand":"Esso","address":"Statale 19 delle Calabrie, Km. 88, dir. LAGONEGRO - 84034, PADULA, SA","prices":[{"type":"petrol","price":1.799,"self":true,"updatedAt":"26/06/2026 10:10:20"},{"type":"diesel","price":1.889,"self":true,"updatedAt":"26/06/2026 10:10:20"}]},{"id":"30896","lat":40.28823661874004,"lon":15.640085234605749,"name":"MIGLIORE METANAUTO","brand":"Q8","address":"Statale 517 Bussentina, Km. 1+665, dir. PADULA - 84034, PADULA, SA","prices":[{"type":"petrol","price":1.849,"self":true,"updatedAt":"21/06/2026 00:33:56"},{"type":"diesel","price":1.949,"self":true,"updatedAt":"21/06/2026 00:33:56"},{"type":"methane","price":1.479,"self":false,"updatedAt":"21/06/2026 00:33:56"},{"type":"lpg","price":0.849,"self":false,"updatedAt":"21/06/2026 00:33:56"}]},{"id":"41077","lat":40.33261700788541,"lon":15.624786168336868,"name":"SABIA CARBURANTI SRL","brand":"Pompe Bianche","address":"VIA NAZIONALE SNC 84034, PADULA, SA","prices":[{"type":"petrol","price":1.869,"self":true,"updatedAt":"27/06/2026 08:59:54"},{"type":"diesel","price":1.909,"self":true,"updatedAt":"27/06/2026 08:59:54"}]},{"id":"47454","lat":40.28956805584389,"lon":15.651562585628218,"name":"STAZIONE SERVIZIO ENI","brand":"Agip Eni","address":"S.S. 19 KM 86+200  84034, PADULA, SA","prices":[{"type":"petrol","price":1.829,"self":true,"updatedAt":"27/06/2026 00:34:59"},{"type":"diesel","price":1.889,"self":true,"updatedAt":"27/06/2026 12:50:12"}]},{"id":"43849","lat":40.488185059890434,"lon":15.526597000000038,"name":"A.P. CENTER SRL","brand":"Pompe Bianche","address":"CONTRADA SANT'ANTUONO - Z.I. 8 84035, POLLA, SA","prices":[{"type":"petrol","price":1.879,"self":true,"updatedAt":"25/06/2026 11:26:02"},{"type":"diesel","price":1.959,"self":true,"updatedAt":"25/06/2026 11:26:02"}]},{"id":"46370","lat":40.410297868488094,"lon":15.572522539954434,"name":"54759","brand":"Agip Eni","address":"SAN SEBASTIANO 11 84036, SALA CONSILINA, SA","prices":[{"type":"petrol","price":1.829,"self":true,"updatedAt":"28/06/2026 00:25:42"},{"type":"diesel","price":1.889,"self":true,"updatedAt":"28/06/2026 00:25:42"}]},{"id":"41376","lat":40.365087738018346,"lon":15.616382465641436,"name":"8347","brand":"Tamoil","address":"S.S. 19 KM. 76+900 SNC 84036, SALA CONSILINA, SA","prices":[{"type":"petrol","price":1.799,"self":true,"updatedAt":"27/06/2026 23:49:13"},{"type":"diesel","price":1.839,"self":true,"updatedAt":"27/06/2026 23:49:13"}]},{"id":"52131","lat":40.42313,"lon":15.55221,"name":"eMMeGi","brand":"Tamoil","address":"AREA P.I.P VIA MEZZANIELLO S.N.C. 84036, SALA CONSILINA, SA","prices":[{"type":"petrol","price":1.859,"self":true,"updatedAt":"25/06/2026 16:35:55"},{"type":"diesel","price":1.919,"self":true,"updatedAt":"25/06/2026 16:35:55"},{"type":"methane","price":1.479,"self":true,"updatedAt":"25/06/2026 16:35:55"}]},{"id":"42297","lat":40.421638606835174,"lon":15.555196925997734,"name":"MIGLIORE CARBURANTE","brand":"Q8","address":"VIA MURA ROSSE SNC 84036, SALA CONSILINA, SA","prices":[{"type":"petrol","price":1.829,"self":true,"updatedAt":"21/06/2026 00:34:53"},{"type":"diesel","price":1.919,"self":true,"updatedAt":"21/06/2026 00:34:53"},{"type":"methane","price":1.479,"self":true,"updatedAt":"21/06/2026 00:34:53"},{"type":"lpg","price":0.799,"self":false,"updatedAt":"21/06/2026 00:34:53"}]},{"id":"32062","lat":40.39873834488029,"lon":15.581182837486267,"name":"SALA CONSILINA EST","brand":"Agip Eni","address":"Autostrada A3 SALERNO-REGGIO CALABRIA, Km. 91, dir. nord - 84036, SALA CONSILINA, SA","prices":[{"type":"petrol","price":1.909,"self":true,"updatedAt":"27/06/2026 23:52:51"},{"type":"diesel","price":1.999,"self":true,"updatedAt":"27/06/2026 23:52:50"},{"type":"lpg","price":0.889,"self":false,"updatedAt":"27/06/2026 23:52:51"}]},{"id":"31570","lat":40.39807366551684,"lon":15.580337941646576,"name":"SALA CONSILINA OVEST","brand":"Agip Eni","address":"Autostrada A3 SALERNO-REGGIO CALABRIA, Km. 91+426, dir. sud - 84036, SALA CONSILINA, SA","prices":[{"type":"petrol","price":1.929,"self":true,"updatedAt":"27/06/2026 23:56:34"},{"type":"diesel","price":1.999,"self":true,"updatedAt":"27/06/2026 23:56:34"}]},{"id":"48146","lat":40.4123498983387,"lon":15.568050574507852,"name":"SANTARSIERE MICHELE","brand":"Esso","address":"C.DA MADONNA DEL LATTE KM 69+3 SNC 84036, SALA CONSILINA, SA","prices":[{"type":"petrol","price":1.829,"self":true,"updatedAt":"26/06/2026 12:06:11"},{"type":"diesel","price":1.909,"self":true,"updatedAt":"26/06/2026 12:06:11"}]},{"id":"43038","lat":40.38220091371041,"lon":15.604181317791017,"name":"STAR ASSISTANCE SRL","brand":"Api-Ip","address":"19 delle Calabrie, Km. 74,600, SUD - 84036, SALA CONSILINA, SA","prices":[{"type":"petrol","price":1.829,"self":true,"updatedAt":"25/06/2026 19:12:58"},{"type":"diesel","price":1.919,"self":true,"updatedAt":"25/06/2026 19:12:58"}]},{"id":"42549","lat":40.41084195625603,"lon":15.569067232501993,"name":"STAZIONE DI SERVIZIO GRGAS","brand":"Q8","address":"VIA SANTA MARIA DELLA MISERICORDIA  84036, SALA CONSILINA, SA","prices":[{"type":"petrol","price":1.829,"self":true,"updatedAt":"25/06/2026 16:34:42"},{"type":"diesel","price":1.909,"self":true,"updatedAt":"25/06/2026 16:34:42"},{"type":"lpg","price":0.799,"self":false,"updatedAt":"25/06/2026 16:34:42"}]},{"id":"59861","lat":40.366934218839944,"lon":15.614522661342258,"name":"UP-Sala Consilina","brand":"UP","address":"S.da Statale 19 delle Calabrie 40  84036, SALA CONSILINA, SA","prices":[{"type":"petrol","price":1.799,"self":true,"updatedAt":"27/06/2026 10:24:33"},{"type":"diesel","price":1.869,"self":true,"updatedAt":"27/06/2026 10:24:33"}]},{"id":"43470","lat":40.36296985781048,"lon":15.592283406151637,"name":"Antonietta Russo","brand":"Agip Eni","address":"VIA PROV.LE DEL CORTICATO  84038, SASSANO, SA","prices":[{"type":"petrol","price":1.824,"self":true,"updatedAt":"28/06/2026 00:18:53"},{"type":"diesel","price":1.894,"self":true,"updatedAt":"28/06/2026 00:18:53"}]},{"id":"48751","lat":40.354163,"lon":15.5900196,"name":"CARBURANTI ORLANDO s.r.l.","brand":"Pompe Bianche","address":"Via Lagno Secco, SASSANO, SA","prices":[{"type":"petrol","price":1.759,"self":false,"updatedAt":"28/06/2026 06:19:22"},{"type":"diesel","price":1.829,"self":false,"updatedAt":"28/06/2026 06:19:22"}]},{"id":"62974","lat":40.36232226799466,"lon":15.59122604698502,"name":"DI BRIZZI CARBURANTI SRL","brand":"Pompe Bianche","address":"PROVINCIALE DEL CORTICATO SNC 84038, SASSANO, SA","prices":[{"type":"petrol","price":1.792,"self":true,"updatedAt":"24/06/2026 15:50:19"},{"type":"diesel","price":1.852,"self":true,"updatedAt":"24/06/2026 15:50:19"},{"type":"lpg","price":0.735,"self":false,"updatedAt":"24/06/2026 15:50:19"}]},{"id":"10448","lat":40.36106761154029,"lon":15.588880181312561,"name":"ESSO di Calandriello Arcangela","brand":"Esso","address":"SP 11f 29 84038, SASSANO, SA","prices":[{"type":"petrol","price":1.799,"self":true,"updatedAt":"26/06/2026 12:30:57"},{"type":"diesel","price":1.889,"self":true,"updatedAt":"26/06/2026 12:30:57"}]},{"id":"61164","lat":40.379873,"lon":15.532337,"name":"CHIMERA CARBURANTI S.R.L","brand":"4.0","address":"SAN GIOVANNI 1 84039, TEGGIANO, SA","prices":[{"type":"petrol","price":1.785,"self":true,"updatedAt":"20/06/2026 14:33:19"},{"type":"diesel","price":1.875,"self":true,"updatedAt":"20/06/2026 14:33:19"}]},{"id":"21453","lat":40.39022977976731,"lon":15.524764505126882,"name":"DI SARLI PETROLI SRL","brand":"Q8","address":"Via Prov.le Teggiano - Polla  84039, TEGGIANO, SA","prices":[{"type":"petrol","price":1.789,"self":true,"updatedAt":"25/06/2026 22:43:13"},{"type":"diesel","price":1.889,"self":true,"updatedAt":"25/06/2026 22:43:13"}]},{"id":"60427","lat":40.39638707177156,"lon":15.521833428853412,"name":"REFUEL","brand":"Pompe Bianche","address":"Via Provinciale Teggiano - Polla 422 84039, TEGGIANO, SA","prices":[{"type":"petrol","price":1.789,"self":true,"updatedAt":"25/06/2026 22:44:32"},{"type":"diesel","price":1.879,"self":true,"updatedAt":"25/06/2026 22:44:33"}]},{"id":"52575","lat":40.37822765289314,"lon":15.553179668200755,"name":"Stazione di servizio di Varuzza Domenico","brand":"LP Carburanti","address":"Via Provinciale del Corticato  84039, TEGGIANO, SA","prices":[{"type":"petrol","price":1.959,"self":true,"updatedAt":"24/06/2026 23:20:34"},{"type":"diesel","price":2.121,"self":true,"updatedAt":"24/06/2026 23:20:34"}]},{"id":"42268","lat":40.3768338,"lon":15.5395268,"name":"STAZIONE IP GRUPPO API (Teggiano)","brand":"Api-Ip","address":"Via Provinciale Teggiano Polla snc 84039, TEGGIANO, SA","prices":[{"type":"petrol","price":1.799,"self":true,"updatedAt":"28/06/2026 06:18:52"},{"type":"diesel","price":1.899,"self":true,"updatedAt":"28/06/2026 06:18:52"}]}]