[{"id":"5515","lat":40.74769524875146,"lon":17.33000155952459,"name":"LOCOROTONDO","brand":"Api-Ip","address":"SS172 KM 44+ 101  70010, LOCOROTONDO, BA","prices":[{"type":"petrol","price":1.772,"self":true,"updatedAt":"25/06/2026 09:15:33"},{"type":"diesel","price":1.842,"self":true,"updatedAt":"25/06/2026 09:15:33"}]},{"id":"57535","lat":40.743988,"lon":17.430502,"name":"38032 Cisternino","brand":"Agip Eni","address":"VIA N. SAURO - ANGOLO VIA C. COLOMBO  SNC  72014, CISTERNINO, BR","prices":[{"type":"petrol","price":1.829,"self":true,"updatedAt":"25/06/2026 01:06:33"},{"type":"diesel","price":1.899,"self":true,"updatedAt":"26/06/2026 07:54:34"}]},{"id":"53738","lat":40.748478,"lon":17.425121,"name":"Cardone Giuseppe Eni","brand":"Agip Eni","address":"FASANO  72014, CISTERNINO, BR","prices":[{"type":"petrol","price":1.829,"self":true,"updatedAt":"25/06/2026 00:52:07"},{"type":"diesel","price":1.909,"self":true,"updatedAt":"25/06/2026 00:52:07"}]},{"id":"12162","lat":40.73843870801457,"lon":17.47053517427446,"name":"CONVERTINI MARIA","brand":"Retitalia","address":"BRINDISI 49 72014, CISTERNINO, BR","prices":[{"type":"petrol","price":1.839,"self":true,"updatedAt":"24/06/2026 07:51:30"},{"type":"diesel","price":1.929,"self":true,"updatedAt":"24/06/2026 07:51:30"}]},{"id":"32335","lat":40.740293650817186,"lon":17.422803044319153,"name":"IP","brand":"Api-Ip","address":"viale valle d'itria  72014, CISTERNINO, BR","prices":[{"type":"petrol","price":1.819,"self":true,"updatedAt":"25/06/2026 19:04:50"},{"type":"diesel","price":1.919,"self":true,"updatedAt":"25/06/2026 19:04:50"}]},{"id":"38760","lat":40.7009184387747,"lon":17.492981627583504,"name":"Menga Petroli s.r.l.","brand":"Menga petroli","address":"CONTRADA GRIECO 6 72017, OSTUNI, BR","prices":[{"type":"petrol","price":1.819,"self":true,"updatedAt":"24/06/2026 11:44:10"},{"type":"diesel","price":1.899,"self":true,"updatedAt":"24/06/2026 11:44:10"}]},{"id":"48972","lat":40.572579626408405,"lon":17.479443703621445,"name":"BERNARDI CARBURANTI","brand":"Pompe Bianche","address":"VIA PER FRANCAVILLA SNC 72029, VILLA CASTELLI, BR","prices":[{"type":"petrol","price":1.849,"self":true,"updatedAt":"22/06/2026 19:01:36"},{"type":"diesel","price":1.949,"self":true,"updatedAt":"22/06/2026 19:01:36"}]},{"id":"32585","lat":40.59287834241414,"lon":17.480516731739044,"name":"CARLUCCI CARBURANTI","brand":"Pompe Bianche","address":"PROV.LE PER CEGLIE 102 72029, VILLA CASTELLI, BR","prices":[{"type":"petrol","price":1.819,"self":true,"updatedAt":"25/06/2026 11:14:05"},{"type":"diesel","price":1.899,"self":true,"updatedAt":"25/06/2026 11:14:05"}]},{"id":"51323","lat":40.574109022503194,"lon":17.474040746032713,"name":"MENGA PETROLI - VILLA CASTELLI - VIA PER GROTTAGLIE","brand":"Menga petroli","address":"S.P. PER GROTTAGLIE SNC  72029, VILLA CASTELLI, BR","prices":[{"type":"petrol","price":1.809,"self":true,"updatedAt":"24/06/2026 10:49:49"},{"type":"diesel","price":1.889,"self":true,"updatedAt":"24/06/2026 10:49:49"}]},{"id":"48776","lat":40.534507836682195,"lon":17.476818683189382,"name":"MENGA PETROLI - VILLA CASTELLI NORD","brand":"Menga petroli","address":"7 Via Appia, Km. 671+400, Brindisi-Taranto - 72029, VILLA CASTELLI, BR","prices":[{"type":"petrol","price":1.809,"self":true,"updatedAt":"24/06/2026 10:36:48"},{"type":"diesel","price":1.889,"self":true,"updatedAt":"24/06/2026 10:36:48"}]},{"id":"49318","lat":40.53391957707238,"lon":17.478340371163995,"name":"MENGA PETROLI - VILLA CASTELLI SUD","brand":"Menga petroli","address":"7 Via Appia, Km. KM. 677+800, BRINDISI - 72029, VILLA CASTELLI, BR","prices":[{"type":"petrol","price":1.809,"self":true,"updatedAt":"24/06/2026 10:46:30"},{"type":"diesel","price":1.889,"self":true,"updatedAt":"24/06/2026 10:46:30"},{"type":"lpg","price":0.779,"self":false,"updatedAt":"24/06/2026 10:46:30"}]},{"id":"42435","lat":40.5992180524514,"lon":17.25190119157105,"name":"\"Vigne Vecchie - CRISPIANO\"","brand":"Api-Ip","address":"SP 45 - VIA FOGGIA SNC 74012, CRISPIANO, TA","prices":[{"type":"petrol","price":1.835,"self":true,"updatedAt":"25/06/2026 12:53:00"},{"type":"diesel","price":1.913,"self":true,"updatedAt":"25/06/2026 12:53:00"}]},{"id":"18098","lat":40.57958606252557,"lon":17.285127192735672,"name":"RENO’ SALVATORE","brand":"Pompe Bianche","address":"VIA S.P.45 PER MONTEMESOLA 0 74012, CRISPIANO (TA)  74012, CRISPIANO, TA","prices":[{"type":"petrol","price":1.839,"self":true,"updatedAt":"25/06/2026 00:10:40"},{"type":"diesel","price":1.939,"self":true,"updatedAt":"25/06/2026 00:10:40"},{"type":"lpg","price":0.719,"self":false,"updatedAt":"25/06/2026 23:42:49"}]},{"id":"57039","lat":40.53101668453684,"lon":17.42321321925049,"name":"DIL carburanti srl","brand":"DIL","address":"Via Partigiani Caduti sn 74023, GROTTAGLIE, TA","prices":[{"type":"petrol","price":1.809,"self":true,"updatedAt":"24/06/2026 17:00:16"},{"type":"diesel","price":1.889,"self":true,"updatedAt":"24/06/2026 17:00:16"}]},{"id":"19644","lat":40.533391689652824,"lon":17.42468923330307,"name":"ENI","brand":"Agip Eni","address":"VIA PARTIGIANI CADUTI S.N. 74023, GROTTAGLIE, TA","prices":[{"type":"petrol","price":1.829,"self":true,"updatedAt":"25/06/2026 00:37:33"},{"type":"diesel","price":1.919,"self":true,"updatedAt":"25/06/2026 00:37:33"}]},{"id":"60645","lat":40.53228046562926,"lon":17.424087077379227,"name":"ESSO 4","brand":"Esso","address":"Via Partigiani Caduti 52 74023, GROTTAGLIE, TA","prices":[{"type":"petrol","price":1.809,"self":true,"updatedAt":"25/06/2026 00:01:42"},{"type":"diesel","price":1.889,"self":true,"updatedAt":"25/06/2026 00:01:42"}]},{"id":"6771","lat":40.52395031668561,"lon":17.43156913809821,"name":"GROTTAGLIE S.P. 86 GROTTAGLIE - SAN MARZANO","brand":"Q8","address":"S.P. 86 GROTTAGLIE - SAN MARZANO SNC 74023, GROTTAGLIE, TA","prices":[{"type":"petrol","price":1.819,"self":true,"updatedAt":"26/06/2026 01:42:15"},{"type":"diesel","price":1.884,"self":true,"updatedAt":"26/06/2026 01:42:15"}]},{"id":"6821","lat":40.535828938207615,"lon":17.412785589694977,"name":"natale raffaele","brand":"Pompe Bianche","address":"strada provinviale per montemesola  74023, GROTTAGLIE, TA","prices":[{"type":"petrol","price":1.79,"self":true,"updatedAt":"24/06/2026 09:24:58"},{"type":"diesel","price":1.88,"self":true,"updatedAt":"24/06/2026 09:24:58"},{"type":"lpg","price":0.73,"self":false,"updatedAt":"24/06/2026 09:24:58"}]},{"id":"60960","lat":40.536694,"lon":17.438686,"name":"stazione di servizio italiana petroli Urgesi Domenico","brand":"Api-Ip","address":"Via Cristoforo Colombo 53 74023, GROTTAGLIE, TA","prices":[{"type":"petrol","price":1.829,"self":true,"updatedAt":"25/06/2026 16:13:49"},{"type":"diesel","price":1.899,"self":true,"updatedAt":"25/06/2026 16:13:49"}]},{"id":"59354","lat":40.53540030273771,"lon":17.425903357582104,"name":"TAMOIL 8179","brand":"Tamoil","address":"IV NOVEMBRE SN 74023, GROTTAGLIE, TA","prices":[{"type":"petrol","price":1.799,"self":true,"updatedAt":"25/06/2026 14:04:35"},{"type":"diesel","price":1.889,"self":true,"updatedAt":"25/06/2026 14:04:35"}]},{"id":"55263","lat":40.6925488,"lon":17.39925,"name":"ITRIA METANO Giuliani Martino di Giuliani Graziana","brand":"Pompe Bianche","address":"S. CATERINA SNC 74015, MARTINA FRANCA, TA","prices":[{"type":"methane","price":1.599,"self":false,"updatedAt":"22/06/2026 11:21:25"}]},{"id":"22236","lat":40.67907258987629,"lon":17.3295097053051,"name":"Martina Franca","brand":"Api-Ip","address":"SS172 km 52,175  74015, MARTINA FRANCA, TA","prices":[{"type":"petrol","price":1.779,"self":true,"updatedAt":"25/06/2026 09:16:55"},{"type":"diesel","price":1.869,"self":true,"updatedAt":"25/06/2026 17:07:54"}]},{"id":"30243","lat":40.69506339475208,"lon":17.336112069940555,"name":"MARTINA FRANCA - VIA TARANTO","brand":"Api-Ip","address":"VIA TARANTO  74015, MARTINA FRANCA, TA","prices":[{"type":"petrol","price":1.779,"self":true,"updatedAt":"25/06/2026 09:11:05"},{"type":"diesel","price":1.869,"self":true,"updatedAt":"25/06/2026 17:03:59"}]},{"id":"33187","lat":40.737133389015035,"lon":17.33271830181775,"name":"MARTINA FRANCA SS 172 KM 4 CP 56","brand":"Q8","address":"SS 172 KM 4 CP 56  74015, MARTINA FRANCA, TA","prices":[{"type":"petrol","price":1.789,"self":true,"updatedAt":"24/06/2026 01:42:56"},{"type":"diesel","price":1.859,"self":true,"updatedAt":"24/06/2026 01:42:56"},{"type":"lpg","price":0.639,"self":false,"updatedAt":"24/06/2026 01:42:56"}]},{"id":"9602","lat":40.706194749928535,"lon":17.340129282838006,"name":"MARTINA FRANCA VALLE D'ITRIA","brand":"Q8","address":"VALLE D'ITRIA  74015, MARTINA FRANCA, TA","prices":[{"type":"petrol","price":1.779,"self":true,"updatedAt":"24/06/2026 17:39:54"},{"type":"diesel","price":1.869,"self":true,"updatedAt":"24/06/2026 17:39:54"}]},{"id":"9327","lat":40.685238109405674,"lon":17.33191967010498,"name":"Q8","brand":"Menga petroli","address":"STRADA STATALE 172  KM. 51,430  74015, MARTINA FRANCA, TA","prices":[{"type":"petrol","price":1.839,"self":true,"updatedAt":"26/06/2026 07:43:52"},{"type":"diesel","price":1.919,"self":true,"updatedAt":"26/06/2026 07:43:52"}]},{"id":"27515","lat":40.617119050281644,"lon":17.431932402630423,"name":"Rifornimento Carburante Ligorio Marianna","brand":"Italiana Carburanti","address":"Via per Villa Castelli 826 74015, MARTINA FRANCA, TA","prices":[{"type":"petrol","price":1.975,"self":true,"updatedAt":"25/06/2026 11:30:51"},{"type":"diesel","price":1.999,"self":true,"updatedAt":"25/06/2026 11:30:51"}]},{"id":"12604","lat":40.70057170419036,"lon":17.338316512929396,"name":"stazione di servizio eni castellana paolo","brand":"Agip Eni","address":"VIA S.S. 17  ANG. VIA FIGHERA S.N.  74015, MARTINA FRANCA, TA","prices":[{"type":"petrol","price":1.829,"self":true,"updatedAt":"25/06/2026 00:05:29"},{"type":"diesel","price":1.919,"self":true,"updatedAt":"25/06/2026 00:05:29"}]},{"id":"58760","lat":40.69658643842918,"lon":17.339549968853305,"name":"Stazione di servizio Eni di Angelo Castellana","brand":"Agip Eni","address":"VIA MADONNA PICCOLA 58 74015, MARTINA FRANCA, TA","prices":[{"type":"petrol","price":1.849,"self":true,"updatedAt":"25/06/2026 23:19:19"},{"type":"diesel","price":1.949,"self":true,"updatedAt":"25/06/2026 23:19:19"}]},{"id":"38797","lat":40.51262765420221,"lon":17.37158015370369,"name":"Easy Service Monteiasi","brand":"Energas","address":"sp 80 Montemesola - Monteiasi S.N.C. 74020, MONTEIASI, TA","prices":[{"type":"petrol","price":1.829,"self":true,"updatedAt":"25/06/2026 00:51:27"},{"type":"diesel","price":1.899,"self":true,"updatedAt":"25/06/2026 15:56:12"}]},{"id":"15144","lat":40.572785315659154,"lon":17.334859371185303,"name":"menga petroli","brand":"Menga petroli","address":"via delle industrie sn 74020, MONTEMESOLA, TA","prices":[{"type":"petrol","price":1.849,"self":true,"updatedAt":"24/06/2026 18:09:29"},{"type":"diesel","price":1.949,"self":true,"updatedAt":"24/06/2026 18:09:29"},{"type":"methane","price":1.789,"self":false,"updatedAt":"24/06/2026 18:09:29"}]},{"id":"23876","lat":40.548883302784944,"lon":17.275054156780243,"name":"STATTE S.S. 172 KM. 68+00","brand":"Q8","address":"S.S. 172 KM. 68+00  74010, STATTE, TA","prices":[{"type":"petrol","price":1.774,"self":true,"updatedAt":"26/06/2026 01:42:15"},{"type":"diesel","price":1.834,"self":true,"updatedAt":"26/06/2026 01:42:15"}]},{"id":"30817","lat":40.51923797454733,"lon":17.2663651406765,"name":"2738","brand":"Tamoil","address":"CANNATA 4 74123, TARANTO, TA","prices":[{"type":"petrol","price":1.779,"self":true,"updatedAt":"25/06/2026 12:13:05"},{"type":"diesel","price":1.839,"self":true,"updatedAt":"25/06/2026 12:13:05"}]},{"id":"44487","lat":40.524524000123,"lon":17.264875000123,"name":"3S - sorrenti petroli","brand":"Pompe Bianche","address":"172 dei Trulli, Km. 71+090, martina franca - 74123, TARANTO, TA","prices":[{"type":"petrol","price":1.789,"self":true,"updatedAt":"24/06/2026 10:38:59"},{"type":"diesel","price":1.879,"self":true,"updatedAt":"24/06/2026 10:38:59"}]},{"id":"62983","lat":40.519614802311175,"lon":17.27462046151582,"name":"ENI GIVA GROUP SRL","brand":"Agip Eni","address":"GIUSEPPE CANNATA 23 74123, TARANTO, TA","prices":[{"type":"petrol","price":1.784,"self":true,"updatedAt":"25/06/2026 23:39:24"},{"type":"diesel","price":1.849,"self":true,"updatedAt":"25/06/2026 23:39:24"}]},{"id":"43970","lat":40.51467035209735,"lon":17.31243138773152,"name":"ENI STATION DI IANNOTTI SONIA","brand":"Agip Eni","address":"Strada Statale, Km. 656-500, GROTTAGLIE - 74123, TARANTO, TA","prices":[{"type":"petrol","price":1.829,"self":true,"updatedAt":"25/06/2026 23:14:41"},{"type":"diesel","price":1.909,"self":true,"updatedAt":"25/06/2026 06:52:05"},{"type":"lpg","price":0.722,"self":false,"updatedAt":"25/06/2026 23:14:41"}]},{"id":"61603","lat":40.518986547244616,"lon":17.33914017677307,"name":"ENILIVE","brand":"Agip Eni","address":"SS7 GROTTAGLIE TARANTO KM 658,950 74123, TARANTO, TA","prices":[{"type":"petrol","price":1.829,"self":true,"updatedAt":"25/06/2026 00:18:23"},{"type":"diesel","price":1.899,"self":true,"updatedAt":"26/06/2026 05:32:07"},{"type":"lpg","price":0.729,"self":false,"updatedAt":"25/06/2026 07:54:07"}]},{"id":"39327","lat":40.519433,"lon":17.2728139,"name":"GRANVILLA IVAN E GIADA & CO. S.N.C.","brand":"Agip Eni","address":"Viale G. Cannata 23 74123, TARANTO, TA","prices":[{"type":"petrol","price":1.864,"self":true,"updatedAt":"08/06/2026 23:22:55"},{"type":"diesel","price":1.979,"self":true,"updatedAt":"08/06/2026 23:22:55"}]},{"id":"56525","lat":40.51864048104647,"lon":17.288502056562702,"name":"TARANTO EASY CC MONGOLFIERA","brand":"Energas","address":"Via per Montemesola 1000 74123, TARANTO, TA","prices":[{"type":"petrol","price":1.779,"self":true,"updatedAt":"26/06/2026 00:07:07"},{"type":"diesel","price":1.839,"self":true,"updatedAt":"26/06/2026 00:07:07"},{"type":"lpg","price":0.709,"self":false,"updatedAt":"25/06/2026 00:51:48"}]}]