[{"id":"55647","lat":40.73275987235079,"lon":15.72357695362671,"name":"107585 AVIGLIANO","brand":"Esso","address":"DON NICOLA STOLFI SNC 85021, AVIGLIANO, PZ","prices":[{"type":"petrol","price":1.919,"self":true,"updatedAt":"15/06/2026 07:06:45"},{"type":"diesel","price":2.019,"self":true,"updatedAt":"15/06/2026 07:06:45"}]},{"id":"17137","lat":40.71603763556809,"lon":15.749094486236572,"name":"PETROL. BO SRL","brand":"Ies","address":"CONTRADA VALLE FLAMINIA, SNC  85021, AVIGLIANO, PZ","prices":[{"type":"petrol","price":1.825,"self":true,"updatedAt":"26/06/2026 10:11:41"},{"type":"diesel","price":1.879,"self":true,"updatedAt":"26/06/2026 10:11:41"},{"type":"lpg","price":0.769,"self":false,"updatedAt":"26/06/2026 10:11:41"}]},{"id":"32522","lat":40.73601461152097,"lon":15.73113240301609,"name":"stazione di servizio IP","brand":"Api-Ip","address":"contrada civitelle 6 85021, AVIGLIANO, PZ","prices":[{"type":"petrol","price":1.849,"self":true,"updatedAt":"27/06/2026 10:53:14"},{"type":"diesel","price":1.919,"self":true,"updatedAt":"27/06/2026 10:53:14"}]},{"id":"63282","lat":40.7326679,"lon":15.7260503,"name":"TOIL265 - AVIGNANO","brand":"Esso","address":"Via Don N. Stolfi  85021, AVIGLIANO, PZ","prices":[{"type":"petrol","price":1.829,"self":true,"updatedAt":"29/06/2026 00:37:03"},{"type":"diesel","price":1.919,"self":true,"updatedAt":"29/06/2026 00:37:03"}]},{"id":"19260","lat":40.655335346451274,"lon":15.550033673644066,"name":"EURO CARBURANTI","brand":"Api-Ip","address":"CONTRADA GAUDINO 5 85050, BALVANO, PZ","prices":[{"type":"petrol","price":1.95,"self":true,"updatedAt":"28/06/2026 22:00:12"},{"type":"diesel","price":1.99,"self":true,"updatedAt":"28/06/2026 22:00:12"}]},{"id":"21457","lat":40.693469710377514,"lon":15.555732697248459,"name":"la quercia","brand":"Q8","address":"LOCALITA' SAVINOSA  85050, BALVANO, PZ","prices":[{"type":"petrol","price":1.839,"self":true,"updatedAt":"24/06/2026 18:54:11"},{"type":"diesel","price":1.919,"self":true,"updatedAt":"24/06/2026 18:54:11"},{"type":"lpg","price":0.859,"self":false,"updatedAt":"24/06/2026 18:54:11"}]},{"id":"55000","lat":40.6872592,"lon":15.5826237,"name":"area service soc. coop.","brand":"Api-Ip","address":"VIA SS.7 VIA APPIA KM.430+537,50 SNC 85050, BARAGIANO (PZ)  85050, BARAGIANO, PZ","prices":[{"type":"petrol","price":1.869,"self":true,"updatedAt":"23/06/2026 12:40:34"},{"type":"diesel","price":1.969,"self":true,"updatedAt":"23/06/2026 12:40:34"}]},{"id":"52148","lat":40.70128059464677,"lon":15.544517040252686,"name":"Q8 BELLA-MURO PV 8767","brand":"Q8","address":"Scalo Ferroviario Bella-Muro  snc 85051, BELLA, PZ","prices":[{"type":"petrol","price":2.029,"self":true,"updatedAt":"27/06/2026 07:34:53"},{"type":"diesel","price":1.939,"self":true,"updatedAt":"27/06/2026 07:34:53"}]},{"id":"50867","lat":40.514094802492444,"lon":15.633127202280875,"name":"SG ENERGIA SRL","brand":"Pompe Bianche","address":"95 di Brienza, Km. 13 100, potenza  85050, BRIENZA, PZ","prices":[{"type":"petrol","price":1.819,"self":true,"updatedAt":"26/06/2026 15:53:28"},{"type":"diesel","price":1.929,"self":true,"updatedAt":"26/06/2026 15:53:28"},{"type":"lpg","price":0.799,"self":true,"updatedAt":"26/06/2026 15:53:28"}]},{"id":"32477","lat":40.730137536600225,"lon":15.502250120043755,"name":"MEGOIL","brand":"Pompe Bianche","address":"CONTRADA SANTA DOMENICA SNC 85054, MURO LUCANO, PZ","prices":[{"type":"petrol","price":1.819,"self":true,"updatedAt":"27/06/2026 17:17:38"},{"type":"diesel","price":1.899,"self":true,"updatedAt":"27/06/2026 17:17:38"},{"type":"lpg","price":0.779,"self":false,"updatedAt":"27/06/2026 17:17:38"}]},{"id":"53261","lat":40.62750334315296,"lon":15.62530517578125,"name":"LP CARBURANTI S.R.L.S.","brand":"LP Carburanti","address":"GRAMSCI SNC 85055, PICERNO, PZ","prices":[{"type":"petrol","price":1.869,"self":true,"updatedAt":"26/06/2026 11:09:18"},{"type":"diesel","price":1.969,"self":true,"updatedAt":"26/06/2026 11:09:18"}]},{"id":"33979","lat":40.63686795921704,"lon":15.623319229269441,"name":"Q8 PICERNO PV 8811","brand":"Q8","address":"STRADA PROVINCIALE 83 SNC 85055, PICERNO, PZ","prices":[{"type":"petrol","price":1.829,"self":true,"updatedAt":"27/06/2026 07:34:44"},{"type":"diesel","price":1.919,"self":true,"updatedAt":"27/06/2026 07:34:44"},{"type":"methane","price":1.629,"self":false,"updatedAt":"27/06/2026 07:34:44"},{"type":"lpg","price":0.779,"self":false,"updatedAt":"27/06/2026 07:34:44"}]},{"id":"57471","lat":40.71330524753567,"lon":15.68821907043457,"name":"FGS SERVICE SRL","brand":"Pompe Bianche","address":"COSTA DEL CANNETO S.N.C. 85056, RUOTI, PZ","prices":[{"type":"petrol","price":1.899,"self":true,"updatedAt":"24/06/2026 11:44:21"},{"type":"diesel","price":1.999,"self":true,"updatedAt":"24/06/2026 11:44:21"}]},{"id":"27022","lat":40.528032529455615,"lon":15.640121698379517,"name":"IP","brand":"Api-Ip","address":"CONTRADA MADONNA DELLE GRAZIE SNC 85050, SATRIANO DI LUCANIA, PZ","prices":[{"type":"petrol","price":1.839,"self":true,"updatedAt":"25/06/2026 19:20:57"},{"type":"diesel","price":1.939,"self":true,"updatedAt":"25/06/2026 19:20:57"},{"type":"lpg","price":0.779,"self":false,"updatedAt":"25/06/2026 19:20:57"}]},{"id":"58420","lat":40.57087302866203,"lon":15.551227927207947,"name":"TERMINAL PROLLA","brand":"Pompe Bianche","address":"C/da Perolla  103 B  85050, SAVOIA DI LUCANIA, PZ","prices":[{"type":"petrol","price":1.809,"self":true,"updatedAt":"28/06/2026 18:55:04"},{"type":"diesel","price":1.909,"self":true,"updatedAt":"28/06/2026 18:55:04"}]},{"id":"27136","lat":40.603223780389484,"lon":15.695648789405823,"name":"Area di servizio Città di Tito","brand":"Api-Ip","address":"Via Gerhard Rohlfs  85050, TITO, PZ","prices":[{"type":"petrol","price":1.864,"self":true,"updatedAt":"24/06/2026 08:39:16"},{"type":"diesel","price":1.964,"self":true,"updatedAt":"24/06/2026 08:39:16"},{"type":"methane","price":1.629,"self":false,"updatedAt":"24/06/2026 08:39:16"}]},{"id":"55894","lat":40.59345799648541,"lon":15.686373710632324,"name":"EASY SERVICE TITO","brand":"Q8","address":"s.s. 95 km 0+693 SNC 85050, TITO, PZ","prices":[{"type":"petrol","price":1.829,"self":true,"updatedAt":"29/06/2026 00:27:11"},{"type":"diesel","price":1.919,"self":true,"updatedAt":"29/06/2026 00:27:11"},{"type":"lpg","price":0.769,"self":false,"updatedAt":"29/06/2026 00:27:11"}]},{"id":"41735","lat":40.59825466729351,"lon":15.507804703670104,"name":"CASCIANO Pasquale","brand":"Toil","address":"VIALE TRACCIOLINO 1 85058, VIETRI DI POTENZA, PZ","prices":[{"type":"petrol","price":1.889,"self":true,"updatedAt":"23/06/2026 09:32:12"},{"type":"diesel","price":1.899,"self":true,"updatedAt":"23/06/2026 09:32:12"}]},{"id":"57129","lat":40.50424800233883,"lon":15.520565244580098,"name":"ADDESSO","brand":"Pompe Bianche","address":"STRADA STATALE 19 DELLE CALABRIE KM 57+413 SNC 84035, POLLA, SA","prices":[{"type":"petrol","price":1.977,"self":true,"updatedAt":"26/06/2026 16:22:11"},{"type":"diesel","price":1.999,"self":true,"updatedAt":"26/06/2026 16:22:11"},{"type":"lpg","price":0.899,"self":true,"updatedAt":"26/06/2026 16:22:11"}]}]