[{"id":"60337","lat":40.738205016313636,"lon":15.493349196147935,"name":"38052 ENI","brand":"Agip Eni","address":"C.DA SAN LUCA SNC 85054, MURO LUCANO, PZ","prices":[{"type":"petrol","price":1.839,"self":true,"updatedAt":"24/06/2026 00:29:28"},{"type":"diesel","price":1.919,"self":true,"updatedAt":"24/06/2026 00:29:28"}]},{"id":"10455","lat":40.581312725309786,"lon":15.42456328868866,"name":"TOP STATION","brand":"Pompe Bianche","address":"EXSS19TER km 4+848 - C.da Mattina  Snc 84031, AULETTA, SA","prices":[{"type":"petrol","price":1.977,"self":true,"updatedAt":"20/06/2026 10:19:32"},{"type":"diesel","price":1.939,"self":true,"updatedAt":"20/06/2026 10:19:32"}]},{"id":"61324","lat":40.605484,"lon":15.379138,"name":"Caggiano Catia","brand":"Esso","address":"s.s. 407  84021, BUCCINO, SA","prices":[{"type":"petrol","price":1.889,"self":true,"updatedAt":"19/06/2026 14:23:06"},{"type":"diesel","price":2.029,"self":true,"updatedAt":"19/06/2026 14:23:06"}]},{"id":"39944","lat":40.63762828830344,"lon":15.380976220901516,"name":"Carburanti Addesso","brand":"Pompe Bianche","address":"VIA MAGALDI INDUSTRIE SNC 84021, BUCCINO, SA","prices":[{"type":"petrol","price":1.978,"self":true,"updatedAt":"23/06/2026 21:30:19"},{"type":"diesel","price":1.998,"self":true,"updatedAt":"23/06/2026 21:30:19"}]},{"id":"52463","lat":40.60720582306619,"lon":15.380737185493407,"name":"ESSEPI OIL DI STIUSO ORLANDO","brand":"Pompe Bianche","address":"C.DA MESARICO KM 7+846 84020, BUCCINO, SA","prices":[{"type":"petrol","price":1.879,"self":true,"updatedAt":"19/06/2026 09:43:48"},{"type":"diesel","price":1.949,"self":true,"updatedAt":"19/06/2026 09:43:48"}]},{"id":"25183","lat":40.63220080941543,"lon":15.368295832018362,"name":"TECNOGOMME DI MARZANOVINCENZO","brand":"Api-Ip","address":"VIA S.VITO, 84021 - -, BUCCINO, SA","prices":[{"type":"petrol","price":1.999,"self":false,"updatedAt":"21/06/2026 12:51:23"},{"type":"diesel","price":2.099,"self":false,"updatedAt":"21/06/2026 12:51:23"}]},{"id":"37567","lat":40.546082105852776,"lon":15.490327700972557,"name":"Delta Petroli Caggiano","brand":"Api-Ip","address":"LOC. BOCCA DEL BOSCO 10 84030, CAGGIANO, SA","prices":[{"type":"petrol","price":1.939,"self":true,"updatedAt":"22/06/2026 09:43:32"},{"type":"diesel","price":1.979,"self":true,"updatedAt":"22/06/2026 09:43:32"},{"type":"lpg","price":0.799,"self":false,"updatedAt":"22/06/2026 09:43:32"}]},{"id":"41558","lat":40.705920733185295,"lon":15.253368616104126,"name":"Aquila Petroli","brand":"Pompe Bianche","address":"ISCA SNC 84020, COLLIANO, SA","prices":[{"type":"petrol","price":1.899,"self":true,"updatedAt":"19/06/2026 19:54:45"},{"type":"diesel","price":1.959,"self":true,"updatedAt":"19/06/2026 19:54:45"}]},{"id":"30015","lat":40.721949090441626,"lon":15.294686034321785,"name":"CollianoCarburanti srl","brand":"Api-Ip","address":"VIA CIMIRALLE - LOC. VIGNALI S.N.C. 84020, COLLIANO, SA","prices":[{"type":"petrol","price":1.999,"self":false,"updatedAt":"23/06/2026 10:04:19"},{"type":"diesel","price":1.999,"self":false,"updatedAt":"23/06/2026 10:04:19"}]},{"id":"53876","lat":40.708978,"lon":15.251081,"name":"SELE CARBURANTI SRL","brand":"Pompe Bianche","address":"S.S. 691 FONDO VALLE SELE SNC 84020, COLLIANO, SA","prices":[{"type":"petrol","price":1.879,"self":false,"updatedAt":"21/06/2026 10:42:20"},{"type":"diesel","price":1.949,"self":false,"updatedAt":"21/06/2026 10:42:20"},{"type":"methane","price":1.699,"self":false,"updatedAt":"21/06/2026 10:42:20"},{"type":"lpg","price":0.799,"self":false,"updatedAt":"21/06/2026 10:42:20"}]},{"id":"52476","lat":40.674717976957,"lon":15.323443148177617,"name":"SP OIL COLLIANO","brand":"Pompe Bianche","address":"C.DA VALLE DI rAIO SP 268B COLLIANO SNC 84020, COLLIANO, SA","prices":[{"type":"petrol","price":1.949,"self":true,"updatedAt":"19/06/2026 09:46:48"},{"type":"diesel","price":1.977,"self":true,"updatedAt":"19/06/2026 09:46:48"}]},{"id":"58980","lat":40.68147178590397,"lon":15.25403012880858,"name":"VIOLA CAIO SRL","brand":"Q8","address":"PRUNO SOTTANO 56 84024, CONTURSI TERME, SA","prices":[{"type":"petrol","price":1.848,"self":true,"updatedAt":"22/06/2026 08:32:03"},{"type":"diesel","price":1.899,"self":true,"updatedAt":"22/06/2026 08:32:03"}]},{"id":"25803","lat":40.63991901538098,"lon":15.297021455929325,"name":"cervino eduardo di cervino maria carmela","brand":"Api-Ip","address":"VIA VIA TEMPA GAUDIANA SNC 84020, PALOMONTE (SA) 8 84020, PALOMONTE, SA","prices":[{"type":"petrol","price":1.979,"self":true,"updatedAt":"17/06/2026 10:18:42"},{"type":"diesel","price":1.999,"self":true,"updatedAt":"17/06/2026 10:18:42"}]},{"id":"21916","lat":40.52378323930956,"lon":15.495824470687808,"name":"Distributore Carburanti E.N.I.","brand":"Agip Eni","address":"Statale 19 delle Calabrie, Km. 104, dir. Salerno - 84035, POLLA, SA","prices":[{"type":"petrol","price":1.829,"self":true,"updatedAt":"24/06/2026 00:57:28"},{"type":"diesel","price":1.919,"self":true,"updatedAt":"24/06/2026 00:57:28"}]},{"id":"32358","lat":40.66740185949182,"lon":15.474859401583672,"name":"Distributore Salvatore Antonio","brand":"Pompe Bianche","address":"VIA G. FALCONE 18 84020, RICIGLIANO, SA","prices":[{"type":"petrol","price":2.019,"self":false,"updatedAt":"19/06/2026 18:25:23"},{"type":"diesel","price":1.999,"self":false,"updatedAt":"19/06/2026 18:25:23"}]},{"id":"32202","lat":40.66213487879464,"lon":15.405497930059482,"name":"AXA PETROLI SRL","brand":"Pompe Bianche","address":"VIA PALLAFORTE 5 84020, SAN GREGORIO MAGNO, SA","prices":[{"type":"petrol","price":1.979,"self":true,"updatedAt":"19/06/2026 10:23:48"},{"type":"diesel","price":2.047,"self":true,"updatedAt":"19/06/2026 10:23:48"}]},{"id":"62674","lat":40.6573392,"lon":15.396441,"name":"ENERGY FULL S.R.L.","brand":"Pompe Bianche","address":"DEL SOLE 14 84020, SAN GREGORIO MAGNO, SA","prices":[{"type":"petrol","price":1.979,"self":true,"updatedAt":"23/06/2026 00:12:18"},{"type":"diesel","price":1.999,"self":true,"updatedAt":"23/06/2026 00:12:18"}]},{"id":"54289","lat":40.5701139,"lon":15.2770266,"name":"D'ACCUNTO GIOVANNI","brand":"Pompe Bianche","address":"NAZIONALE SNC 84029, SICIGNANO DEGLI ALBURNI, SA","prices":[{"type":"petrol","price":1.899,"self":true,"updatedAt":"20/06/2026 06:46:58"},{"type":"diesel","price":1.999,"self":true,"updatedAt":"20/06/2026 06:46:58"}]},{"id":"52443","lat":40.6110505695835,"lon":15.293883727800605,"name":"Q8 CITRO CARBURANTI S.A.S.","brand":"Q8","address":"Svincolo Autostradale A2 Del Mediterraneo Sa/Rc  84029, SICIGNANO DEGLI ALBURNI, SA","prices":[{"type":"petrol","price":1.899,"self":true,"updatedAt":"18/06/2026 16:03:48"},{"type":"diesel","price":1.899,"self":true,"updatedAt":"18/06/2026 16:03:48"},{"type":"lpg","price":0.799,"self":false,"updatedAt":"18/06/2026 16:03:48"}]}]