[{"id":"61315","lat":40.6227651,"lon":16.9409634,"name":"8178","brand":"Tamoil","address":"Via Roma, CASTELLANETA, TA","prices":[{"type":"petrol","price":1.769,"self":true,"updatedAt":"22/06/2026 13:42:55"},{"type":"diesel","price":1.889,"self":true,"updatedAt":"22/06/2026 13:42:55"}]},{"id":"60222","lat":40.640204599154984,"lon":16.92214695991142,"name":"Mi.Al. Carburanti S.N.C.","brand":"Agip Eni","address":"APPIA S.S. 7 KM.614+850  74011, CASTELLANETA, TA","prices":[{"type":"petrol","price":1.835,"self":true,"updatedAt":"22/06/2026 07:14:43"},{"type":"diesel","price":1.914,"self":true,"updatedAt":"22/06/2026 07:14:43"},{"type":"lpg","price":0.779,"self":false,"updatedAt":"22/06/2026 23:30:57"}]},{"id":"46445","lat":40.62836376617858,"lon":16.93837818237563,"name":"RUGGIERI DI RUGGIERI MARICA & C. S.A.S.","brand":"Agip Eni","address":"VIA ROMA 105 74011, CASTELLANETA, TA","prices":[{"type":"petrol","price":1.829,"self":true,"updatedAt":"23/06/2026 00:31:51"},{"type":"diesel","price":1.919,"self":true,"updatedAt":"23/06/2026 00:31:51"}]},{"id":"27799","lat":40.629990275633055,"lon":16.931392531877123,"name":"Tamoil","brand":"Tamoil","address":"VIA VERDI 2 74011, CASTELLANETA, TA","prices":[{"type":"petrol","price":1.799,"self":true,"updatedAt":"23/06/2026 00:06:29"},{"type":"diesel","price":1.929,"self":true,"updatedAt":"23/06/2026 00:06:29"}]},{"id":"63054","lat":40.571639380306806,"lon":16.759261410608392,"name":"Annamaria Casamassima","brand":"Q8","address":"MATTEOTTI 237 74013, GINOSA, TA","prices":[{"type":"petrol","price":1.839,"self":true,"updatedAt":"22/06/2026 08:49:23"},{"type":"diesel","price":1.939,"self":true,"updatedAt":"22/06/2026 08:49:23"}]},{"id":"20785","lat":40.57185099938209,"lon":16.759380027651787,"name":"ENI - Sud Carburanti Sas","brand":"Agip Eni","address":"VIA MATTEOTTI 168, 74013 - -, GINOSA, TA","prices":[{"type":"petrol","price":1.869,"self":true,"updatedAt":"22/06/2026 17:14:51"},{"type":"diesel","price":1.898,"self":true,"updatedAt":"22/06/2026 17:14:51"}]},{"id":"24277","lat":40.58042648257215,"lon":16.75485900859826,"name":"GINOSA - PUGLIE","brand":"Api-Ip","address":"VIA PUGLIE  74013, GINOSA, TA","prices":[{"type":"petrol","price":1.829,"self":true,"updatedAt":"22/06/2026 13:00:35"},{"type":"diesel","price":1.919,"self":true,"updatedAt":"22/06/2026 13:00:35"}]},{"id":"30992","lat":40.5305551499684,"lon":16.80129655952453,"name":"GINOSA - S.S. 580","brand":"Api-Ip","address":"S.S. 580 Km.13+966  74013, GINOSA, TA","prices":[{"type":"petrol","price":1.839,"self":true,"updatedAt":"22/06/2026 13:04:25"},{"type":"diesel","price":1.929,"self":true,"updatedAt":"22/06/2026 13:04:25"}]},{"id":"51744","lat":40.64408967322259,"lon":16.790284798626086,"name":"CUTRONE Carburanti e Car Wash","brand":"Pompe Bianche","address":"CONTRADA MADONNA DELLE GRAZIE SNC 74014, LATERZA, TA","prices":[{"type":"petrol","price":1.849,"self":true,"updatedAt":"19/06/2026 10:47:57"},{"type":"diesel","price":1.939,"self":true,"updatedAt":"19/06/2026 10:47:57"}]},{"id":"37736","lat":40.63925273970187,"lon":16.776635211804205,"name":"digiservice srl","brand":"digiservice","address":"via matera ex s.s.7 via appia snc 74014, LATERZA, TA","prices":[{"type":"petrol","price":1.849,"self":true,"updatedAt":"22/06/2026 23:23:43"},{"type":"diesel","price":1.909,"self":true,"updatedAt":"22/06/2026 11:58:16"},{"type":"methane","price":1.749,"self":false,"updatedAt":"22/06/2026 23:23:43"},{"type":"lpg","price":0.824,"self":false,"updatedAt":"22/06/2026 23:23:43"}]},{"id":"47424","lat":40.64948754757322,"lon":16.846255414377698,"name":"Eni","brand":"Agip Eni","address":"7 Via Appia, Km. 605+740, Matera - 74014, LATERZA, TA","prices":[{"type":"petrol","price":1.855,"self":true,"updatedAt":"22/06/2026 00:49:58"},{"type":"diesel","price":1.944,"self":true,"updatedAt":"22/06/2026 00:49:58"},{"type":"methane","price":1.749,"self":false,"updatedAt":"22/06/2026 23:32:23"},{"type":"lpg","price":0.779,"self":false,"updatedAt":"22/06/2026 23:32:23"}]},{"id":"47404","lat":40.61920954980218,"lon":16.79512411755299,"name":"Eni Di Paola e Figlio","brand":"Agip Eni","address":"VIA PER GINOSA EX 580 SNC 74014, LATERZA, TA","prices":[{"type":"petrol","price":1.824,"self":true,"updatedAt":"22/06/2026 23:32:42"},{"type":"diesel","price":1.914,"self":true,"updatedAt":"22/06/2026 23:32:42"}]},{"id":"6839","lat":40.631574184388235,"lon":16.799393892288208,"name":"LATERZA VIA ROMA","brand":"Q8","address":"VIA ROMA SNC 74014, LATERZA, TA","prices":[{"type":"petrol","price":1.829,"self":true,"updatedAt":"22/06/2026 16:04:50"},{"type":"diesel","price":1.919,"self":true,"updatedAt":"22/06/2026 16:04:50"}]},{"id":"38950","lat":40.63736103674572,"lon":16.8087038397789,"name":"MICCOLIS CARBURANTI","brand":"Pompe Bianche","address":"VIA DON E.MONTEMURRO 7-9 74014, LATERZA, TA","prices":[{"type":"petrol","price":1.835,"self":true,"updatedAt":"23/06/2026 07:32:38"},{"type":"diesel","price":1.935,"self":true,"updatedAt":"23/06/2026 07:32:38"}]},{"id":"26782","lat":40.62968495246833,"lon":16.790330618641747,"name":"Papapietro Carburanti","brand":"Agip Eni","address":"VIA PER MATERA ANG.VIA ABRUZZO SNC 74014, LATERZA, TA","prices":[{"type":"petrol","price":1.825,"self":true,"updatedAt":"22/06/2026 23:52:09"},{"type":"diesel","price":1.914,"self":true,"updatedAt":"22/06/2026 23:52:09"}]},{"id":"61021","lat":40.72972,"lon":16.97503,"name":"TOIL MOTTOLA DIR BA","brand":"Agip Eni","address":"SS100  74017, MOTTOLA, TA","prices":[{"type":"petrol","price":1.835,"self":true,"updatedAt":"22/06/2026 23:44:18"},{"type":"diesel","price":1.914,"self":true,"updatedAt":"22/06/2026 23:44:18"},{"type":"lpg","price":0.729,"self":false,"updatedAt":"22/06/2026 23:44:18"}]},{"id":"59718","lat":40.72313,"lon":16.97679,"name":"TOIL MOTTOLA DIR TA","brand":"Toil","address":"SS100, MOTTOLA, TA","prices":[{"type":"petrol","price":1.839,"self":true,"updatedAt":"22/06/2026 23:31:05"},{"type":"diesel","price":1.914,"self":true,"updatedAt":"22/06/2026 23:31:05"}]},{"id":"59822","lat":40.5966425416693,"lon":16.957955360412598,"name":"PALAGIANELLO","brand":"Pompe Bianche","address":"SS 7 APPIA KM 619+457  74018, PALAGIANELLO, TA","prices":[{"type":"petrol","price":1.796,"self":true,"updatedAt":"22/06/2026 23:24:19"},{"type":"diesel","price":2.105,"self":true,"updatedAt":"22/06/2026 23:24:19"}]},{"id":"58417","lat":40.606881,"lon":16.974982,"name":"TOIL","brand":"Toil","address":"GRAMSCI S.N.C. 74018, PALAGIANELLO, TA","prices":[{"type":"petrol","price":1.919,"self":true,"updatedAt":"21/06/2026 09:36:24"},{"type":"diesel","price":1.989,"self":true,"updatedAt":"21/06/2026 09:36:24"}]},{"id":"24840","lat":40.59534193930476,"lon":16.97809875011444,"name":"TOTALERG","brand":"Api-Ip","address":"S.P. n. 26  74018, PALAGIANELLO, TA","prices":[{"type":"petrol","price":1.909,"self":true,"updatedAt":"21/06/2026 09:35:58"},{"type":"diesel","price":1.999,"self":true,"updatedAt":"21/06/2026 09:35:58"},{"type":"lpg","price":0.832,"self":false,"updatedAt":"21/06/2026 09:35:58"}]}]