[{"id":"17986","lat":40.70112568330345,"lon":17.66335379401994,"name":"Lanzilotti Petroli sas Imp Eni 9202","brand":"Agip Eni","address":"Statale 16 Adriatica, Km. 888-889, dir. sud - 72012, CAROVIGNO, BR","prices":[{"type":"petrol","price":1.829,"self":true,"updatedAt":"24/06/2026 00:34:46"},{"type":"diesel","price":1.919,"self":true,"updatedAt":"24/06/2026 00:34:46"}]},{"id":"56212","lat":40.7079885,"lon":17.6447832,"name":"MENGA PETROLI - CAROVIGNO","brand":"Menga petroli","address":"SS. 16 KM 887 SNC 72012, CAROVIGNO, BR","prices":[{"type":"petrol","price":1.819,"self":true,"updatedAt":"22/06/2026 10:10:11"},{"type":"diesel","price":1.899,"self":true,"updatedAt":"22/06/2026 10:10:11"}]},{"id":"30490","lat":40.70447231311191,"lon":17.654022350231912,"name":"ROMA FRANCESCO SAS","brand":"Agip Eni","address":"Statale 16 Adriatica, Km. 888+013, dir. brindisi - 72012, CAROVIGNO, BR","prices":[{"type":"petrol","price":1.829,"self":true,"updatedAt":"23/06/2026 23:24:20"},{"type":"diesel","price":1.919,"self":true,"updatedAt":"23/06/2026 23:24:20"}]},{"id":"41885","lat":40.73602700900382,"lon":17.724831774830818,"name":"tamoil","brand":"Tamoil","address":"379 Egnazia e delle Terme di Torre Canne, Km. 31, brindisi - 72012, CAROVIGNO, BR","prices":[{"type":"petrol","price":1.719,"self":true,"updatedAt":"03/06/2026 19:04:13"},{"type":"diesel","price":1.649,"self":true,"updatedAt":"03/06/2026 19:04:13"}]},{"id":"34349","lat":40.64416252184005,"lon":17.52401612699032,"name":"2442","brand":"Tamoil","address":"PER OSTUNI SNC 72013, CEGLIE MESSAPICA, BR","prices":[{"type":"petrol","price":1.819,"self":true,"updatedAt":"23/06/2026 13:35:37"},{"type":"diesel","price":1.889,"self":true,"updatedAt":"23/06/2026 13:35:37"}]},{"id":"38624","lat":40.650401000250525,"lon":17.50845826295165,"name":"AUTOLAVAGGIO DI SALONNA CATALDO","brand":"Menga petroli","address":"STRADA PROVINCAILE PER MARTINA FRANCA SN 72013, CEGLIE MESSAPICA (BR) 159 72013, CEGLIE MESSAPICA, BR","prices":[{"type":"petrol","price":1.844,"self":true,"updatedAt":"23/06/2026 15:47:37"},{"type":"diesel","price":1.924,"self":true,"updatedAt":"23/06/2026 15:47:38"}]},{"id":"59676","lat":40.650667796929966,"lon":17.523197095705374,"name":"Caliandro Giuseppe","brand":"Toil","address":"P.LE CEGLIE OSTUNI SN 72013, CEGLIE MESSAPICA, BR","prices":[{"type":"petrol","price":1.859,"self":true,"updatedAt":"23/06/2026 23:44:58"},{"type":"diesel","price":1.899,"self":true,"updatedAt":"23/06/2026 21:04:02"}]},{"id":"62854","lat":40.65045,"lon":17.5105,"name":"ESSO 12","brand":"Esso","address":"VIA PER MARTINA FRANCA  72013, CEGLIE MESSAPICA, BR","prices":[{"type":"petrol","price":1.809,"self":true,"updatedAt":"24/06/2026 00:39:06"},{"type":"diesel","price":1.889,"self":true,"updatedAt":"24/06/2026 00:39:06"}]},{"id":"50128","lat":40.64259712723728,"lon":17.51468164705284,"name":"esso di ligorio rocco","brand":"Esso","address":"VIA MATTEOTTI GIACOMO 31 72013, CEGLIE MESSAPICA, BR","prices":[{"type":"petrol","price":1.829,"self":true,"updatedAt":"23/06/2026 06:58:54"},{"type":"diesel","price":1.919,"self":true,"updatedAt":"23/06/2026 06:58:54"}]},{"id":"36633","lat":40.60025175400559,"lon":17.542821764945984,"name":"FLY - AREA DI SERVIZIO CASTELLUCCIO DI VENERITO S.","brand":"FLY","address":"VIA S.P. PER FRANCAVILLA FONTANA SNC 72013, CEGLIE MESSAPICA (BR)  72013, CEGLIE MESSAPICA, BR","prices":[{"type":"petrol","price":1.859,"self":true,"updatedAt":"19/06/2026 15:34:23"},{"type":"diesel","price":1.949,"self":true,"updatedAt":"19/06/2026 15:34:23"},{"type":"lpg","price":0.739,"self":false,"updatedAt":"19/06/2026 15:34:23"}]},{"id":"60239","lat":40.64543113198776,"lon":17.630102405096434,"name":"FUEL ENERGY","brand":"Pompe Bianche","address":"SPexSS581, CEGLIE MESSAPICA, BR","prices":[{"type":"petrol","price":1.829,"self":true,"updatedAt":"23/06/2026 18:38:59"},{"type":"diesel","price":1.929,"self":true,"updatedAt":"23/06/2026 18:38:59"}]},{"id":"11265","lat":40.628219900859214,"lon":17.525175511837006,"name":"MENGA PETROLI","brand":"Menga petroli","address":"VIA CEGLIE - FRANCAVILLA  72013, CEGLIE MESSAPICA, BR","prices":[{"type":"petrol","price":1.819,"self":true,"updatedAt":"22/06/2026 08:43:06"},{"type":"diesel","price":1.899,"self":true,"updatedAt":"22/06/2026 08:43:06"},{"type":"methane","price":1.699,"self":false,"updatedAt":"22/06/2026 08:43:06"},{"type":"lpg","price":0.779,"self":false,"updatedAt":"22/06/2026 08:43:06"}]},{"id":"31490","lat":40.645797584443095,"lon":17.52494215965271,"name":"MENGA PETROLI-VIA SAN VITO","brand":"Menga petroli","address":"SP PER SAN VITO KM.0,370 SNC 72013, CEGLIE MESSAPICA, BR","prices":[{"type":"petrol","price":1.819,"self":true,"updatedAt":"22/06/2026 09:21:44"},{"type":"diesel","price":1.899,"self":true,"updatedAt":"22/06/2026 09:21:44"}]},{"id":"54665","lat":40.6451093532987,"lon":17.520643493212436,"name":"STAZIONE DI SERVIZIO ENI di CAVALLO","brand":"Agip Eni","address":"AMENDOLA ANG. VIA ROMA SNC 72013, CEGLIE MESSAPICA, BR","prices":[{"type":"petrol","price":1.829,"self":true,"updatedAt":"24/06/2026 01:12:59"},{"type":"diesel","price":1.919,"self":true,"updatedAt":"24/06/2026 01:12:59"}]},{"id":"29626","lat":40.52623354294866,"lon":17.592616975307465,"name":"9216 Francavilla Fontana","brand":"Agip Eni","address":"Statale 7 Via Appia, Km. 690+300, dir. Brindisi - 72021, FRANCAVILLA FONTANA, BR","prices":[{"type":"petrol","price":1.829,"self":true,"updatedAt":"24/06/2026 00:46:57"},{"type":"diesel","price":1.909,"self":true,"updatedAt":"24/06/2026 07:54:20"}]},{"id":"51171","lat":40.5301919017307,"lon":17.569445371627808,"name":"CAPUANO CAR SERVICE","brand":"Pompe Bianche","address":"C.DA PALUDI-VIA PER GROTTAGLIE KM.0,550 72021, FRANCAVILLA FONTANA, BR","prices":[{"type":"petrol","price":1.849,"self":true,"updatedAt":"23/06/2026 19:01:09"},{"type":"diesel","price":1.949,"self":true,"updatedAt":"23/06/2026 19:01:09"},{"type":"lpg","price":0.779,"self":false,"updatedAt":"23/06/2026 19:01:09"}]},{"id":"16264","lat":40.5480058589117,"lon":17.596116417703797,"name":"ENERGAS-Q8","brand":"Energas","address":"VIA PER S.VITO DEI NORMANNI  72021, FRANCAVILLA FONTANA, BR","prices":[{"type":"petrol","price":1.879,"self":true,"updatedAt":"24/06/2026 00:39:37"},{"type":"diesel","price":1.979,"self":true,"updatedAt":"24/06/2026 00:39:37"},{"type":"lpg","price":0.789,"self":false,"updatedAt":"24/06/2026 00:39:37"}]},{"id":"19151","lat":40.53108482427701,"lon":17.56718158721924,"name":"ENI STATION","brand":"Agip Eni","address":"Statale 7 Via Appia, Km. 0,700, dir. GROTTAGLIE - 72021, FRANCAVILLA FONTANA, BR","prices":[{"type":"petrol","price":1.829,"self":true,"updatedAt":"23/06/2026 00:24:25"},{"type":"diesel","price":1.919,"self":true,"updatedAt":"23/06/2026 00:24:25"}]},{"id":"26613","lat":40.52789878990219,"lon":17.59938955307007,"name":"EP EUROPETROLI","brand":"Pompe Bianche","address":"c/da consolazione  SNC 72021, FRANCAVILLA FONTANA, BR","prices":[{"type":"petrol","price":1.859,"self":true,"updatedAt":"23/06/2026 12:34:10"},{"type":"diesel","price":1.919,"self":true,"updatedAt":"23/06/2026 12:34:10"}]},{"id":"5524","lat":40.53017037685969,"lon":17.60508534276744,"name":"FRANCAVILLA FONTANA","brand":"Api-Ip","address":"via Terracina SNC 72021, FRANCAVILLA FONTANA, BR","prices":[{"type":"petrol","price":1.819,"self":true,"updatedAt":"23/06/2026 17:11:27"},{"type":"diesel","price":1.899,"self":true,"updatedAt":"23/06/2026 17:11:27"}]},{"id":"23081","lat":40.5367685537983,"lon":17.64726585739436,"name":"FRANCAVILLA FONTANA S.S. 7 KM. 687+200","brand":"Q8","address":"S.S. 7 KM. 687+200  72021, FRANCAVILLA FONTANA, BR","prices":[{"type":"petrol","price":1.819,"self":true,"updatedAt":"24/06/2026 01:42:51"},{"type":"diesel","price":1.929,"self":true,"updatedAt":"24/06/2026 01:42:51"}]},{"id":"15849","lat":40.52157112163754,"lon":17.59983479976654,"name":"Gestione FLY di Itta Vittorio Francavilla Fontana","brand":"Api-Ip","address":"Via per Oria km 0,700  72021, FRANCAVILLA FONTANA, BR","prices":[{"type":"petrol","price":1.869,"self":true,"updatedAt":"20/06/2026 20:24:49"},{"type":"diesel","price":1.969,"self":true,"updatedAt":"20/06/2026 20:24:49"}]},{"id":"62267","lat":40.53779318571592,"lon":17.577119689244277,"name":"IP","brand":"Api-Ip","address":"PER CEGLIE 2 72021, FRANCAVILLA FONTANA, BR","prices":[{"type":"petrol","price":1.849,"self":true,"updatedAt":"18/06/2026 17:50:36"},{"type":"diesel","price":1.959,"self":true,"updatedAt":"18/06/2026 17:50:36"}]},{"id":"62475","lat":40.55082,"lon":17.59371,"name":"ITALIANA CARBURANTI FRANCAVILLA F","brand":"Italiana Carburanti","address":"STRADA PROVINCIALE  PER OSTUNI  KM1  72021, FRANCAVILLA FONTANA, BR","prices":[{"type":"petrol","price":1.885,"self":true,"updatedAt":"23/06/2026 13:01:35"},{"type":"diesel","price":1.895,"self":true,"updatedAt":"23/06/2026 13:01:35"}]},{"id":"43875","lat":40.5292444529154,"lon":17.57327445767214,"name":"MENGA PETROLI","brand":"Menga petroli","address":"S.P. PER GROTTAGLIE KM. 0,500  72021, FRANCAVILLA FONTANA, BR","prices":[{"type":"petrol","price":1.819,"self":true,"updatedAt":"22/06/2026 09:30:04"},{"type":"diesel","price":1.899,"self":true,"updatedAt":"22/06/2026 09:30:04"}]},{"id":"33233","lat":40.54899198011358,"lon":17.571177076057438,"name":"MENGA PETROLI","brand":"Menga petroli","address":"S.P. 26 PER CEGLIE MESSAPICA  72021, FRANCAVILLA FONTANA, BR","prices":[{"type":"petrol","price":1.819,"self":true,"updatedAt":"22/06/2026 09:28:06"},{"type":"diesel","price":1.899,"self":true,"updatedAt":"22/06/2026 09:28:06"},{"type":"lpg","price":0.779,"self":false,"updatedAt":"22/06/2026 09:28:06"}]},{"id":"50840","lat":40.52456209438072,"lon":17.58363918038686,"name":"RETITALIA","brand":"Retitalia","address":"VIA FILIPPO D'ANGIO' SNC 72021, FRANCAVILLA FONTANA, BR","prices":[{"type":"petrol","price":1.889,"self":true,"updatedAt":"23/06/2026 12:50:11"},{"type":"diesel","price":1.969,"self":true,"updatedAt":"23/06/2026 12:50:11"}]},{"id":"34993","lat":40.52962678567257,"lon":17.582742422819138,"name":"stazione di servizio esso di roberto granieri","brand":"Esso","address":"via capitano di castri  162 72021, FRANCAVILLA FONTANA, BR","prices":[{"type":"petrol","price":1.859,"self":true,"updatedAt":"23/06/2026 22:41:57"},{"type":"diesel","price":1.959,"self":true,"updatedAt":"23/06/2026 22:41:57"}]},{"id":"59603","lat":40.55312,"lon":17.725641,"name":"56024  LATIANO","brand":"Agip Eni","address":"VIA DELLA LIBERTA'  SNC, LATIANO, BR","prices":[{"type":"petrol","price":1.829,"self":true,"updatedAt":"23/06/2026 23:23:19"},{"type":"diesel","price":1.919,"self":true,"updatedAt":"23/06/2026 23:23:19"}]},{"id":"60360","lat":40.561752,"lon":17.736811,"name":"COSI PETROLI SRL","brand":"Agip Eni","address":"SS7 KM 695 + 500 SNC 72022, LATIANO, BR","prices":[{"type":"petrol","price":1.829,"self":true,"updatedAt":"24/06/2026 00:55:10"},{"type":"diesel","price":1.899,"self":true,"updatedAt":"24/06/2026 00:55:10"},{"type":"lpg","price":0.699,"self":false,"updatedAt":"23/06/2026 23:36:38"}]},{"id":"58920","lat":40.546624913859475,"lon":17.71492962021483,"name":"STAZIONE DI SERVIZIO IP DI ROBERTO GRANIERI","brand":"Api-Ip","address":"SS.7KM696,505  72022, LATIANO, BR","prices":[{"type":"petrol","price":1.835,"self":true,"updatedAt":"23/06/2026 22:44:21"},{"type":"diesel","price":1.925,"self":true,"updatedAt":"23/06/2026 22:44:21"},{"type":"lpg","price":0.729,"self":false,"updatedAt":"23/06/2026 22:44:21"}]},{"id":"59355","lat":40.5499759666098,"lon":17.713444210605633,"name":"TAMOIL 1095","brand":"Tamoil","address":"ORIA SN 72022, LATIANO, BR","prices":[{"type":"petrol","price":1.839,"self":true,"updatedAt":"23/06/2026 14:04:42"},{"type":"diesel","price":1.899,"self":true,"updatedAt":"23/06/2026 14:04:42"}]},{"id":"16048","lat":40.55659805686458,"lon":17.717014602377276,"name":"TOTALERG DI SPINELLI GIOVANNI","brand":"Api-Ip","address":"VIA SAN VITO SN 72022, LATIANO, BR","prices":[{"type":"petrol","price":1.845,"self":true,"updatedAt":"20/06/2026 07:35:51"},{"type":"diesel","price":1.935,"self":true,"updatedAt":"20/06/2026 07:35:51"}]},{"id":"61098","lat":40.5027636409662,"lon":17.63401943726501,"name":"AGIP eni","brand":"Agip Eni","address":"SP.LE ORIA FRANCAVILLA SNC 72024, ORIA, BR","prices":[{"type":"petrol","price":1.818,"self":true,"updatedAt":"23/06/2026 23:36:15"},{"type":"diesel","price":1.914,"self":true,"updatedAt":"23/06/2026 23:36:15"}]},{"id":"5523","lat":40.50417635496934,"lon":17.64918831779096,"name":"ORIA","brand":"Api-Ip","address":"Via Per Latiano 125 72024, ORIA, BR","prices":[{"type":"petrol","price":1.819,"self":true,"updatedAt":"23/06/2026 09:17:12"},{"type":"diesel","price":1.919,"self":true,"updatedAt":"23/06/2026 09:17:12"}]},{"id":"22123","lat":40.50202831605053,"lon":17.630826411045064,"name":"ORIA - CELLINO","brand":"Api-Ip","address":"S.P. CELLINO SAN MARCO  72024, ORIA, BR","prices":[{"type":"petrol","price":1.819,"self":true,"updatedAt":"23/06/2026 09:06:51"},{"type":"diesel","price":1.919,"self":true,"updatedAt":"23/06/2026 09:06:51"}]},{"id":"47487","lat":40.72344596475367,"lon":17.597147527531845,"name":"DI 06","brand":"Dill s","address":"16 Adriatica, Km. 882.7, Carovigno - 72017, OSTUNI, BR","prices":[{"type":"petrol","price":1.809,"self":true,"updatedAt":"24/06/2026 00:00:56"},{"type":"diesel","price":1.899,"self":true,"updatedAt":"24/06/2026 00:00:56"}]},{"id":"61615","lat":40.72835232006225,"lon":17.58459985256195,"name":"DI 71","brand":"Dill s","address":"Corso Vittorio Emanuele  232 72017, OSTUNI, BR","prices":[{"type":"petrol","price":1.809,"self":true,"updatedAt":"24/06/2026 00:17:15"},{"type":"diesel","price":1.889,"self":true,"updatedAt":"24/06/2026 00:17:15"}]},{"id":"62846","lat":40.73133,"lon":17.57116,"name":"ESSO 6","brand":"Esso","address":"Corso Giuseppe Mazzini 191 72017, OSTUNI, BR","prices":[{"type":"petrol","price":1.809,"self":true,"updatedAt":"24/06/2026 00:38:27"},{"type":"diesel","price":1.889,"self":true,"updatedAt":"24/06/2026 00:38:27"}]},{"id":"61943","lat":40.68333914562432,"lon":17.547558804893484,"name":"Iperstaroil Ostuni","brand":"Pompe Bianche","address":"SP22 snc 72017, OSTUNI, BR","prices":[{"type":"petrol","price":1.799,"self":true,"updatedAt":"23/06/2026 17:20:33"},{"type":"diesel","price":1.879,"self":true,"updatedAt":"23/06/2026 17:20:33"}]},{"id":"51780","lat":40.721268300708786,"lon":17.57721573114395,"name":"LG CARBURANTI DI GIANNOTTI LUCIA & C. S.A.S","brand":"Agip Eni","address":"VIA GIOVANNI XXIII S.N. 72017, OSTUNI, BR","prices":[{"type":"petrol","price":1.829,"self":true,"updatedAt":"23/06/2026 00:35:58"},{"type":"diesel","price":1.919,"self":true,"updatedAt":"23/06/2026 00:35:58"}]},{"id":"48574","lat":40.73409051817223,"lon":17.576131079818037,"name":"M.F. CARBURANTI SRL OSTUNI","brand":"MF CARBURANTI","address":"VIA PEPPINO ORLANDO 14 72017, OSTUNI, BR","prices":[{"type":"petrol","price":1.825,"self":true,"updatedAt":"23/06/2026 11:51:37"},{"type":"diesel","price":1.925,"self":true,"updatedAt":"23/06/2026 11:51:37"}]},{"id":"59438","lat":40.733570680870606,"lon":17.570713423567177,"name":"MENGA PETROLI","brand":"Menga petroli","address":"PER VILLANOVA SNC 72017, OSTUNI, BR","prices":[{"type":"petrol","price":1.819,"self":true,"updatedAt":"22/06/2026 10:18:33"},{"type":"diesel","price":1.899,"self":true,"updatedAt":"22/06/2026 10:18:33"}]},{"id":"60562","lat":40.72130688,"lon":17.57713551,"name":"MENGA PETROLI - OSTUNI","brand":"Menga petroli","address":"GIOVANNI XXIII SN 72017, OSTUNI, BR","prices":[{"type":"petrol","price":1.819,"self":true,"updatedAt":"22/06/2026 10:20:19"},{"type":"diesel","price":1.899,"self":true,"updatedAt":"22/06/2026 10:20:19"}]},{"id":"48261","lat":40.726556497991815,"lon":17.58472188895494,"name":"OSTUNI C.SO VITTORIO EMANUELE","brand":"Q8","address":"C.SO VITTORIO EMANUELE  72017, OSTUNI, BR","prices":[{"type":"petrol","price":1.829,"self":true,"updatedAt":"23/06/2026 18:36:18"},{"type":"diesel","price":1.919,"self":true,"updatedAt":"23/06/2026 18:36:18"}]},{"id":"54982","lat":40.73310098762676,"lon":17.56745176123048,"name":"PV. 09220 ENI DI ROMA PETROLI","brand":"Agip Eni","address":"S.S. 16 KM. 879 + 513 S.N. 72017, OSTUNI, BR","prices":[{"type":"petrol","price":1.829,"self":true,"updatedAt":"24/06/2026 00:10:14"},{"type":"diesel","price":1.919,"self":true,"updatedAt":"24/06/2026 00:10:14"}]},{"id":"49761","lat":40.72828743234156,"lon":17.573200845886475,"name":"stazione di servizio IP","brand":"Api-Ip","address":"VIALE POLA SNC 72017, OSTUNI, BR","prices":[{"type":"petrol","price":1.849,"self":true,"updatedAt":"20/06/2026 07:59:16"},{"type":"diesel","price":1.949,"self":true,"updatedAt":"20/06/2026 07:59:16"}]},{"id":"17116","lat":40.63938499363395,"lon":17.632361948490143,"name":"menga petroli","brand":"Menga petroli","address":"VIA PER CEGLIE-C.DA SAN MICHELE  72018, SAN MICHELE SALENTINO, BR","prices":[{"type":"petrol","price":1.849,"self":true,"updatedAt":"20/06/2026 21:27:20"},{"type":"diesel","price":1.949,"self":true,"updatedAt":"20/06/2026 21:27:20"},{"type":"lpg","price":0.779,"self":false,"updatedAt":"20/06/2026 21:27:20"}]},{"id":"26886","lat":40.62209634167975,"lon":17.634944915771484,"name":"totalerg","brand":"Api-Ip","address":"via per francavilla  SN 72018, SAN MICHELE SALENTINO, BR","prices":[{"type":"petrol","price":1.828,"self":true,"updatedAt":"23/06/2026 16:27:20"},{"type":"diesel","price":1.918,"self":true,"updatedAt":"23/06/2026 16:27:20"}]},{"id":"38987","lat":40.65977124670698,"lon":17.70519834011793,"name":"carburanti e lubrificanti di montanaro e montanaro snc","brand":"Agip Eni","address":"Statale 16 Adriatica, Km. 894+691, dir. nord - 72019, SAN VITO DEI NORMANNI, BR","prices":[{"type":"petrol","price":1.829,"self":true,"updatedAt":"23/06/2026 23:23:10"},{"type":"diesel","price":1.919,"self":true,"updatedAt":"23/06/2026 23:23:10"}]},{"id":"51077","lat":40.65785647243643,"lon":17.712904394643143,"name":"ENI PV 9197 C& P FUEL S.A.S DI CACCIOPPOLI GIANCARLO","brand":"Agip Eni","address":"16 Adriatica, Km. 895+399, BRINDISI  72019, SAN VITO DEI NORMANNI, BR","prices":[{"type":"petrol","price":1.829,"self":true,"updatedAt":"24/06/2026 01:12:52"},{"type":"diesel","price":1.919,"self":true,"updatedAt":"24/06/2026 01:12:52"}]},{"id":"38936","lat":40.66176695459489,"lon":17.703315764665604,"name":"Esso SS 16","brand":"Esso","address":"Statale 16 Adriatica, Km. 824+400, dir. nord - 72019, SAN VITO DEI NORMANNI, BR","prices":[{"type":"petrol","price":1.869,"self":true,"updatedAt":"18/06/2026 12:20:51"},{"type":"diesel","price":1.959,"self":true,"updatedAt":"18/06/2026 12:20:51"}]},{"id":"41256","lat":40.65237155117359,"lon":17.71166354417801,"name":"Menga Petroli","brand":"Menga petroli","address":"VIA MESAGNE  72019, SAN VITO DEI NORMANNI, BR","prices":[{"type":"petrol","price":1.829,"self":true,"updatedAt":"22/06/2026 20:24:30"},{"type":"diesel","price":1.899,"self":true,"updatedAt":"22/06/2026 20:24:31"}]},{"id":"55234","lat":40.6614909324735,"lon":17.7207871306012,"name":"q8","brand":"Q8","address":"DEL MARE S.P PER SERRANOVA SN 72019, SAN VITO DEI NORMANNI, BR","prices":[{"type":"petrol","price":1.849,"self":false,"updatedAt":"18/06/2026 09:50:08"},{"type":"diesel","price":1.959,"self":false,"updatedAt":"18/06/2026 09:50:08"}]},{"id":"55206","lat":40.668943155818816,"lon":17.69851326942444,"name":"REICA SRL -  Gpl","brand":"Pompe Bianche","address":"VIALE GERMANIA 0 72019, SAN VITO DEI NORMANNI (BR) SNC 72019, SAN VITO DEI NORMANNI, BR","prices":[{"type":"petrol","price":1.839,"self":true,"updatedAt":"23/06/2026 10:00:46"},{"type":"diesel","price":1.939,"self":true,"updatedAt":"23/06/2026 10:00:46"},{"type":"lpg","price":0.799,"self":false,"updatedAt":"23/06/2026 10:00:46"}]},{"id":"14045","lat":40.63798141943399,"lon":17.689729034900665,"name":"REICA SRL - Metano","brand":"Pompe Bianche","address":"VIA S.P. 48  FRANCAVILA FONTANA  KM 15,150 SNC 72019, SAN VITO DEI NORMANNI (BR)  72019, SAN VITO DEI NORMANNI, BR","prices":[{"type":"petrol","price":1.839,"self":true,"updatedAt":"23/06/2026 10:00:41"},{"type":"diesel","price":1.939,"self":true,"updatedAt":"23/06/2026 10:00:41"},{"type":"methane","price":1.599,"self":false,"updatedAt":"23/06/2026 10:00:41"}]},{"id":"38938","lat":40.67567024484573,"lon":17.71117463707924,"name":"TOIL SP 35","brand":"Pompe Bianche","address":"STRADA PROVINCIALE S. VITO -SPECCHIOLLA SNC 72019, SAN VITO DEI NORMANNI, BR","prices":[{"type":"petrol","price":1.929,"self":true,"updatedAt":"23/06/2026 23:55:16"},{"type":"diesel","price":1.999,"self":true,"updatedAt":"23/06/2026 23:55:16"},{"type":"lpg","price":0.789,"self":false,"updatedAt":"23/06/2026 23:55:16"}]}]