[{"id":"50131","lat":40.82515610593993,"lon":8.411824811741093,"name":"5905 Frangi gestioni snc","brand":"Esso","address":"131 Carlo Felice, Km. 233,800, Sassari  - 07046, PORTO TORRES, SS","prices":[{"type":"petrol","price":1.789,"self":true,"updatedAt":"28/06/2026 19:01:10"},{"type":"diesel","price":1.889,"self":true,"updatedAt":"28/06/2026 19:01:10"}]},{"id":"59767","lat":40.826275,"lon":8.409813,"name":"7780 PORTO TORRES","brand":"Agip Eni","address":"S.S. 131 KM. 233,400  SNC, PORTO TORRES, SS","prices":[{"type":"petrol","price":1.809,"self":true,"updatedAt":"29/06/2026 00:37:15"},{"type":"diesel","price":1.889,"self":true,"updatedAt":"29/06/2026 00:37:15"}]},{"id":"62227","lat":40.8151086905001,"lon":8.376875516638185,"name":"BPA Energia S.r.l.","brand":"Pompe Bianche","address":"ANTONIO PIGAFETTA 119 07046, PORTO TORRES, SS","prices":[{"type":"petrol","price":1.829,"self":true,"updatedAt":"23/06/2026 18:09:07"},{"type":"diesel","price":1.958,"self":true,"updatedAt":"23/06/2026 18:09:07"},{"type":"lpg","price":0.899,"self":false,"updatedAt":"23/06/2026 18:09:07"}]},{"id":"21721","lat":40.8282033,"lon":8.40144,"name":"BUTANGAS","brand":"Pompe Bianche","address":"Via dell'Industria 9  07046, PORTO TORRES, SS","prices":[{"type":"petrol","price":1.979,"self":true,"updatedAt":"29/06/2026 04:53:50"},{"type":"diesel","price":2.049,"self":true,"updatedAt":"29/06/2026 04:53:50"},{"type":"lpg","price":0.899,"self":false,"updatedAt":"29/06/2026 04:53:50"}]},{"id":"6874","lat":40.830499588775496,"lon":8.413695394992828,"name":"CONAD","brand":"CONAD","address":"VIA DELLE LIBERTA'  07046, PORTO TORRES, SS","prices":[{"type":"petrol","price":1.788,"self":true,"updatedAt":"27/06/2026 11:24:53"},{"type":"diesel","price":1.888,"self":true,"updatedAt":"27/06/2026 11:24:53"}]},{"id":"23765","lat":40.831706918861876,"lon":8.403610289096832,"name":"eni","brand":"Agip Eni","address":"VIA SASSARI 93 07046, PORTO TORRES, SS","prices":[{"type":"petrol","price":1.809,"self":true,"updatedAt":"29/06/2026 00:29:36"},{"type":"diesel","price":1.899,"self":true,"updatedAt":"29/06/2026 00:29:36"}]},{"id":"54280","lat":40.83805107806576,"lon":8.404358625411987,"name":"Esso - Sambiagio","brand":"Esso","address":"LUNGOMARE BALAI 1 07046, PORTO TORRES, SS","prices":[{"type":"petrol","price":1.789,"self":true,"updatedAt":"25/06/2026 12:07:32"},{"type":"diesel","price":1.889,"self":true,"updatedAt":"25/06/2026 12:07:32"}]},{"id":"6682","lat":40.80634482309844,"lon":8.442750191505866,"name":"PORTO TORRES SS 131 KM 229+825","brand":"Q8","address":"SS 131 KM 229+825 SNC 07046, PORTO TORRES, SS","prices":[{"type":"petrol","price":1.768,"self":true,"updatedAt":"25/06/2026 01:42:23"},{"type":"diesel","price":1.868,"self":true,"updatedAt":"25/06/2026 01:42:23"}]},{"id":"23102","lat":40.774374174502356,"lon":8.416927456855774,"name":"SASSARI S S 131 KM 224 03 CAMIONALE","brand":"Q8","address":"S S 131 KM 224 03 CAMIONALE  07100, SASSARI, SS","prices":[{"type":"petrol","price":1.769,"self":true,"updatedAt":"26/06/2026 01:41:39"},{"type":"diesel","price":1.879,"self":true,"updatedAt":"26/06/2026 01:41:39"}]},{"id":"13185","lat":40.78533932623089,"lon":8.469589948654175,"name":"stazione di servizio ESSO Marongiu Giovanni","brand":"Esso","address":"REGIONE OTTAVA BIVIO PLATAMONA  07100, SASSARI, SS","prices":[{"type":"petrol","price":1.779,"self":true,"updatedAt":"29/06/2026 05:42:11"},{"type":"diesel","price":1.879,"self":true,"updatedAt":"29/06/2026 05:42:11"}]},{"id":"59063","lat":40.763214,"lon":8.346733,"name":"TAMOIL SASSARI LOC. SANTA MARIA TORRES","brand":"Tamoil","address":"LOC. SANTA MARIA TORRES SN 07100, SASSARI, SS","prices":[{"type":"petrol","price":1.789,"self":true,"updatedAt":"29/06/2026 07:46:51"},{"type":"diesel","price":1.889,"self":true,"updatedAt":"29/06/2026 07:46:51"}]},{"id":"55195","lat":40.7555826,"lon":8.3745717,"name":"Eni Monastir","brand":"Agip Eni","address":"Via Nazionale 199 09023, MONASTIR, SU","prices":[{"type":"petrol","price":1.814,"self":true,"updatedAt":"29/06/2026 00:07:06"},{"type":"diesel","price":1.869,"self":true,"updatedAt":"28/06/2026 21:20:11"}]}]