[{"id":"23816","lat":40.78590483297413,"lon":17.244716034393377,"name":"ALBEROBELLO - EINAUDI","brand":"Api-Ip","address":"VIALE L. EINAUDI SN, 70011 - -, ALBEROBELLO, BA","prices":[{"type":"petrol","price":1.782,"self":true,"updatedAt":"29/06/2026 09:05:33"},{"type":"diesel","price":1.889,"self":true,"updatedAt":"29/06/2026 09:05:33"}]},{"id":"22997","lat":40.78612411494102,"lon":17.238503645403625,"name":"ALBEROBELLO VIA TRIESTE E TRENTO","brand":"Q8","address":"VIA TRIESTE E TRENTO  70011, ALBEROBELLO, BA","prices":[{"type":"petrol","price":1.799,"self":true,"updatedAt":"30/06/2026 01:13:54"},{"type":"diesel","price":1.879,"self":true,"updatedAt":"30/06/2026 01:13:54"}]},{"id":"60483","lat":40.7792102,"lon":17.2335661,"name":"Area Alberobello","brand":"Gatti carburanti","address":"7 LIBERATORI DELLA SELVA SN 70011, ALBEROBELLO, BA","prices":[{"type":"petrol","price":1.787,"self":true,"updatedAt":"29/06/2026 23:36:21"},{"type":"diesel","price":1.887,"self":true,"updatedAt":"29/06/2026 23:36:21"},{"type":"lpg","price":0.797,"self":false,"updatedAt":"29/06/2026 23:36:21"}]},{"id":"16999","lat":40.78717014278633,"lon":17.240994773016382,"name":"enicafè spinosa","brand":"Agip Eni","address":"VIALE BARI S.N. 70011, ALBEROBELLO, BA","prices":[{"type":"petrol","price":1.824,"self":true,"updatedAt":"30/06/2026 00:03:13"},{"type":"diesel","price":1.884,"self":true,"updatedAt":"29/06/2026 19:08:21"}]},{"id":"5423","lat":40.88686942276814,"lon":17.169529817457374,"name":"9045 CASTELLANA GROTTE","brand":"Agip Eni","address":"Via Monopoli 52 70013, CASTELLANA GROTTE, BA","prices":[{"type":"petrol","price":1.829,"self":true,"updatedAt":"29/06/2026 00:38:54"},{"type":"diesel","price":1.889,"self":true,"updatedAt":"29/06/2026 00:38:54"}]},{"id":"12670","lat":40.8905349620482,"lon":17.166650667786598,"name":"DE.CA. Sas - EniLiveStation nr 09031","brand":"Agip Eni","address":"Via Polignano a Mare 30 70013, CASTELLANA GROTTE, BA","prices":[{"type":"petrol","price":1.829,"self":true,"updatedAt":"29/06/2026 23:28:10"},{"type":"diesel","price":1.889,"self":true,"updatedAt":"29/06/2026 18:20:03"}]},{"id":"4959","lat":40.82164414833338,"lon":17.200022041797638,"name":"ENI CASTELLANA GROTTE","brand":"Agip Eni","address":"Statale 172 dei Trulli, Km. 28,587, dir. ALBEROBELLO-PUTIGNANO - 70013, CASTELLANA GROTTE, BA","prices":[{"type":"petrol","price":1.849,"self":true,"updatedAt":"29/06/2026 10:03:52"},{"type":"diesel","price":1.959,"self":true,"updatedAt":"29/06/2026 10:03:52"},{"type":"methane","price":1.699,"self":false,"updatedAt":"29/06/2026 10:03:52"},{"type":"lpg","price":0.799,"self":false,"updatedAt":"29/06/2026 10:03:52"}]},{"id":"52924","lat":40.8765,"lon":17.157695,"name":"Moro sas","brand":"Agip Eni","address":"VIA VIA PUTIGNANO SN 70013, CASTELLANA GROTTE (BA) Sn 70013, CASTELLANA GROTTE, BA","prices":[{"type":"petrol","price":1.829,"self":true,"updatedAt":"30/06/2026 00:14:24"},{"type":"diesel","price":1.909,"self":true,"updatedAt":"30/06/2026 00:14:24"},{"type":"lpg","price":0.799,"self":false,"updatedAt":"29/06/2026 23:18:09"}]},{"id":"7926","lat":40.89328626981995,"lon":17.16028779745102,"name":"STAZIONE DI SERVIZIO Q8 - F.LLI LAMONTANARA SNC","brand":"Q8","address":"VIA CONVERSANO 158 70013, CASTELLANA GROTTE, BA","prices":[{"type":"petrol","price":1.829,"self":true,"updatedAt":"29/06/2026 10:04:31"},{"type":"diesel","price":1.889,"self":true,"updatedAt":"29/06/2026 10:04:31"}]},{"id":"59093","lat":40.97025,"lon":17.11401,"name":"09009 Conversano","brand":"Agip Eni","address":"VIA RUTGLIANO  S.N., CONVERSANO, BA","prices":[{"type":"petrol","price":1.824,"self":true,"updatedAt":"29/06/2026 00:33:37"},{"type":"diesel","price":1.884,"self":true,"updatedAt":"29/06/2026 00:33:37"}]},{"id":"44710","lat":40.93649240996522,"lon":17.133551259182127,"name":"D&F DI COLELLA DAVIDE","brand":"Agip Eni","address":"S.P. 240 km 25+590 SNC 70014, CONVERSANO, BA","prices":[{"type":"petrol","price":1.829,"self":true,"updatedAt":"29/06/2026 23:32:24"},{"type":"diesel","price":1.899,"self":true,"updatedAt":"29/06/2026 15:10:08"},{"type":"methane","price":1.699,"self":false,"updatedAt":"29/06/2026 23:32:24"},{"type":"lpg","price":0.759,"self":false,"updatedAt":"29/06/2026 23:32:24"}]},{"id":"44723","lat":40.981863165968655,"lon":17.090719414020555,"name":"D'ALESSANDRO VINCENZO","brand":"Agip Eni","address":"VIA BARI KM 1,800 SNC 70014, CONVERSANO, BA","prices":[{"type":"petrol","price":1.829,"self":true,"updatedAt":"29/06/2026 09:10:27"},{"type":"diesel","price":1.909,"self":true,"updatedAt":"29/06/2026 09:10:27"},{"type":"lpg","price":0.759,"self":false,"updatedAt":"29/06/2026 09:10:27"}]},{"id":"48473","lat":40.99328296050733,"lon":17.05777645111084,"name":"DI 21","brand":"Dill s","address":"S.P. 240 KM 16+200  70014, CONVERSANO, BA","prices":[{"type":"petrol","price":1.829,"self":true,"updatedAt":"29/06/2026 00:27:23"},{"type":"diesel","price":1.849,"self":true,"updatedAt":"29/06/2026 15:20:11"},{"type":"lpg","price":0.729,"self":false,"updatedAt":"29/06/2026 00:27:23"}]},{"id":"52350","lat":40.97770535300071,"lon":17.116612206378957,"name":"DI 29","brand":"Dill s","address":"Via Cozze s.c. 70014, CONVERSANO, BA","prices":[{"type":"petrol","price":1.809,"self":true,"updatedAt":"29/06/2026 23:48:01"},{"type":"diesel","price":1.889,"self":true,"updatedAt":"29/06/2026 23:48:01"}]},{"id":"53887","lat":40.98735,"lon":17.12391,"name":"IP 33","brand":"Api-Ip","address":"S.P. 50 KM. 0,500 70014, CONVERSANO, BA","prices":[{"type":"petrol","price":1.819,"self":true,"updatedAt":"29/06/2026 00:53:03"},{"type":"diesel","price":1.899,"self":true,"updatedAt":"29/06/2026 00:53:03"},{"type":"lpg","price":0.747,"self":false,"updatedAt":"29/06/2026 00:05:06"}]},{"id":"31696","lat":40.93099264593122,"lon":17.169859260320663,"name":"Q8 DEI F.LLI CALIA","brand":"Q8","address":"sp 120 polignano castellana  Km 7+800 snc 70014, CONVERSANO, BA","prices":[{"type":"petrol","price":1.829,"self":true,"updatedAt":"27/06/2026 08:24:58"},{"type":"diesel","price":1.889,"self":true,"updatedAt":"27/06/2026 08:24:58"},{"type":"lpg","price":0.747,"self":false,"updatedAt":"27/06/2026 08:24:58"}]},{"id":"56595","lat":40.96957935361665,"lon":17.115502953529358,"name":"stazione di servizio eni di Torres Domenico","brand":"Agip Eni","address":"viale dei paolotti, nc NC 70014, CONVERSANO, BA","prices":[{"type":"petrol","price":1.829,"self":true,"updatedAt":"29/06/2026 23:31:04"},{"type":"diesel","price":1.889,"self":true,"updatedAt":"30/06/2026 07:58:04"}]},{"id":"39738","lat":40.96074514530108,"lon":17.113786675035954,"name":"Stazione di servizio Totalerg","brand":"Api-Ip","address":"VIA GOBETTI SN 70014, CONVERSANO, BA","prices":[{"type":"petrol","price":1.839,"self":true,"updatedAt":"23/06/2026 21:24:09"},{"type":"diesel","price":1.929,"self":true,"updatedAt":"23/06/2026 21:24:09"}]},{"id":"36893","lat":40.93203965965327,"lon":17.214156586349645,"name":"DICARLO ANGELA","brand":"Retitalia","address":"COZZANA 348 70043, MONOPOLI, BA","prices":[{"type":"petrol","price":2.089,"self":true,"updatedAt":"25/06/2026 13:38:24"},{"type":"diesel","price":2.169,"self":true,"updatedAt":"25/06/2026 13:38:24"}]},{"id":"51376","lat":40.892496088049455,"lon":17.241189035526272,"name":"ENI 09174 - Petrol and Car Shop","brand":"Agip Eni","address":"Contrada Antonelli sn 70043, MONOPOLI, BA","prices":[{"type":"petrol","price":1.829,"self":true,"updatedAt":"29/06/2026 12:52:05"},{"type":"diesel","price":1.909,"self":true,"updatedAt":"29/06/2026 12:52:05"}]},{"id":"42709","lat":40.93667521007648,"lon":17.212856450197705,"name":"ZACCARIA NICOLO' - RETITALIA 48930","brand":"Retitalia","address":"CONTRADA MADONNA DEL ROSARIO SN 70043, MONOPOLI, BA","prices":[{"type":"petrol","price":2.059,"self":true,"updatedAt":"29/06/2026 17:18:20"},{"type":"diesel","price":2.159,"self":true,"updatedAt":"29/06/2026 17:18:20"}]},{"id":"38282","lat":40.79163146744787,"lon":17.11521327495575,"name":"AGIP ENI","brand":"Agip Eni","address":"VIA MADONNA DELLA CROCE SN 70015, NOCI, BA","prices":[{"type":"petrol","price":1.829,"self":true,"updatedAt":"29/06/2026 23:43:20"},{"type":"diesel","price":1.889,"self":true,"updatedAt":"29/06/2026 07:26:17"},{"type":"lpg","price":0.738,"self":false,"updatedAt":"29/06/2026 23:43:20"}]},{"id":"29256","lat":40.80231358269593,"lon":17.099098563194275,"name":"IP","brand":"Api-Ip","address":"sp 239   70015, NOCI, BA","prices":[{"type":"petrol","price":1.789,"self":true,"updatedAt":"27/06/2026 06:36:06"},{"type":"diesel","price":1.899,"self":true,"updatedAt":"27/06/2026 06:36:06"},{"type":"methane","price":1.599,"self":false,"updatedAt":"27/06/2026 06:36:06"}]},{"id":"18654","lat":40.79851752722195,"lon":17.12079532757798,"name":"Martucci S. Stazione di servizio Esso","brand":"Esso","address":"TRIESTE (STAZIONE SERVIZI ESSO  70015, NOCI, BA","prices":[{"type":"petrol","price":1.819,"self":true,"updatedAt":"24/06/2026 06:24:53"},{"type":"diesel","price":1.899,"self":true,"updatedAt":"24/06/2026 06:24:53"}]},{"id":"63360","lat":40.790304,"lon":17.13947,"name":"Noci Alberobello","brand":"Agip Eni","address":"Via per Alberobello  70015, NOCI, BA","prices":[{"type":"petrol","price":1.769,"self":true,"updatedAt":"29/06/2026 20:40:04"},{"type":"diesel","price":1.879,"self":true,"updatedAt":"29/06/2026 20:40:04"}]},{"id":"22134","lat":40.79423900592723,"lon":17.106361985206604,"name":"NOCI S.P. 237 KM. 22+010","brand":"Q8","address":"S.P. 237 KM. 22+010  70015, NOCI, BA","prices":[{"type":"petrol","price":1.784,"self":true,"updatedAt":"29/06/2026 16:05:43"},{"type":"diesel","price":1.894,"self":true,"updatedAt":"29/06/2026 16:05:43"}]},{"id":"23187","lat":40.79927127627214,"lon":17.117480434952995,"name":"NOCI VIA T SICILIANI","brand":"Q8","address":"VIA T SICILIANI  70015, NOCI, BA","prices":[{"type":"petrol","price":1.789,"self":true,"updatedAt":"29/06/2026 16:05:45"},{"type":"diesel","price":1.899,"self":true,"updatedAt":"29/06/2026 16:05:45"}]},{"id":"32017","lat":40.99297138986065,"lon":17.22321644425392,"name":"54817-L'abbate Maria Letizia","brand":"Agip Eni","address":"VIA P. SARNELLI 92/B 70044, POLIGNANO A MARE, BA","prices":[{"type":"petrol","price":1.824,"self":true,"updatedAt":"29/06/2026 23:33:16"},{"type":"diesel","price":1.884,"self":true,"updatedAt":"29/06/2026 20:52:11"}]},{"id":"49577","lat":40.979981945500505,"lon":17.24818481248372,"name":"56584 – POLIGNANO A MARE","brand":"Agip Eni","address":"SS.16 KM 838+890  70044, POLIGNANO A MARE, BA","prices":[{"type":"petrol","price":1.829,"self":true,"updatedAt":"30/06/2026 06:54:07"},{"type":"diesel","price":1.889,"self":true,"updatedAt":"30/06/2026 06:54:07"}]},{"id":"53945","lat":40.98993,"lon":17.19724,"name":"IP 37","brand":"Api-Ip","address":"s.p. 121 km. 0,500 70044, POLIGNANO A MARE, BA","prices":[{"type":"petrol","price":1.809,"self":true,"updatedAt":"29/06/2026 00:08:14"},{"type":"diesel","price":1.899,"self":true,"updatedAt":"29/06/2026 00:08:14"}]},{"id":"19892","lat":40.994588746805455,"lon":17.204446345567703,"name":"Q8","brand":"Q8","address":"Statale 16 Adriatica, Km. 833,454, dir. bari/brindisi - 70044, POLIGNANO A MARE, BA","prices":[{"type":"petrol","price":1.859,"self":true,"updatedAt":"26/06/2026 18:02:18"},{"type":"diesel","price":1.959,"self":true,"updatedAt":"26/06/2026 18:02:18"}]},{"id":"19002","lat":40.98844828764943,"lon":17.230551940258785,"name":"Q8 - D&D S.r.l.","brand":"Q8","address":"Via Vito Cosimo Basile 164 70044, POLIGNANO A MARE, BA","prices":[{"type":"petrol","price":1.799,"self":true,"updatedAt":"29/06/2026 19:38:11"},{"type":"diesel","price":1.889,"self":true,"updatedAt":"29/06/2026 19:38:11"}]},{"id":"14806","lat":40.933766657988656,"lon":17.176738433181413,"name":"STAZIONE DI SERVIZIO RETITALIA SATALINO ANTONIO","brand":"Agip Eni","address":"S.P.114 CONVERSANO-MONOPOLI KM 6- 520  70044, POLIGNANO A MARE, BA","prices":[{"type":"petrol","price":1.839,"self":true,"updatedAt":"29/06/2026 08:04:11"},{"type":"diesel","price":1.899,"self":true,"updatedAt":"29/06/2026 08:04:11"},{"type":"lpg","price":0.759,"self":false,"updatedAt":"29/06/2026 08:04:11"}]},{"id":"27534","lat":40.85332067719737,"lon":17.118021547794342,"name":"9081 Putignano","brand":"Agip Eni","address":"VIA DEI TRULLI SS 172 KM 20,75 SNC  70017, PUTIGNANO, BA","prices":[{"type":"petrol","price":1.829,"self":true,"updatedAt":"29/06/2026 00:17:51"},{"type":"diesel","price":1.889,"self":true,"updatedAt":"29/06/2026 00:17:51"}]},{"id":"52352","lat":40.85559675292382,"lon":17.107553755663606,"name":"DI 22","brand":"Dill s","address":"Via Micollis s.c. 70017, PUTIGNANO, BA","prices":[{"type":"petrol","price":1.799,"self":true,"updatedAt":"29/06/2026 23:48:18"},{"type":"diesel","price":1.879,"self":true,"updatedAt":"29/06/2026 10:58:07"}]},{"id":"57219","lat":40.8708806,"lon":17.08291389,"name":"DI 64","brand":"Wow","address":"S.S. 172 KM. 17+015 s.c. 70017, PUTIGNANO, BA","prices":[{"type":"petrol","price":1.799,"self":true,"updatedAt":"29/06/2026 23:25:38"},{"type":"diesel","price":1.879,"self":true,"updatedAt":"29/06/2026 10:58:08"}]},{"id":"15095","lat":40.847561106111655,"lon":17.10199400782585,"name":"Ip via gioia 42560","brand":"Api-Ip","address":"STRADA COMUNALE DUE LAMIE N.C.  70017, PUTIGNANO, BA","prices":[{"type":"petrol","price":1.849,"self":true,"updatedAt":"29/06/2026 10:14:40"},{"type":"diesel","price":1.899,"self":true,"updatedAt":"29/06/2026 10:14:40"}]},{"id":"46616","lat":40.83948533965927,"lon":17.150363624095917,"name":"KATIA 172","brand":"Q8","address":"172 PER ALBEROBELLO KM23+800 NC 70017, PUTIGNANO, BA","prices":[{"type":"petrol","price":1.829,"self":true,"updatedAt":"29/06/2026 12:41:06"},{"type":"diesel","price":1.909,"self":true,"updatedAt":"29/06/2026 12:41:06"}]},{"id":"30119","lat":40.85445519873524,"lon":17.114623306745898,"name":"PUTIGNANO - VIA TURI","brand":"Q8","address":"VIA TURI  70017, PUTIGNANO, BA","prices":[{"type":"petrol","price":1.819,"self":true,"updatedAt":"30/06/2026 01:13:54"},{"type":"diesel","price":1.879,"self":true,"updatedAt":"30/06/2026 01:13:54"}]},{"id":"12685","lat":40.852526441059595,"lon":17.127260443164047,"name":"Q8","brand":"Q8","address":"VIA CASTELLANA GROTTE Snc 70017, PUTIGNANO, BA","prices":[{"type":"petrol","price":1.829,"self":true,"updatedAt":"29/06/2026 12:15:32"},{"type":"diesel","price":1.909,"self":true,"updatedAt":"29/06/2026 12:15:32"}]},{"id":"15096","lat":40.84404481921009,"lon":17.112714797258377,"name":"Q8 pv 8353","brand":"Q8","address":"via ss 377 per noci, PUTIGNANO, BA","prices":[{"type":"petrol","price":1.829,"self":true,"updatedAt":"29/06/2026 10:14:22"},{"type":"diesel","price":1.909,"self":true,"updatedAt":"29/06/2026 10:14:22"}]},{"id":"14752","lat":40.86625901749058,"lon":17.14351996779442,"name":"Stazione di servizio IP","brand":"Api-Ip","address":"SP 237 PER CASTELLANA GROTTE 55 70017, PUTIGNANO, BA","prices":[{"type":"petrol","price":1.839,"self":true,"updatedAt":"25/06/2026 19:10:29"},{"type":"diesel","price":1.899,"self":true,"updatedAt":"25/06/2026 19:10:29"},{"type":"methane","price":1.669,"self":false,"updatedAt":"25/06/2026 19:10:29"},{"type":"lpg","price":0.822,"self":false,"updatedAt":"25/06/2026 19:10:29"}]},{"id":"36386","lat":40.99958450764078,"lon":17.006979435682297,"name":"ip Multiservice Car F.lli Lorusso","brand":"Api-Ip","address":"STRADA PROVINCIALE SP 240 KM 11,398  70018, RUTIGLIANO, BA","prices":[{"type":"petrol","price":1.829,"self":true,"updatedAt":"29/06/2026 16:40:35"},{"type":"diesel","price":1.849,"self":true,"updatedAt":"29/06/2026 16:40:35"},{"type":"methane","price":1.499,"self":false,"updatedAt":"29/06/2026 16:40:36"}]},{"id":"14694","lat":40.91520261940805,"lon":17.016207575798035,"name":"09170","brand":"Agip Eni","address":"LARGO POZZI  70010, TURI, BA","prices":[{"type":"petrol","price":1.849,"self":true,"updatedAt":"29/06/2026 07:46:01"},{"type":"diesel","price":1.949,"self":true,"updatedAt":"29/06/2026 07:46:01"}]},{"id":"46419","lat":40.92275317738339,"lon":17.007520761428164,"name":"BLU - TURI","brand":"Pompe Bianche","address":"172 dei Trulli, Km. 12+500, PUTIGNANO - 70010, TURI, BA","prices":[{"type":"petrol","price":1.799,"self":true,"updatedAt":"26/06/2026 16:05:48"},{"type":"diesel","price":1.889,"self":true,"updatedAt":"26/06/2026 16:05:48"},{"type":"lpg","price":0.712,"self":false,"updatedAt":"26/06/2026 16:05:48"}]},{"id":"52353","lat":40.92031634671316,"lon":17.01172548078537,"name":"IP 40","brand":"Api-Ip","address":"Via Casamassima s.c. 70010, TURI, BA","prices":[{"type":"petrol","price":1.809,"self":true,"updatedAt":"29/06/2026 23:48:28"},{"type":"diesel","price":1.899,"self":true,"updatedAt":"29/06/2026 23:48:28"}]},{"id":"49592","lat":40.92201457393727,"lon":17.008042912862773,"name":"Stazione di servizio IP","brand":"Api-Ip","address":"TOMMASO FIORE 11 70010, TURI, BA","prices":[{"type":"petrol","price":1.877,"self":true,"updatedAt":"27/06/2026 23:26:38"},{"type":"diesel","price":1.949,"self":true,"updatedAt":"27/06/2026 23:26:38"}]}]