[{"id":"57708","lat":40.96556,"lon":16.09389,"name":"PV 9026 Spinazzola","brand":"Agip Eni","address":"UMBERTO PRIMO SN 76014, SPINAZZOLA, BT","prices":[{"type":"petrol","price":1.789,"self":true,"updatedAt":"20/06/2026 23:24:21"},{"type":"diesel","price":1.854,"self":true,"updatedAt":"20/06/2026 23:24:21"}]},{"id":"41862","lat":40.973630010101,"lon":16.084029010101,"name":"totalerg tarantino michele","brand":"Api-Ip","address":"CORSO VITTORIO EMANUELE 121 76014, SPINAZZOLA, BT","prices":[{"type":"petrol","price":1.799,"self":true,"updatedAt":"19/06/2026 17:22:54"},{"type":"diesel","price":1.854,"self":true,"updatedAt":"19/06/2026 17:22:54"}]},{"id":"52117","lat":40.753247,"lon":16.2312825,"name":"CARBURANTI ABBATECOLA","brand":"Pompe Bianche","address":"Via Carpiniello s.n.c. 75022, IRSINA, MT","prices":[{"type":"petrol","price":1.789,"self":true,"updatedAt":"20/06/2026 08:46:04"},{"type":"diesel","price":1.885,"self":true,"updatedAt":"20/06/2026 08:46:04"}]},{"id":"37224","lat":40.753319301927384,"lon":16.236602103041037,"name":"TOMMASINI CARBURANTI","brand":"TOMMASINI CARBURANTI","address":"DI VITTORIO SNC 75022, IRSINA, MT","prices":[{"type":"petrol","price":1.799,"self":true,"updatedAt":"19/06/2026 08:42:45"},{"type":"diesel","price":1.895,"self":true,"updatedAt":"19/06/2026 08:42:45"}]},{"id":"63065","lat":40.859900308996295,"lon":16.009678102169058,"name":"IP","brand":"Itala Petroli","address":"UMBERTO PRIMO SNC 85010, BANZI, PZ","prices":[{"type":"petrol","price":1.987,"self":true,"updatedAt":"15/06/2026 09:07:26"},{"type":"diesel","price":2.199,"self":true,"updatedAt":"15/06/2026 09:07:26"}]},{"id":"25844","lat":40.84582429066018,"lon":16.033809632062912,"name":"STAZIONE AGIP","brand":"Agip Eni","address":"VIA S.S.169  85013, GENZANO DI LUCANIA, PZ","prices":[{"type":"petrol","price":1.859,"self":true,"updatedAt":"21/06/2026 00:14:28"},{"type":"diesel","price":1.964,"self":true,"updatedAt":"21/06/2026 00:14:28"}]},{"id":"51267","lat":40.76251163553659,"lon":16.062852452729803,"name":"oronero srl","brand":"Api-Ip","address":"96 Barese, Km. 3.010, bari - 85015, OPPIDO LUCANO, PZ","prices":[{"type":"lpg","price":0.799,"self":true,"updatedAt":"17/06/2026 19:47:16"}]},{"id":"15756","lat":40.94141849629435,"lon":16.012224555015564,"name":"Camer","brand":"Camer","address":"S.P. Ex S.S. 168 km 35+350  85026, PALAZZO SAN GERVASIO, PZ","prices":[{"type":"petrol","price":1.998,"self":true,"updatedAt":"19/06/2026 16:28:24"},{"type":"diesel","price":1.968,"self":true,"updatedAt":"19/06/2026 16:28:24"}]}]