[{"id":"54487","lat":41.24735373575189,"lon":16.213760375976562,"name":"CANNE BATTAGLIA OVEST","brand":"Api-Ip","address":"Autostrada A14 BOLOGNA-BARI-TARANTO, dir. Direzione Sud 76123, ANDRIA, BT","prices":[{"type":"petrol","price":1.829,"self":true,"updatedAt":"26/06/2026 21:40:38"},{"type":"diesel","price":1.929,"self":true,"updatedAt":"26/06/2026 21:40:38"},{"type":"lpg","price":0.898,"self":false,"updatedAt":"26/06/2026 21:40:38"}]},{"id":"34716","lat":41.22877834277185,"lon":16.035899072885513,"name":"54771 Canosa di Puglia","brand":"Agip Eni","address":"S.S.98 Km 10+050  76012, CANOSA DI PUGLIA, BT","prices":[{"type":"petrol","price":1.829,"self":true,"updatedAt":"28/06/2026 00:54:17"},{"type":"diesel","price":1.889,"self":true,"updatedAt":"28/06/2026 00:54:17"}]},{"id":"57513","lat":41.218082,"lon":16.0707504,"name":"CANOSA DI PUGLIA VIA CORSICA, 38","brand":"Q8","address":"VIA CORSICA 38 76012, CANOSA DI PUGLIA, BT","prices":[{"type":"petrol","price":1.839,"self":true,"updatedAt":"22/06/2026 16:04:21"},{"type":"diesel","price":1.899,"self":true,"updatedAt":"22/06/2026 16:04:21"}]},{"id":"61023","lat":41.22221162757104,"lon":16.06097665720678,"name":"DS CARBURANTI SAS","brand":"Tamoil","address":"VIA CORSICA ANG VIA UGO LA MALFA SNC 76012, CANOSA DI PUGLIA, BT","prices":[{"type":"petrol","price":1.849,"self":true,"updatedAt":"28/06/2026 01:22:08"},{"type":"diesel","price":1.899,"self":true,"updatedAt":"28/06/2026 01:22:08"}]},{"id":"48865","lat":41.22617175743058,"lon":16.076067792978993,"name":"ITALIANA PETROLI","brand":"Api-Ip","address":"VIA BARLETTA CN 76012, CANOSA DI PUGLIA, BT","prices":[{"type":"petrol","price":1.838,"self":true,"updatedAt":"28/06/2026 08:00:14"},{"type":"diesel","price":1.899,"self":true,"updatedAt":"28/06/2026 08:00:14"}]},{"id":"40541","lat":41.21552772598362,"lon":16.059613823890686,"name":"ITALIANA PETROLI CANOSA","brand":"Api-Ip","address":"COSTANTINOPOLI A.IMBRIANI S.N 76012, CANOSA DI PUGLIA, BT","prices":[{"type":"petrol","price":1.838,"self":true,"updatedAt":"27/06/2026 18:10:16"},{"type":"diesel","price":1.899,"self":true,"updatedAt":"27/06/2026 18:10:16"}]},{"id":"61951","lat":41.1981858234611,"lon":16.0897883419793,"name":"toil canosa di uglia","brand":"Toil","address":"s.s. 98 km 16+466  sn 76012, CANOSA DI PUGLIA, BT","prices":[{"type":"petrol","price":1.849,"self":true,"updatedAt":"27/06/2026 23:41:59"},{"type":"diesel","price":1.899,"self":true,"updatedAt":"27/06/2026 23:41:59"}]},{"id":"37772","lat":41.08893785997403,"lon":16.077299639582634,"name":"MINERVINO MURGE S.S.97 KM 12+726","brand":"Q8","address":"S.S.97 KM 12+726  70055, MINERVINO MURGE, BT","prices":[{"type":"petrol","price":1.899,"self":true,"updatedAt":"26/06/2026 16:38:31"},{"type":"diesel","price":1.959,"self":true,"updatedAt":"26/06/2026 16:38:31"}]},{"id":"55185","lat":41.072380767882244,"lon":16.07494096221925,"name":"TOIL","brand":"Toil","address":"230 KM.14,8(EX S.S.97)  76013, MINERVINO MURGE, BT","prices":[{"type":"petrol","price":1.849,"self":true,"updatedAt":"28/06/2026 01:25:08"},{"type":"diesel","price":1.949,"self":true,"updatedAt":"28/06/2026 01:25:08"},{"type":"lpg","price":0.779,"self":false,"updatedAt":"27/06/2026 23:53:44"}]}]