[{"id":"58090","lat":41.10758,"lon":9.438788,"name":"17786 ARZACHENA","brand":"Agip Eni","address":"LOC. CANNIGIONE  SNC, ARZACHENA, SS","prices":[{"type":"petrol","price":1.829,"self":true,"updatedAt":"24/06/2026 01:11:12"},{"type":"diesel","price":1.919,"self":true,"updatedAt":"24/06/2026 01:11:12"}]},{"id":"41215","lat":41.06816310009117,"lon":9.442994445562363,"name":"A.M.G. CARBURANTI S.R.L. ARZACHENA","brand":"AMG Carburanti","address":"SP 73  SNC 07021, ARZACHENA, SS","prices":[{"type":"petrol","price":1.834,"self":true,"updatedAt":"24/06/2026 01:11:49"},{"type":"diesel","price":1.934,"self":true,"updatedAt":"24/06/2026 01:11:49"},{"type":"lpg","price":0.899,"self":false,"updatedAt":"23/06/2026 00:32:24"}]},{"id":"24496","lat":41.06452969892728,"lon":9.398202370178524,"name":"ARZACHENA","brand":"Fiamma 2000","address":"VIA loc. mulgianu snc 07021, ARZACHENA (SS) SNC 07021, ARZACHENA, SS","prices":[{"type":"petrol","price":1.849,"self":true,"updatedAt":"23/06/2026 00:23:53"},{"type":"diesel","price":1.969,"self":true,"updatedAt":"23/06/2026 00:23:53"}]},{"id":"6684","lat":41.076151806448145,"lon":9.392369804962982,"name":"ARZACHENA VIA DELLA COSTA SMERALDA","brand":"Q8","address":"VIA DELLA COSTA SMERALDA SNC 07020, ARZACHENA, SS","prices":[{"type":"petrol","price":1.839,"self":true,"updatedAt":"24/06/2026 07:50:20"},{"type":"diesel","price":1.929,"self":true,"updatedAt":"24/06/2026 07:50:20"}]},{"id":"18692","lat":41.082120825884886,"lon":9.382409999999936,"name":"distributore esso di nurchis fabrizio","brand":"Esso","address":"STRADA STATALE 125 KM. 343,245  07021, ARZACHENA, SS","prices":[{"type":"petrol","price":1.836,"self":true,"updatedAt":"24/06/2026 07:47:49"},{"type":"diesel","price":1.956,"self":true,"updatedAt":"24/06/2026 07:47:49"}]},{"id":"22410","lat":41.06845176980448,"lon":9.420668184869328,"name":"Eni Maresca Viola","brand":"Agip Eni","address":"STRADA STATALE 125 KM 339,250 SC - 07021, ARZACHENA, SS","prices":[{"type":"petrol","price":1.829,"self":true,"updatedAt":"24/06/2026 01:11:54"},{"type":"diesel","price":1.919,"self":true,"updatedAt":"24/06/2026 01:11:54"}]},{"id":"55403","lat":41.07470312237306,"lon":9.39334618966095,"name":"ENI STATION ANTONELLO DEROSAS","brand":"Agip Eni","address":"Via Baja Sardinia  07021, ARZACHENA, SS","prices":[{"type":"petrol","price":1.824,"self":true,"updatedAt":"24/06/2026 01:12:14"},{"type":"diesel","price":1.914,"self":true,"updatedAt":"24/06/2026 01:12:14"}]},{"id":"52136","lat":41.082103293723264,"lon":9.382475194599264,"name":"ESSO - ARZACHENA LOC. CASCIONI - S.P. BAIA SARDINIA","brand":"Esso","address":"LOC. CASCIONI - S.P. BAIA SARDINIA  07021, ARZACHENA, SS","prices":[{"type":"petrol","price":1.829,"self":true,"updatedAt":"23/06/2026 07:36:10"},{"type":"diesel","price":1.919,"self":true,"updatedAt":"23/06/2026 07:36:10"},{"type":"lpg","price":0.899,"self":false,"updatedAt":"23/06/2026 07:36:10"}]},{"id":"54097","lat":41.0779889,"lon":9.3901389,"name":"ESSO - ARZACHENA VIA EMICICLO EUROPA","brand":"Esso","address":"EUROPA SNC 07021, ARZACHENA, SS","prices":[{"type":"petrol","price":1.819,"self":true,"updatedAt":"23/06/2026 07:44:23"},{"type":"diesel","price":1.919,"self":true,"updatedAt":"23/06/2026 07:44:23"}]},{"id":"6982","lat":41.074361034651744,"lon":9.394083023071289,"name":"_Fresi Gianfranco","brand":"Agip Eni","address":"VIALE COSTA SMERALDA  07021, ARZACHENA, SS","prices":[{"type":"petrol","price":1.829,"self":true,"updatedAt":"24/06/2026 01:10:34"},{"type":"diesel","price":1.919,"self":true,"updatedAt":"24/06/2026 01:10:34"}]},{"id":"41662","lat":41.217110960861554,"lon":9.428400546312332,"name":"17811","brand":"Agip Eni","address":"VIA AMMIRAGLIO MIRABELLO SNC 07024, LA MADDALENA, SS","prices":[{"type":"petrol","price":1.859,"self":true,"updatedAt":"24/06/2026 01:09:28"},{"type":"diesel","price":1.964,"self":true,"updatedAt":"24/06/2026 01:09:28"}]},{"id":"41626","lat":41.2115771422751,"lon":9.392246633603236,"name":"DISTRIBUTORE ESSO","brand":"Esso","address":"VIA PADULE .snct 07024, LA MADDALENA, SS","prices":[{"type":"petrol","price":1.839,"self":true,"updatedAt":"20/06/2026 11:56:41"},{"type":"diesel","price":1.899,"self":true,"updatedAt":"20/06/2026 11:56:41"}]},{"id":"38598","lat":41.10523563537348,"lon":9.258963391184807,"name":"TAMOIL 8472","brand":"Tamoil","address":"VIA NAZIONALE, LOC. BULBUSEDDU 21 07020, LUOGOSANTO, SS","prices":[{"type":"petrol","price":1.819,"self":true,"updatedAt":"23/06/2026 14:05:45"},{"type":"diesel","price":1.919,"self":true,"updatedAt":"23/06/2026 14:05:45"}]},{"id":"60702","lat":41.045867,"lon":9.469916,"name":"CARBURANTI PILERI S.A.S . DI PILERI ANTONELLA & C","brand":"Esso","address":"ZARA 26 07026, OLBIA, SS","prices":[{"type":"petrol","price":1.819,"self":true,"updatedAt":"24/06/2026 07:55:43"},{"type":"diesel","price":1.919,"self":true,"updatedAt":"24/06/2026 07:55:43"}]},{"id":"59227","lat":41.180733,"lon":9.385214,"name":"7817 PALAU","brand":"Agip Eni","address":"Piazza del Molo  07020, PALAU, SS","prices":[{"type":"petrol","price":1.829,"self":true,"updatedAt":"24/06/2026 01:09:57"},{"type":"diesel","price":1.919,"self":true,"updatedAt":"24/06/2026 01:09:57"}]},{"id":"43023","lat":41.18092054827373,"lon":9.384806987582465,"name":"distributore esso","brand":"Esso","address":"piazza del molo snc 07020, PALAU, SS","prices":[{"type":"petrol","price":1.839,"self":true,"updatedAt":"22/06/2026 07:46:16"},{"type":"diesel","price":1.939,"self":true,"updatedAt":"22/06/2026 07:46:16"}]},{"id":"18723","lat":41.1861836341008,"lon":9.268983453512192,"name":"STAZIONE SERVIZIO ESSO MANNONI FAUSTO","brand":"Esso","address":"Statale 133 di Palau, Km. 6, dir. SANTA TERESA GALLURA - 07028, SANTA TERESA GALLURA, SS","prices":[{"type":"petrol","price":1.839,"self":true,"updatedAt":"23/06/2026 07:29:21"},{"type":"diesel","price":1.939,"self":true,"updatedAt":"23/06/2026 07:29:21"}]},{"id":"31243","lat":41.16280453695842,"lon":9.312503635883331,"name":"beyfin","brand":"Beyfin","address":"133 BIS BIVIO S. T. GALLURA PALAU 07029, SASSARI, SS","prices":[{"type":"petrol","price":1.869,"self":false,"updatedAt":"19/06/2026 18:51:41"},{"type":"diesel","price":1.989,"self":false,"updatedAt":"19/06/2026 18:51:41"},{"type":"lpg","price":0.989,"self":false,"updatedAt":"19/06/2026 18:51:41"}]}]