[{"id":"28615","lat":41.08203234828573,"lon":17.017399999999952,"name":"BARI - TORRE A MARE","brand":"Api-Ip","address":"TORRE A MARE - BARI SS 16 KM 815+660  70045, BARI, BA","prices":[{"type":"petrol","price":1.775,"self":true,"updatedAt":"28/06/2026 09:16:06"},{"type":"diesel","price":1.875,"self":true,"updatedAt":"28/06/2026 09:16:06"}]},{"id":"53539","lat":41.08012873062082,"lon":17.030920712113957,"name":"ENISTATION 09114","brand":"Agip Eni","address":"16 KM 816 SNC 70126, BARI, BA","prices":[{"type":"petrol","price":1.824,"self":true,"updatedAt":"28/06/2026 23:40:30"},{"type":"diesel","price":1.884,"self":true,"updatedAt":"28/06/2026 23:40:30"}]},{"id":"56972","lat":41.04175446152811,"lon":17.05933709594956,"name":"D & F SRL - PV ENI MOLA","brand":"Agip Eni","address":"SP111 KM 1+235 70042, MOLA DI BARI, BA","prices":[{"type":"petrol","price":1.849,"self":true,"updatedAt":"25/06/2026 11:06:40"},{"type":"diesel","price":1.939,"self":true,"updatedAt":"25/06/2026 11:06:40"},{"type":"methane","price":1.699,"self":false,"updatedAt":"25/06/2026 11:06:40"},{"type":"lpg","price":0.779,"self":false,"updatedAt":"25/06/2026 11:06:40"}]},{"id":"57052","lat":41.07323097174104,"lon":17.058749692175297,"name":"D&F CAFFE' DI COLELLA FABIO","brand":"Api-Ip","address":"VIA SS.16 KM.819+219 SN 70042, MOLA DI BARI (BA) CN 70042, MOLA DI BARI, BA","prices":[{"type":"petrol","price":1.829,"self":true,"updatedAt":"25/06/2026 11:14:25"},{"type":"diesel","price":1.909,"self":true,"updatedAt":"25/06/2026 11:14:25"}]},{"id":"43811","lat":41.04925907971369,"lon":17.112662294477445,"name":"Italiana Petroli","brand":"Api-Ip","address":"Strada Comunale Litoranea per Cozze 13 70042, MOLA DI BARI, BA","prices":[{"type":"petrol","price":1.822,"self":true,"updatedAt":"29/06/2026 07:02:21"},{"type":"diesel","price":1.902,"self":true,"updatedAt":"29/06/2026 07:02:21"},{"type":"lpg","price":0.767,"self":false,"updatedAt":"29/06/2026 07:02:21"}]},{"id":"21943","lat":41.057734021127395,"lon":17.09695279598236,"name":"MOLA DI BARI - POLIGNANO","brand":"Api-Ip","address":"VIA POLIGNANO 217 70042, MOLA DI BARI, BA","prices":[{"type":"petrol","price":1.812,"self":true,"updatedAt":"28/06/2026 09:00:48"},{"type":"diesel","price":1.892,"self":true,"updatedAt":"28/06/2026 09:00:49"}]},{"id":"31124","lat":41.07812426265545,"lon":17.04572682209016,"name":"MOLA DI BARI - S.S. 16 NORD","brand":"Api-Ip","address":"S.S. NORD 16 KM. 818,054  70042, MOLA DI BARI, BA","prices":[{"type":"petrol","price":1.819,"self":true,"updatedAt":"28/06/2026 09:00:45"},{"type":"diesel","price":1.899,"self":true,"updatedAt":"28/06/2026 09:00:45"}]},{"id":"49488","lat":41.0633822575328,"lon":17.083470672369003,"name":"Q8 DEFONTE","brand":"Q8","address":"CORSO ITALIA 88 70042, MOLA DI BARI, BA","prices":[{"type":"petrol","price":1.829,"self":true,"updatedAt":"25/06/2026 11:50:29"},{"type":"diesel","price":1.899,"self":true,"updatedAt":"25/06/2026 11:50:29"}]},{"id":"57752","lat":41.047925257958234,"lon":17.069223812161276,"name":"toil di roberto granieri","brand":"Toil","address":"PROV.LE PER RUTIGLIANO SN 70042, MOLA DI BARI, BA","prices":[{"type":"petrol","price":1.839,"self":true,"updatedAt":"27/06/2026 12:24:08"},{"type":"diesel","price":1.899,"self":true,"updatedAt":"27/06/2026 12:24:08"}]},{"id":"27805","lat":41.01423355974746,"lon":17.185176014900208,"name":"ENI CAFE' ANDRESINI MARIA EMMA","brand":"Agip Eni","address":"16 KM 832+280 NC 70044, POLIGNANO A MARE, BA","prices":[{"type":"petrol","price":1.829,"self":true,"updatedAt":"28/06/2026 23:34:40"},{"type":"diesel","price":1.899,"self":true,"updatedAt":"28/06/2026 20:20:12"}]},{"id":"18701","lat":41.028963528597714,"lon":17.155862152576447,"name":"IP","brand":"Api-Ip","address":"16 KM 829+257 SN 70044, POLIGNANO A MARE, BA","prices":[{"type":"petrol","price":1.809,"self":true,"updatedAt":"24/06/2026 10:21:53"},{"type":"diesel","price":1.909,"self":true,"updatedAt":"24/06/2026 10:21:53"}]},{"id":"53570","lat":41.0122076696398,"lon":17.0116923509262,"name":"Marolla Group Rutigliano via Mola","brand":"Q8","address":"MOLA 74 70018, RUTIGLIANO, BA","prices":[{"type":"petrol","price":1.869,"self":false,"updatedAt":"28/06/2026 09:41:04"},{"type":"diesel","price":1.929,"self":false,"updatedAt":"28/06/2026 09:41:04"}]}]