[{"id":"15891","lat":41.44313727999133,"lon":14.933744782947088,"name":"IAROSSI LUIGI","brand":"Api-Ip","address":"CORSO VITTORIO EMANUELE 12/B 82023, CASTELVETERE IN VAL FORTORE, BN","prices":[{"type":"petrol","price":1.999,"self":true,"updatedAt":"26/06/2026 06:25:18"},{"type":"diesel","price":2.099,"self":true,"updatedAt":"26/06/2026 06:25:18"}]},{"id":"42867","lat":41.32896377150498,"lon":14.791066919821787,"name":"IP GIEMME SRL","brand":"Api-Ip","address":"CONTRADA CAMPANARO 25 82020, CIRCELLO, BN","prices":[{"type":"petrol","price":1.979,"self":true,"updatedAt":"22/06/2026 14:39:31"},{"type":"diesel","price":1.999,"self":true,"updatedAt":"22/06/2026 14:39:31"}]},{"id":"8087","lat":41.37141196450326,"lon":14.841078221797943,"name":"AREA SERVIZIO IES","brand":"Pompe Bianche","address":"C.DA CROCELLA 4 82024, COLLE SANNITA, BN","prices":[{"type":"petrol","price":1.869,"self":true,"updatedAt":"27/06/2026 10:56:42"},{"type":"diesel","price":1.949,"self":true,"updatedAt":"27/06/2026 10:56:42"}]},{"id":"53604","lat":41.3522117,"lon":14.9770164,"name":"LUDOIL","brand":"Pompe Bianche","address":"NAZIONALE  82011, FOIANO DI VAL FORTORE, BN","prices":[{"type":"petrol","price":1.929,"self":true,"updatedAt":"27/06/2026 07:28:53"},{"type":"diesel","price":2.029,"self":true,"updatedAt":"27/06/2026 07:28:53"}]},{"id":"62655","lat":41.2545689,"lon":14.7794745,"name":"BONAVENTURA","brand":"Bianco Carburanti","address":"Via Querce 35  82020, FRAGNETO L'ABATE, BN","prices":[{"type":"petrol","price":1.816,"self":true,"updatedAt":"27/06/2026 17:14:24"},{"type":"diesel","price":1.899,"self":true,"updatedAt":"27/06/2026 17:14:24"}]},{"id":"53625","lat":41.29554250722981,"lon":14.906752109527588,"name":"IP - Molinara","brand":"Api-Ip","address":"via M. Iannariello 22 82020, MOLINARA, BN","prices":[{"type":"petrol","price":1.879,"self":false,"updatedAt":"27/06/2026 09:44:58"},{"type":"diesel","price":1.979,"self":false,"updatedAt":"27/06/2026 09:44:58"}]},{"id":"10207","lat":41.319603408795146,"lon":14.756408929824829,"name":"F.LLI GOLIA SAS","brand":"Pompe Bianche","address":"CUFFIANO 111 82026, MORCONE, BN","prices":[{"type":"petrol","price":1.899,"self":true,"updatedAt":"25/06/2026 11:18:24"},{"type":"diesel","price":1.929,"self":true,"updatedAt":"25/06/2026 11:18:24"}]},{"id":"26352","lat":41.29052349397969,"lon":14.818991574418078,"name":"calzone carburanti","brand":"Pompe Bianche","address":"via crocelle 22 82020, REINO, BN","prices":[{"type":"petrol","price":1.779,"self":true,"updatedAt":"28/06/2026 10:53:11"},{"type":"diesel","price":1.869,"self":true,"updatedAt":"28/06/2026 10:53:10"}]},{"id":"29645","lat":41.27077884070986,"lon":14.927457422018051,"name":"SAN GIORGIO LA MOLARA","brand":"Giap","address":"SP S.G.LA MOLARA PAGO VEIANO C.DA SAN MARCUCCIO  82022, SAN GIORGIO LA MOLARA, BN","prices":[{"type":"petrol","price":1.889,"self":true,"updatedAt":"27/06/2026 05:57:53"},{"type":"diesel","price":1.949,"self":true,"updatedAt":"27/06/2026 05:57:53"}]},{"id":"55621","lat":41.3075,"lon":14.87338,"name":"Area di servizio Q8 di Pomarico Antonio","brand":"Q8","address":"XXV APRILE 34 82029, SAN MARCO DEI CAVOTI, BN","prices":[{"type":"petrol","price":1.859,"self":true,"updatedAt":"26/06/2026 11:25:02"},{"type":"diesel","price":1.967,"self":true,"updatedAt":"26/06/2026 11:25:02"}]},{"id":"60802","lat":41.30824499731061,"lon":14.878578186035156,"name":"ENERGY SRLS","brand":"Api-Ip","address":"STATALE 369 SNC 82029, SAN MARCO DEI CAVOTI, BN","prices":[{"type":"petrol","price":1.907,"self":false,"updatedAt":"25/06/2026 16:12:58"},{"type":"diesel","price":2.046,"self":false,"updatedAt":"25/06/2026 16:12:58"}]},{"id":"32040","lat":41.47349621544184,"lon":14.838420152664185,"name":"Ga.li. snc","brand":"Esso","address":"Statale 212 della Val Fortore, Km. 57+150, dir. Riccia - 86016, RICCIA, CB","prices":[{"type":"petrol","price":1.819,"self":true,"updatedAt":"29/06/2026 07:54:36"},{"type":"diesel","price":1.899,"self":true,"updatedAt":"29/06/2026 07:54:36"},{"type":"lpg","price":0.849,"self":false,"updatedAt":"29/06/2026 07:54:36"}]},{"id":"16019","lat":41.45876280012019,"lon":14.811254739761353,"name":"PETROL GAMMA","brand":"Petrol Gamma","address":"C.DA STREPPONE SN 86016, RICCIA, CB","prices":[{"type":"petrol","price":1.926,"self":true,"updatedAt":"23/06/2026 14:01:07"},{"type":"diesel","price":1.994,"self":true,"updatedAt":"23/06/2026 14:01:07"}]},{"id":"60249","lat":41.48314,"lon":14.83181,"name":"RICCIA","brand":"Pompe Bianche","address":"S.S. 12 KM 68   86016, RICCIA, CB","prices":[{"type":"petrol","price":1.796,"self":true,"updatedAt":"29/06/2026 00:18:12"},{"type":"diesel","price":1.885,"self":true,"updatedAt":"29/06/2026 00:18:12"}]}]