[{"id":"21706","lat":41.277385177826915,"lon":14.474412202835083,"name":"Stazione di Servizio IP ONOFRIO srl","brand":"Api-Ip","address":"Via Provinciale 74 82035, FAICCHIO, BN","prices":[{"type":"petrol","price":1.936,"self":true,"updatedAt":"18/06/2026 16:44:20"},{"type":"diesel","price":1.992,"self":true,"updatedAt":"18/06/2026 16:44:20"}]},{"id":"60252","lat":41.4853,"lon":14.47075,"name":"BOJANO","brand":"Pompe Bianche","address":"Via Calderari snc 86021, BOJANO, CB","prices":[{"type":"petrol","price":1.905,"self":true,"updatedAt":"20/06/2026 08:19:11"},{"type":"diesel","price":1.955,"self":true,"updatedAt":"20/06/2026 08:19:11"}]},{"id":"29833","lat":41.491252237325995,"lon":14.481016093254084,"name":"BOJANO - MONTEVERDE","brand":"Api-Ip","address":"S.P. BOJANO - MONTEVERDE snc 86012, BOJANO, CB","prices":[{"type":"petrol","price":1.859,"self":true,"updatedAt":"20/06/2026 09:05:56"},{"type":"diesel","price":1.949,"self":true,"updatedAt":"20/06/2026 09:05:56"}]},{"id":"48748","lat":41.48458575725868,"lon":14.480212334639967,"name":"ENI 07263 - 26725","brand":"Agip Eni","address":"Strada Statale, Km. 207+400, Campobasso  86021, BOJANO, CB","prices":[{"type":"petrol","price":1.849,"self":true,"updatedAt":"21/06/2026 00:55:13"},{"type":"diesel","price":1.949,"self":true,"updatedAt":"21/06/2026 00:55:13"}]},{"id":"39715","lat":41.32573822274759,"lon":14.347565174102783,"name":"4614","brand":"Tamoil","address":"S.P. 331 EX S.S. 158 KM 0,785 SNC 81011, ALIFE, CE","prices":[{"type":"petrol","price":1.779,"self":true,"updatedAt":"20/06/2026 23:36:25"},{"type":"diesel","price":1.919,"self":true,"updatedAt":"20/06/2026 23:36:25"}]},{"id":"53883","lat":41.298062,"lon":14.352199,"name":"NOVA FUEL","brand":"Pompe Bianche","address":"S.P. 69 VIA SCAFA DI ALVIGNANO SNC 81011, ALIFE, CE","prices":[{"type":"petrol","price":1.859,"self":true,"updatedAt":"20/06/2026 10:18:48"},{"type":"diesel","price":1.929,"self":true,"updatedAt":"20/06/2026 10:18:48"},{"type":"lpg","price":0.769,"self":false,"updatedAt":"20/06/2026 10:18:48"}]},{"id":"50241","lat":41.32241154442248,"lon":14.33945318885014,"name":"Q8","brand":"Q8","address":"SS 158 KM 78+100 SNC 81011, ALIFE, CE","prices":[{"type":"petrol","price":1.809,"self":true,"updatedAt":"18/06/2026 05:42:54"},{"type":"diesel","price":1.949,"self":true,"updatedAt":"18/06/2026 05:42:54"}]},{"id":"58323","lat":41.33361,"lon":14.32295,"name":"S.A.P. ITALIA S.R.L.","brand":"Tamoil","address":"S.S. 158 KM 75+985 75 81011, ALIFE, CE","prices":[{"type":"petrol","price":1.799,"self":true,"updatedAt":"21/06/2026 00:39:37"},{"type":"diesel","price":1.939,"self":true,"updatedAt":"21/06/2026 00:39:37"}]},{"id":"37353","lat":41.3257159,"lon":14.3319546,"name":"TAMOIL","brand":"Tamoil","address":"EX S.S. 158  81011, ALIFE, CE","prices":[{"type":"petrol","price":1.839,"self":true,"updatedAt":"19/06/2026 20:39:22"},{"type":"diesel","price":1.959,"self":true,"updatedAt":"19/06/2026 20:39:22"},{"type":"methane","price":1.496,"self":false,"updatedAt":"19/06/2026 20:39:22"},{"type":"lpg","price":0.693,"self":false,"updatedAt":"19/06/2026 20:39:22"}]},{"id":"61071","lat":41.28247170675757,"lon":14.324918967801505,"name":"ARES","brand":"Pompe Bianche","address":"BONIFICA SNC 81010, DRAGONI, CE","prices":[{"type":"petrol","price":1.878,"self":true,"updatedAt":"19/06/2026 18:46:58"},{"type":"diesel","price":1.995,"self":true,"updatedAt":"19/06/2026 18:46:58"},{"type":"methane","price":1.499,"self":false,"updatedAt":"19/06/2026 18:46:58"},{"type":"lpg","price":0.695,"self":false,"updatedAt":"19/06/2026 18:46:58"}]},{"id":"20822","lat":41.31638586321262,"lon":14.42038580775261,"name":"eredi conte snc","brand":"Pompe Bianche","address":"VIA SELVARECCIA 6 81010, GIOIA SANNITICA, CE","prices":[{"type":"petrol","price":1.819,"self":true,"updatedAt":"20/06/2026 22:06:11"},{"type":"diesel","price":1.939,"self":true,"updatedAt":"20/06/2026 22:06:11"}]},{"id":"58918","lat":41.349926,"lon":14.367868,"name":"8438 PIEDIMONTE MATESE","brand":"Agip Eni","address":"VIA CESARE BATTISTI  SNC, PIEDIMONTE MATESE, CE","prices":[{"type":"petrol","price":1.824,"self":true,"updatedAt":"21/06/2026 00:18:29"},{"type":"diesel","price":1.919,"self":true,"updatedAt":"21/06/2026 00:18:29"}]},{"id":"59412","lat":41.34710681772232,"lon":14.365694224834442,"name":"DITTA DIANA CICCARELLI STAZIONE DI SERVIZIO ESSO","brand":"Esso","address":"STATALE 158 SNC 81016, PIEDIMONTE MATESE, CE","prices":[{"type":"petrol","price":1.819,"self":true,"updatedAt":"20/06/2026 07:04:36"},{"type":"diesel","price":1.939,"self":true,"updatedAt":"20/06/2026 07:04:37"}]},{"id":"62908","lat":41.33831699371521,"lon":14.357901404885425,"name":"FUEL GPL","brand":"Pompe Bianche","address":"PROV. 331 - KM.2+430 SNC 81016, PIEDIMONTE MATESE, CE","prices":[{"type":"lpg","price":0.695,"self":false,"updatedAt":"18/06/2026 09:23:10"}]},{"id":"55389","lat":41.347281,"lon":14.3659897,"name":"IP - ALTES","brand":"Api-Ip","address":"SP331exSS158Dir  81016, PIEDIMONTE MATESE, CE","prices":[{"type":"petrol","price":1.816,"self":true,"updatedAt":"19/06/2026 18:46:24"},{"type":"diesel","price":1.946,"self":true,"updatedAt":"19/06/2026 18:46:24"},{"type":"lpg","price":0.719,"self":false,"updatedAt":"19/06/2026 18:46:24"}]},{"id":"17655","lat":41.35220805373461,"lon":14.37482145767217,"name":"PIEDIMONTE MATESE","brand":"Api-Ip","address":"VIA SALVO D'ACQUISTO 16 81016, PIEDIMONTE MATESE, CE","prices":[{"type":"petrol","price":1.799,"self":true,"updatedAt":"20/06/2026 09:04:27"},{"type":"diesel","price":1.929,"self":true,"updatedAt":"20/06/2026 09:04:27"}]},{"id":"60861","lat":41.340917,"lon":14.389488,"name":"Distributore San Potito Sannitico","brand":"Q8","address":"S.P. TELESINA KM 45 + 683  81010, SAN POTITO SANNITICO, CE","prices":[{"type":"petrol","price":1.829,"self":true,"updatedAt":"20/06/2026 10:45:00"},{"type":"diesel","price":1.959,"self":true,"updatedAt":"20/06/2026 10:45:00"}]}]