[{"id":"15891","lat":41.44313727999133,"lon":14.933744782947088,"name":"IAROSSI LUIGI","brand":"Api-Ip","address":"CORSO VITTORIO EMANUELE 12/B 82023, CASTELVETERE IN VAL FORTORE, BN","prices":[{"type":"petrol","price":1.999,"self":true,"updatedAt":"19/06/2026 06:39:34"},{"type":"diesel","price":2.099,"self":true,"updatedAt":"19/06/2026 06:39:34"}]},{"id":"42867","lat":41.32896377150498,"lon":14.791066919821787,"name":"IP GIEMME SRL","brand":"Api-Ip","address":"CONTRADA CAMPANARO 25 82020, CIRCELLO, BN","prices":[{"type":"petrol","price":1.979,"self":true,"updatedAt":"15/06/2026 09:32:41"},{"type":"diesel","price":2.019,"self":true,"updatedAt":"15/06/2026 09:32:41"}]},{"id":"8087","lat":41.37141196450326,"lon":14.841078221797943,"name":"AREA SERVIZIO IES","brand":"Pompe Bianche","address":"C.DA CROCELLA 4 82024, COLLE SANNITA, BN","prices":[{"type":"petrol","price":1.949,"self":true,"updatedAt":"16/06/2026 21:14:21"},{"type":"diesel","price":1.969,"self":true,"updatedAt":"16/06/2026 21:14:21"}]},{"id":"53604","lat":41.3522117,"lon":14.9770164,"name":"LUDOIL","brand":"Pompe Bianche","address":"NAZIONALE  82011, FOIANO DI VAL FORTORE, BN","prices":[{"type":"petrol","price":1.989,"self":true,"updatedAt":"16/06/2026 07:08:29"},{"type":"diesel","price":2.059,"self":true,"updatedAt":"16/06/2026 07:08:29"}]},{"id":"62655","lat":41.2545689,"lon":14.7794745,"name":"BONAVENTURA","brand":"Bianco Carburanti","address":"Via Querce 35  82020, FRAGNETO L'ABATE, BN","prices":[{"type":"petrol","price":1.996,"self":true,"updatedAt":"16/06/2026 08:03:43"},{"type":"diesel","price":2.059,"self":true,"updatedAt":"16/06/2026 08:03:43"}]},{"id":"53625","lat":41.29554250722981,"lon":14.906752109527588,"name":"IP - Molinara","brand":"Api-Ip","address":"via M. Iannariello 22 82020, MOLINARA, BN","prices":[{"type":"petrol","price":1.879,"self":false,"updatedAt":"20/06/2026 10:51:45"},{"type":"diesel","price":1.979,"self":false,"updatedAt":"20/06/2026 10:51:45"}]},{"id":"10207","lat":41.319603408795146,"lon":14.756408929824829,"name":"F.LLI GOLIA SAS","brand":"Pompe Bianche","address":"CUFFIANO 111 82026, MORCONE, BN","prices":[{"type":"petrol","price":1.899,"self":true,"updatedAt":"16/06/2026 19:35:56"},{"type":"diesel","price":1.999,"self":true,"updatedAt":"16/06/2026 19:35:56"}]},{"id":"26352","lat":41.29052349397969,"lon":14.818991574418078,"name":"calzone carburanti","brand":"Pompe Bianche","address":"via crocelle 22 82020, REINO, BN","prices":[{"type":"petrol","price":1.779,"self":true,"updatedAt":"20/06/2026 07:57:27"},{"type":"diesel","price":1.869,"self":true,"updatedAt":"20/06/2026 07:57:27"}]},{"id":"29645","lat":41.27077884070986,"lon":14.927457422018051,"name":"SAN GIORGIO LA MOLARA","brand":"Giap","address":"SP S.G.LA MOLARA PAGO VEIANO C.DA SAN MARCUCCIO  82022, SAN GIORGIO LA MOLARA, BN","prices":[{"type":"petrol","price":1.889,"self":true,"updatedAt":"20/06/2026 05:57:48"},{"type":"diesel","price":1.969,"self":true,"updatedAt":"20/06/2026 05:57:48"}]},{"id":"55621","lat":41.3075,"lon":14.87338,"name":"Area di servizio Q8 di Pomarico Antonio","brand":"Q8","address":"XXV APRILE 34 82029, SAN MARCO DEI CAVOTI, BN","prices":[{"type":"petrol","price":1.859,"self":true,"updatedAt":"19/06/2026 11:49:51"},{"type":"diesel","price":1.967,"self":true,"updatedAt":"19/06/2026 11:49:51"}]},{"id":"60802","lat":41.30824499731061,"lon":14.878578186035156,"name":"ENERGY SRLS","brand":"Api-Ip","address":"STATALE 369 SNC 82029, SAN MARCO DEI CAVOTI, BN","prices":[{"type":"petrol","price":1.997,"self":false,"updatedAt":"16/06/2026 11:48:37"},{"type":"diesel","price":2.157,"self":false,"updatedAt":"16/06/2026 11:48:37"}]},{"id":"32040","lat":41.47349621544184,"lon":14.838420152664185,"name":"Ga.li. snc","brand":"Esso","address":"Statale 212 della Val Fortore, Km. 57+150, dir. Riccia - 86016, RICCIA, CB","prices":[{"type":"petrol","price":1.869,"self":true,"updatedAt":"20/06/2026 07:35:51"},{"type":"diesel","price":1.959,"self":true,"updatedAt":"20/06/2026 07:35:51"},{"type":"lpg","price":0.849,"self":false,"updatedAt":"20/06/2026 07:35:51"}]},{"id":"16019","lat":41.45876280012019,"lon":14.811254739761353,"name":"PETROL GAMMA","brand":"Petrol Gamma","address":"C.DA STREPPONE SN 86016, RICCIA, CB","prices":[{"type":"petrol","price":1.938,"self":true,"updatedAt":"17/06/2026 09:24:49"},{"type":"diesel","price":1.998,"self":true,"updatedAt":"17/06/2026 09:24:49"}]},{"id":"60249","lat":41.48314,"lon":14.83181,"name":"RICCIA","brand":"Pompe Bianche","address":"S.S. 12 KM 68   86016, RICCIA, CB","prices":[{"type":"petrol","price":1.846,"self":true,"updatedAt":"21/06/2026 00:00:46"},{"type":"diesel","price":1.935,"self":true,"updatedAt":"21/06/2026 00:00:46"}]}]