[{"id":"61556","lat":41.26976,"lon":13.030555000000001,"name":"eni live Di Mauro Michela","brand":"Agip Eni","address":"MOROLENSE SNC 03010, PATRICA, FR","prices":[{"type":"petrol","price":1.799,"self":true,"updatedAt":"27/06/2026 12:55:42"},{"type":"diesel","price":1.879,"self":true,"updatedAt":"27/06/2026 12:55:42"},{"type":"lpg","price":0.769,"self":false,"updatedAt":"27/06/2026 12:55:42"}]},{"id":"51042","lat":41.392584093089326,"lon":13.09338081972303,"name":"Appia Carburanti di Trulli Paolo","brand":"Agip Eni","address":"s.s.7 Via Appia, Km. 84,233, Pontinia (LT) sc 04014, PONTINIA, LT","prices":[{"type":"petrol","price":1.814,"self":true,"updatedAt":"28/06/2026 01:25:35"},{"type":"diesel","price":1.909,"self":true,"updatedAt":"28/06/2026 01:25:35"},{"type":"lpg","price":0.747,"self":false,"updatedAt":"28/06/2026 01:25:35"}]},{"id":"53238","lat":41.422982,"lon":13.1743829,"name":"D'ALESSIO SALVATORE E FIGLI S.A.S.","brand":"Api-Ip","address":"MARITTIMA  KM. 7 2977 04014, PONTINIA, LT","prices":[{"type":"petrol","price":1.859,"self":true,"updatedAt":"26/06/2026 10:27:41"},{"type":"diesel","price":1.899,"self":true,"updatedAt":"26/06/2026 10:27:41"}]},{"id":"23170","lat":41.39133682777247,"lon":13.152088522911072,"name":"DISTRIBUTORE CARBURANTI D'ALESSIO PATRIZIA","brand":"Pompe Bianche","address":"VIA MARITTIMA II KM.3,456  04014, PONTINIA, LT","prices":[{"type":"petrol","price":1.819,"self":true,"updatedAt":"27/06/2026 07:55:55"},{"type":"diesel","price":1.919,"self":true,"updatedAt":"27/06/2026 07:55:55"}]},{"id":"46716","lat":41.37075593113293,"lon":13.124295440793835,"name":"Easy Service Pontinia","brand":"Energas","address":"Via Marittima II Migliara KM. 1,190 53 04014, PONTINIA, LT","prices":[{"type":"petrol","price":1.819,"self":true,"updatedAt":"28/06/2026 00:52:47"},{"type":"diesel","price":1.919,"self":true,"updatedAt":"28/06/2026 00:52:47"},{"type":"lpg","price":0.747,"self":false,"updatedAt":"28/06/2026 00:21:31"}]},{"id":"34034","lat":41.40902306756785,"lon":13.042576611042023,"name":"ENERPETROLI - PV PONTINIA - LT","brand":"Enerpetroli","address":"VIA GIULIO CESARE 5 04014, PONTINIA, LT","prices":[{"type":"petrol","price":1.799,"self":true,"updatedAt":"24/06/2026 17:04:56"},{"type":"diesel","price":1.899,"self":true,"updatedAt":"24/06/2026 17:04:56"}]},{"id":"50850","lat":41.41175380110611,"lon":13.042118946864809,"name":"ESSO - PONTINIA VIA NAPOLI, 82","brand":"Esso","address":"VIA NAPOLI 82 04014, PONTINIA, LT","prices":[{"type":"petrol","price":1.739,"self":true,"updatedAt":"28/06/2026 07:42:52"},{"type":"diesel","price":2.079,"self":true,"updatedAt":"28/06/2026 07:42:52"}]},{"id":"7391","lat":41.408814736475115,"lon":13.04794673598144,"name":"MARANGONI ANDREA","brand":"7sette","address":"VIA CAVOUR 87 04014, PONTINIA (LT) 87 04014, PONTINIA, LT","prices":[{"type":"petrol","price":1.799,"self":true,"updatedAt":"25/06/2026 15:42:20"},{"type":"diesel","price":1.899,"self":true,"updatedAt":"25/06/2026 15:42:20"}]},{"id":"30198","lat":41.415102471661285,"lon":13.038764255819729,"name":"PONTINIA","brand":"Api-Ip","address":"VIA TRIESTE 100 04014, PONTINIA, LT","prices":[{"type":"petrol","price":1.794,"self":true,"updatedAt":"28/06/2026 00:46:02"},{"type":"diesel","price":1.884,"self":true,"updatedAt":"28/06/2026 00:46:02"}]},{"id":"18544","lat":41.40843872709248,"lon":13.045478651514259,"name":"STAZIONE IP","brand":"Api-Ip","address":"CAVOUR 22/A 04014, PONTINIA, LT","prices":[{"type":"petrol","price":1.817,"self":true,"updatedAt":"27/06/2026 21:47:31"},{"type":"diesel","price":1.917,"self":true,"updatedAt":"27/06/2026 21:47:31"}]},{"id":"58348","lat":41.474583,"lon":13.167141,"name":"16748  PRIVERNO","brand":"Agip Eni","address":"VIA MADONNA DELLE GRAZIE  KM. 3,300, PRIVERNO, LT","prices":[{"type":"petrol","price":1.829,"self":true,"updatedAt":"28/06/2026 01:08:08"},{"type":"diesel","price":1.889,"self":true,"updatedAt":"28/06/2026 01:08:08"},{"type":"lpg","price":0.757,"self":false,"updatedAt":"28/06/2026 00:07:39"}]},{"id":"50300","lat":41.482994545447085,"lon":13.17495498895493,"name":"4767","brand":"Tamoil","address":"MARITTIMA II KM.13+170 SNC 04015, PRIVERNO, LT","prices":[{"type":"petrol","price":1.829,"self":true,"updatedAt":"27/06/2026 23:32:39"},{"type":"diesel","price":1.889,"self":true,"updatedAt":"27/06/2026 23:32:39"}]},{"id":"45273","lat":41.462163179656145,"lon":13.194970986508224,"name":"8116","brand":"Tamoil","address":"MARITTIMA KM. 16+465 SNC 04015, PRIVERNO, LT","prices":[{"type":"petrol","price":1.829,"self":true,"updatedAt":"28/06/2026 00:17:22"},{"type":"diesel","price":1.889,"self":true,"updatedAt":"28/06/2026 00:17:22"}]},{"id":"57971","lat":41.4684401,"lon":13.1869202,"name":"FULGOROIL PRIVERNO VIA DELLA GROTTA","brand":"FulgorOil","address":"DELLA GROTTA 272 04015, PRIVERNO, LT","prices":[{"type":"petrol","price":1.827,"self":true,"updatedAt":"25/06/2026 16:28:52"},{"type":"diesel","price":1.897,"self":true,"updatedAt":"25/06/2026 16:28:52"}]},{"id":"57970","lat":41.4695309,"lon":13.1783213,"name":"FULGOROIL VIA PROF. ANTONIO CARADONNA","brand":"FulgorOil","address":"ANTONIO CARADONNA KM 1,100 SNC 04015, PRIVERNO, LT","prices":[{"type":"petrol","price":1.827,"self":true,"updatedAt":"25/06/2026 16:29:13"},{"type":"diesel","price":1.897,"self":true,"updatedAt":"25/06/2026 16:29:13"}]},{"id":"53574","lat":41.49952073422428,"lon":13.221738159897084,"name":"priverno","brand":"FulgorOil","address":"S.R.156 KM 22,900 LATO DX SNC 04015, PRIVERNO, LT","prices":[{"type":"petrol","price":1.778,"self":true,"updatedAt":"25/06/2026 13:48:24"},{"type":"diesel","price":1.887,"self":true,"updatedAt":"25/06/2026 13:48:24"},{"type":"lpg","price":0.727,"self":false,"updatedAt":"25/06/2026 13:48:24"}]},{"id":"35108","lat":41.48609124947742,"lon":13.134151250123978,"name":"Sette Priverno","brand":"7sette","address":"Statale 156 dei Monti Lepini, Km. 30+3, dir. latina  04015, PRIVERNO, LT","prices":[{"type":"petrol","price":1.769,"self":true,"updatedAt":"28/06/2026 00:10:02"},{"type":"diesel","price":1.849,"self":true,"updatedAt":"28/06/2026 00:10:02"}]},{"id":"4054","lat":41.46487847415597,"lon":13.200289124145456,"name":"ROCCASECCA D.V.","brand":"Fiamma 2000","address":"VIA N.S.A. 255 DELL'ABBAZIA  DI FOSSANOVAKM. 16,756 LATO SX 04010, ROCCASECCA DEI VOLSCI (LT)  04010, ROCCASECCA DEI VOLSCI, LT","prices":[{"type":"petrol","price":1.839,"self":true,"updatedAt":"26/06/2026 09:10:35"},{"type":"diesel","price":1.939,"self":true,"updatedAt":"26/06/2026 09:10:35"},{"type":"lpg","price":0.729,"self":false,"updatedAt":"26/06/2026 09:10:35"}]},{"id":"58397","lat":41.39685,"lon":13.00165,"name":"54033  BORGO SAN DONATO","brand":"Agip Eni","address":"VIA MEDIANA KM 9,360 BORGO SAN DONATO, SABAUDIA, LT","prices":[{"type":"petrol","price":1.809,"self":true,"updatedAt":"28/06/2026 01:09:12"},{"type":"diesel","price":1.889,"self":true,"updatedAt":"28/06/2026 01:09:12"}]},{"id":"38485","lat":41.34250439079262,"lon":13.075630143284798,"name":"Easy sabaudia","brand":"Esso","address":"ss 148 Pontina km 91+700  04016, SABAUDIA, LT","prices":[{"type":"petrol","price":1.798,"self":true,"updatedAt":"28/06/2026 01:35:47"},{"type":"diesel","price":1.888,"self":true,"updatedAt":"28/06/2026 01:35:47"},{"type":"lpg","price":0.739,"self":false,"updatedAt":"28/06/2026 00:18:58"}]},{"id":"22877","lat":41.2983987,"lon":13.1034338,"name":"gestioniep","brand":"Agip Eni","address":"SS148 8101 04016, SABAUDIA, LT","prices":[{"type":"petrol","price":1.814,"self":true,"updatedAt":"28/06/2026 01:07:07"},{"type":"diesel","price":1.909,"self":true,"updatedAt":"28/06/2026 01:07:07"},{"type":"lpg","price":0.747,"self":false,"updatedAt":"28/06/2026 00:05:35"}]},{"id":"20916","lat":41.302631744826236,"lon":13.028732836219206,"name":"IP Sabaudia","brand":"Api-Ip","address":"CORSO VITTORIO EMANUELE II SNC 04016, SABAUDIA (LT) snc 04016, SABAUDIA, LT","prices":[{"type":"petrol","price":1.819,"self":true,"updatedAt":"28/06/2026 01:36:08"},{"type":"diesel","price":1.919,"self":true,"updatedAt":"28/06/2026 01:36:07"}]},{"id":"40819","lat":41.33274732194483,"lon":13.085974752902985,"name":"ITALIANA PETROLI","brand":"Api-Ip","address":"Statale 148 Pontina, Km. 93, dir. LATINA - 04016, SABAUDIA, LT","prices":[{"type":"petrol","price":1.834,"self":true,"updatedAt":"25/06/2026 06:19:59"},{"type":"diesel","price":1.914,"self":true,"updatedAt":"25/06/2026 06:19:59"}]},{"id":"25212","lat":41.30967467846171,"lon":13.039049506187439,"name":"Massimo Ceccarelli","brand":"Agip Eni","address":"VIA PRINCIPE BIANCAMANO S.N.C. 04016, SABAUDIA, LT","prices":[{"type":"petrol","price":1.814,"self":true,"updatedAt":"28/06/2026 00:12:11"},{"type":"diesel","price":1.909,"self":true,"updatedAt":"28/06/2026 00:12:11"}]},{"id":"6969","lat":41.34347822510331,"lon":13.0140620470047,"name":"roberto zannoni","brand":"Api-Ip","address":"VIA LITORANEA 7168 04016, SABAUDIA (LT) 108 04016, SABAUDIA, LT","prices":[{"type":"petrol","price":1.81,"self":true,"updatedAt":"28/06/2026 07:49:11"},{"type":"diesel","price":1.89,"self":true,"updatedAt":"28/06/2026 07:49:11"}]},{"id":"59956","lat":41.3015672,"lon":13.0258726,"name":"SABAUDIA","brand":"Pompe Bianche","address":"Strada Provinciale Litoranea KM 11 + 240  SNC 04016, SABAUDIA, LT","prices":[{"type":"petrol","price":1.666,"self":true,"updatedAt":"27/06/2026 23:30:42"},{"type":"diesel","price":1.644,"self":true,"updatedAt":"27/06/2026 23:30:42"}]},{"id":"46452","lat":41.31719894799958,"lon":13.094311925638294,"name":"SHELL","brand":"Shell","address":"148 Pontina, Km. 94,705, roma - 04016, SABAUDIA, LT","prices":[{"type":"petrol","price":1.819,"self":true,"updatedAt":"25/06/2026 06:20:23"},{"type":"diesel","price":1.899,"self":true,"updatedAt":"25/06/2026 06:20:23"},{"type":"lpg","price":0.824,"self":false,"updatedAt":"25/06/2026 06:20:23"}]},{"id":"29944","lat":41.30615441497443,"lon":13.034425377845764,"name":"TOTALERG","brand":"Api-Ip","address":"VIA PRINCIPE BIANCAMANO 24/26 - SABAUDIA (LT), SABAUDIA, LT","prices":[{"type":"petrol","price":1.854,"self":true,"updatedAt":"24/06/2026 17:06:09"},{"type":"diesel","price":1.959,"self":true,"updatedAt":"24/06/2026 17:06:08"}]},{"id":"15161","lat":41.33777773253952,"lon":13.10399229934751,"name":"TOTALERG aldo&pierluigi crivellaro","brand":"Api-Ip","address":"PIAZZA  CENTRALE, BORGO VODICE 22 04016, SABAUDIA, LT","prices":[{"type":"petrol","price":1.799,"self":true,"updatedAt":"28/06/2026 00:43:22"},{"type":"diesel","price":1.869,"self":true,"updatedAt":"28/06/2026 00:43:22"}]},{"id":"34366","lat":41.27739082201391,"lon":13.10100719332695,"name":"PETROL GAMMA","brand":"Petrol Gamma","address":"VIA MOLELLA 13 04017, SAN FELICE CIRCEO, LT","prices":[{"type":"petrol","price":1.809,"self":true,"updatedAt":"27/06/2026 07:26:39"},{"type":"diesel","price":1.909,"self":true,"updatedAt":"27/06/2026 07:26:39"}]},{"id":"6137","lat":41.48710954821878,"lon":13.034318089485168,"name":"Arcese","brand":"Agip Eni","address":"Statale 156 dei Monti Lepini, Km. 40+700, dir. latina  04010, SEZZE, LT","prices":[{"type":"petrol","price":1.779,"self":true,"updatedAt":"26/06/2026 14:13:51"},{"type":"diesel","price":1.879,"self":true,"updatedAt":"26/06/2026 14:13:51"}]},{"id":"35282","lat":41.49312377551564,"lon":13.031956674240064,"name":"DI TRAPANO ANDREA","brand":"Agip Eni","address":"VIA ARCHI DI SAN LIDANO SNC 04018, SEZZE, LT","prices":[{"type":"petrol","price":1.824,"self":true,"updatedAt":"27/06/2026 19:10:05"},{"type":"diesel","price":1.884,"self":true,"updatedAt":"27/06/2026 19:10:05"},{"type":"lpg","price":0.742,"self":false,"updatedAt":"28/06/2026 00:08:02"}]},{"id":"33094","lat":41.4380533010353,"lon":13.064344078302383,"name":"ENERPETROLI - PV SEZZE - LT","brand":"Enerpetroli","address":"STRADA MIGLIARA 47 1 04018, SEZZE, LT","prices":[{"type":"petrol","price":1.779,"self":true,"updatedAt":"25/06/2026 15:21:06"},{"type":"diesel","price":1.879,"self":true,"updatedAt":"25/06/2026 15:21:06"},{"type":"lpg","price":0.769,"self":false,"updatedAt":"25/06/2026 15:21:06"}]},{"id":"53667","lat":41.42993,"lon":13.04536,"name":"Sezze 2","brand":"Fiamma 2000","address":"APPIA KM. 78,510 SNC 04018, SEZZE, LT","prices":[{"type":"petrol","price":1.799,"self":true,"updatedAt":"27/06/2026 23:22:36"},{"type":"diesel","price":1.869,"self":true,"updatedAt":"27/06/2026 23:22:36"},{"type":"lpg","price":0.739,"self":false,"updatedAt":"27/06/2026 23:22:36"}]},{"id":"11626","lat":41.48547990694183,"lon":13.033253644180263,"name":"SEZZE-LOC.SCALO SS. 156 KM.43+317","brand":"Q8","address":"LOC.SCALO SS. 156 KM.43+317 S/N 04010, SEZZE, LT","prices":[{"type":"petrol","price":1.779,"self":true,"updatedAt":"24/06/2026 01:42:34"},{"type":"diesel","price":1.879,"self":true,"updatedAt":"24/06/2026 01:42:34"}]},{"id":"58242","lat":41.499648936518675,"lon":13.060594748548851,"name":"SEZZENI003145","brand":"Api-Ip","address":"Via San Leonardo  1 04018, SEZZE, LT","prices":[{"type":"petrol","price":1.779,"self":true,"updatedAt":"27/06/2026 23:43:45"},{"type":"diesel","price":1.899,"self":true,"updatedAt":"27/06/2026 23:43:45"}]},{"id":"25568","lat":41.495996122480115,"lon":13.041431298885527,"name":"SP SETINA SEZZE","brand":"Giap","address":"S.P. SETINA C.SO DELLA REPUBBLICA  04018, SEZZE, LT","prices":[{"type":"petrol","price":1.779,"self":true,"updatedAt":"27/06/2026 05:59:15"},{"type":"diesel","price":1.879,"self":true,"updatedAt":"27/06/2026 05:59:15"}]},{"id":"62529","lat":41.4978211081714,"lon":13.045932558791357,"name":"Stazione di Servizio IP Sezze Scalo","brand":"Api-Ip","address":"Via Calabria  04018, SEZZE, LT","prices":[{"type":"petrol","price":1.799,"self":true,"updatedAt":"25/06/2026 23:26:12"},{"type":"diesel","price":1.899,"self":true,"updatedAt":"25/06/2026 23:26:12"}]},{"id":"41292","lat":41.433365734472815,"lon":13.194850941104505,"name":"4814","brand":"Tamoil","address":"S.P. SONNINESE KM 0,450 - 04010, SONNINO, LT","prices":[{"type":"petrol","price":1.829,"self":true,"updatedAt":"28/06/2026 00:48:57"},{"type":"diesel","price":1.889,"self":true,"updatedAt":"28/06/2026 00:48:57"}]},{"id":"36335","lat":41.41547941970788,"lon":13.242434710264206,"name":"EURO 2009 S.A.S. DI GIANFELICE STEFANIA & CO.","brand":"Petrol Gamma","address":"VIA SAN FRANCESCO 164 04010, SONNINO, LT","prices":[{"type":"petrol","price":1.838,"self":true,"updatedAt":"23/06/2026 21:17:33"},{"type":"diesel","price":1.898,"self":true,"updatedAt":"23/06/2026 21:17:33"}]},{"id":"53426","lat":41.40552399623715,"lon":13.204850146751408,"name":"ITALMARE SONNINO","brand":"Pompe Bianche","address":"255 KM 9+800 SNC 04010, SONNINO, LT","prices":[{"type":"petrol","price":1.797,"self":true,"updatedAt":"27/06/2026 12:57:27"},{"type":"diesel","price":1.877,"self":true,"updatedAt":"27/06/2026 12:57:27"},{"type":"lpg","price":0.737,"self":false,"updatedAt":"27/06/2026 12:57:27"}]},{"id":"54166","lat":41.40569808543889,"lon":13.203876614570618,"name":"PERFILISTATION SONNINO","brand":"Q8","address":"VIA S.S. 699 \"DELL'ABBAZIA DI FOSSANOVA\" KM 9+850 SNC 04010, SONNINO (LT) snc 04010, SONNINO, LT","prices":[{"type":"petrol","price":1.829,"self":true,"updatedAt":"27/06/2026 07:00:49"},{"type":"diesel","price":1.889,"self":true,"updatedAt":"27/06/2026 07:00:49"},{"type":"lpg","price":0.759,"self":false,"updatedAt":"27/06/2026 07:00:49"}]},{"id":"28075","lat":41.28695725359433,"lon":13.202262595295906,"name":"Area Servizio Veneta Group","brand":"Pompe Bianche","address":"Statale 148 Pontina, Km. 106.300, dir. Nord - 04019, TERRACINA, LT","prices":[{"type":"petrol","price":1.797,"self":true,"updatedAt":"23/06/2026 16:12:35"},{"type":"diesel","price":1.888,"self":true,"updatedAt":"23/06/2026 16:12:35"}]},{"id":"36131","lat":41.288303359006974,"lon":13.22048082947731,"name":"Cammisola lucio & f.lli s.n.c.","brand":"Agip Eni","address":"VIA BADINO KM. 2,200 SNC 04019, TERRACINA, LT","prices":[{"type":"petrol","price":1.819,"self":true,"updatedAt":"28/06/2026 00:09:55"},{"type":"diesel","price":1.904,"self":true,"updatedAt":"28/06/2026 00:09:55"}]},{"id":"40769","lat":41.28841823720626,"lon":13.220075815916061,"name":"CAMMISOLA SNC - GASAUTO","brand":"Pompe Bianche","address":"VIA BADINO KM. 2,200 SNC 04019, TERRACINA, LT","prices":[{"type":"lpg","price":0.759,"self":false,"updatedAt":"27/06/2026 09:14:47"}]},{"id":"56217","lat":41.28726,"lon":13.20409,"name":"EASY SERVICE TERRACINA 148","brand":"Esso","address":"Via Pontina km 106  04019, TERRACINA, LT","prices":[{"type":"petrol","price":1.797,"self":true,"updatedAt":"28/06/2026 01:35:58"},{"type":"diesel","price":1.888,"self":true,"updatedAt":"28/06/2026 01:35:58"},{"type":"lpg","price":0.749,"self":false,"updatedAt":"28/06/2026 00:19:33"}]},{"id":"38261","lat":41.29184433613928,"lon":13.245438784360886,"name":"Easy Terracina","brand":"Esso","address":"Via Appia km. 101,40  04019, TERRACINA, LT","prices":[{"type":"petrol","price":1.799,"self":true,"updatedAt":"28/06/2026 01:36:09"},{"type":"diesel","price":1.899,"self":true,"updatedAt":"28/06/2026 01:36:09"}]},{"id":"61976","lat":41.31033,"lon":13.0977,"name":"ENGY S \"TERRACINA\"","brand":"Api-Ip","address":"SS148 snc 04019, TERRACINA, LT","prices":[{"type":"petrol","price":1.837,"self":true,"updatedAt":"23/06/2026 16:52:26"},{"type":"diesel","price":1.917,"self":true,"updatedAt":"23/06/2026 16:52:26"}]},{"id":"59500","lat":41.28322453276436,"lon":13.179473876953125,"name":"Eni D'Alesio Massimo via Pontina","brand":"Agip Eni","address":"41.28322453276436 Km 104,100 04019, TERRACINA, LT","prices":[{"type":"petrol","price":1.799,"self":true,"updatedAt":"27/06/2026 10:02:52"},{"type":"diesel","price":1.879,"self":true,"updatedAt":"27/06/2026 10:02:52"},{"type":"lpg","price":0.749,"self":false,"updatedAt":"27/06/2026 10:02:52"}]},{"id":"43623","lat":41.29068453242654,"lon":13.141836524009705,"name":"Eni Massimo D'Alesio","brand":"Agip Eni","address":"VIA S. P. MIGLIARA 58 (LOC. MACCHIA DI PIANO) SNC 04019, TERRACINA (LT) SNC 04019, TERRACINA, LT","prices":[{"type":"petrol","price":1.799,"self":true,"updatedAt":"27/06/2026 12:01:50"},{"type":"diesel","price":1.879,"self":true,"updatedAt":"27/06/2026 12:01:50"},{"type":"lpg","price":0.749,"self":false,"updatedAt":"27/06/2026 12:01:50"}]},{"id":"50130","lat":41.29058321726024,"lon":13.24862436172638,"name":"G & B SNC DI BUFFONI GIUSEPPE","brand":"Agip Eni","address":"Via Roma 35 04019, TERRACINA, LT","prices":[{"type":"petrol","price":1.809,"self":true,"updatedAt":"27/06/2026 23:51:13"},{"type":"diesel","price":1.894,"self":true,"updatedAt":"28/06/2026 07:04:01"}]},{"id":"61047","lat":41.3109358,"lon":13.16923,"name":"IP","brand":"Itala Petroli","address":"C. BATTISTI SNC 04019, TERRACINA, LT","prices":[{"type":"petrol","price":1.799,"self":true,"updatedAt":"27/06/2026 09:21:04"},{"type":"diesel","price":1.899,"self":true,"updatedAt":"27/06/2026 09:21:04"}]},{"id":"54165","lat":41.31832781175158,"lon":13.188551960010523,"name":"PERFILISTATION TERRACINA","brand":"Agip Eni","address":"VIA S.S. 7 \"APPIA\" KM 95+722 SNC 04019, TERRACINA (LT) snc 04019, TERRACINA, LT","prices":[{"type":"petrol","price":1.799,"self":true,"updatedAt":"28/06/2026 07:31:08"},{"type":"diesel","price":1.889,"self":true,"updatedAt":"28/06/2026 07:31:08"},{"type":"methane","price":1.699,"self":false,"updatedAt":"28/06/2026 07:31:09"},{"type":"lpg","price":0.749,"self":false,"updatedAt":"28/06/2026 07:31:09"}]},{"id":"42519","lat":41.28573793441606,"lon":13.193183273316208,"name":"PETROL GAMMA S.S. 148","brand":"Petrol Gamma","address":"strada statale 148 pontina km 105+500  04019, TERRACINA, LT","prices":[{"type":"petrol","price":1.797,"self":true,"updatedAt":"26/06/2026 15:03:40"},{"type":"diesel","price":1.887,"self":true,"updatedAt":"26/06/2026 15:03:40"}]},{"id":"41387","lat":41.36506738635489,"lon":13.192890286445618,"name":"PETROL GAMMA VIA MIGLIARA","brand":"Petrol Gamma","address":"strada migliara  04019, TERRACINA, LT","prices":[{"type":"petrol","price":1.807,"self":true,"updatedAt":"26/06/2026 15:02:10"},{"type":"diesel","price":1.907,"self":true,"updatedAt":"26/06/2026 15:02:10"}]},{"id":"10116","lat":41.28445784572167,"lon":13.141296654939651,"name":"TERRACINA","brand":"Api-Ip","address":"Borgo Hermada S.S. 148   04019, TERRACINA, LT","prices":[{"type":"petrol","price":1.809,"self":true,"updatedAt":"27/06/2026 09:15:05"},{"type":"diesel","price":1.889,"self":true,"updatedAt":"27/06/2026 09:15:05"}]},{"id":"16778","lat":41.283947713720224,"lon":13.186785578727722,"name":"TERRACINA VIA PONTINA KM. 104,685","brand":"Q8","address":"VIA PONTINA KM. 104,685  04019, TERRACINA, LT","prices":[{"type":"petrol","price":1.777,"self":true,"updatedAt":"26/06/2026 01:41:35"},{"type":"diesel","price":1.879,"self":true,"updatedAt":"26/06/2026 16:07:10"}]}]