[{"id":"51791","lat":41.73731775157919,"lon":14.040434479263377,"name":"ARCHE' ALFEDENA","brand":"Pompe Bianche","address":"83 Marsicana, Km. 76+240, CASTEL DI SANGRO - 67030, ALFEDENA, AQ","prices":[{"type":"petrol","price":1.829,"self":true,"updatedAt":"24/06/2026 11:18:05"},{"type":"diesel","price":1.929,"self":true,"updatedAt":"24/06/2026 11:18:05"}]},{"id":"62237","lat":41.6218164,"lon":14.2325753,"name":"4715","brand":"Tamoil","address":"Viale 3 Marzo 1970  86170, ACQUAVIVA D'ISERNIA, IS","prices":[{"type":"petrol","price":1.829,"self":true,"updatedAt":"29/06/2026 00:31:45"},{"type":"diesel","price":1.979,"self":true,"updatedAt":"29/06/2026 00:31:45"}]},{"id":"41739","lat":41.59856881209675,"lon":14.100184422198481,"name":"area servizio Savaiano Carmelina","brand":"Esso","address":"SS158KM28+500 SNC 86073, COLLI A VOLTURNO, IS","prices":[{"type":"petrol","price":1.849,"self":true,"updatedAt":"27/06/2026 07:01:42"},{"type":"diesel","price":1.949,"self":true,"updatedAt":"27/06/2026 07:01:42"}]},{"id":"31165","lat":41.62177064871131,"lon":14.232608377933502,"name":"Area di Servizio ESSO","brand":"Esso","address":"Statale 17 dell'Appennino Abruzzese e Appulo Sannitica, Km. 10+100, dir. Castel di Sangro - 86084, FORLÌ DEL SANNIO, IS","prices":[{"type":"petrol","price":1.809,"self":true,"updatedAt":"29/06/2026 07:45:09"},{"type":"diesel","price":1.909,"self":true,"updatedAt":"29/06/2026 07:45:09"}]},{"id":"38178","lat":41.59484169690507,"lon":14.144138395786285,"name":"TEDESCHI CARBURANTI","brand":"Pompe Bianche","address":"via bivio  14 86070, FORNELLI, IS","prices":[{"type":"petrol","price":1.889,"self":true,"updatedAt":"23/06/2026 13:30:21"},{"type":"diesel","price":1.959,"self":true,"updatedAt":"23/06/2026 13:30:21"}]},{"id":"59169","lat":41.599422,"lon":14.237062,"name":"54561  ISERNIA","brand":"Agip Eni","address":"VIA XXIV MAGGIO  SNC, ISERNIA, IS","prices":[{"type":"petrol","price":1.839,"self":true,"updatedAt":"28/06/2026 01:16:25"},{"type":"diesel","price":1.909,"self":true,"updatedAt":"28/06/2026 01:16:25"}]},{"id":"42371","lat":41.60024018035497,"lon":14.238031804561615,"name":"ENI 07260- 26725","brand":"Agip Eni","address":"CORSO G. GARIBALDI 345 86170, ISERNIA, IS","prices":[{"type":"petrol","price":1.819,"self":true,"updatedAt":"28/06/2026 22:58:06"},{"type":"diesel","price":1.909,"self":true,"updatedAt":"28/06/2026 22:58:06"}]},{"id":"21294","lat":41.585167265167534,"lon":14.223455339670181,"name":"ip gruppo api","brand":"Api-Ip","address":"VIA OCCIDENTALE  86170, ISERNIA, IS","prices":[{"type":"petrol","price":1.868,"self":true,"updatedAt":"24/06/2026 19:23:04"},{"type":"diesel","price":1.958,"self":true,"updatedAt":"24/06/2026 19:23:04"}]},{"id":"56303","lat":41.609396946636004,"lon":14.238913237945576,"name":"IP ISERNIA","brand":"Api-Ip","address":"3 MARZO 1970 SNC 86170, ISERNIA, IS","prices":[{"type":"petrol","price":1.799,"self":true,"updatedAt":"06/05/2026 23:33:11"},{"type":"diesel","price":1.999,"self":true,"updatedAt":"06/05/2026 23:33:11"}]},{"id":"62656","lat":41.6103541,"lon":14.238436,"name":"ISERNIA VIALE 3 MARZO 1970","brand":"Q8","address":"Viale 3 Marzo 1970 SNC  86170, ISERNIA, IS","prices":[{"type":"petrol","price":1.819,"self":true,"updatedAt":"26/06/2026 16:38:19"},{"type":"diesel","price":1.909,"self":true,"updatedAt":"26/06/2026 16:38:19"}]},{"id":"35581","lat":41.593904417035326,"lon":14.233370288954916,"name":"MED OIL 47963 Isernia","brand":"Api-Ip","address":"VIA VIA L.STURZO 13 86170, ISERNIA (IS) 13 86170, ISERNIA, IS","prices":[{"type":"petrol","price":1.839,"self":true,"updatedAt":"26/06/2026 15:17:38"},{"type":"diesel","price":1.939,"self":true,"updatedAt":"26/06/2026 15:17:38"}]},{"id":"54703","lat":41.5808051,"lon":14.2176022,"name":"Petrol Gamma","brand":"Petrol Gamma","address":"Via S. Ippolito snc 86170, ISERNIA, IS","prices":[{"type":"petrol","price":1.879,"self":true,"updatedAt":"24/06/2026 09:01:45"},{"type":"diesel","price":1.957,"self":true,"updatedAt":"24/06/2026 09:01:45"}]},{"id":"21972","lat":41.59820375516816,"lon":14.245028443369279,"name":"Petrol gamma","brand":"Petrol Gamma","address":"CORSO RISORGIMENTO 333 86170, ISERNIA, IS","prices":[{"type":"petrol","price":1.932,"self":false,"updatedAt":"26/06/2026 07:51:46"},{"type":"diesel","price":2.01,"self":false,"updatedAt":"26/06/2026 07:51:46"}]},{"id":"47844","lat":41.60129991738406,"lon":14.243688322603697,"name":"Petrol gamma Pentri","brand":"Petrol Gamma","address":"viale dei pentri  155 86170, ISERNIA, IS","prices":[{"type":"petrol","price":1.857,"self":true,"updatedAt":"26/06/2026 09:30:03"},{"type":"diesel","price":1.957,"self":true,"updatedAt":"26/06/2026 09:30:03"}]},{"id":"53840","lat":41.56371446266698,"lon":14.19037477776186,"name":"Eni Macchia","brand":"Agip Eni","address":"SS85 snc 86070, MACCHIA D'ISERNIA, IS","prices":[{"type":"petrol","price":1.899,"self":true,"updatedAt":"28/06/2026 23:33:51"},{"type":"diesel","price":1.977,"self":true,"updatedAt":"28/06/2026 23:33:51"},{"type":"lpg","price":0.879,"self":false,"updatedAt":"28/06/2026 23:33:51"}]},{"id":"15643","lat":41.55782523894539,"lon":14.171614944934845,"name":"MED OIL 48076 Macchia D'Isernia","brand":"Api-Ip","address":"VIA SS 85 VENAFRANA KM. 34+600 S. N.C. 86070, MACCHIA D'ISERNIA (IS)  86070, MACCHIA D'ISERNIA, IS","prices":[{"type":"petrol","price":1.818,"self":true,"updatedAt":"26/06/2026 16:40:46"},{"type":"diesel","price":1.898,"self":true,"updatedAt":"26/06/2026 16:40:46"}]},{"id":"22285","lat":41.5226352902646,"lon":14.129393052045202,"name":"MONTAQUILA LOC. ROCCARAVINDOLA VIA TAVERNA 19 - SS 158","brand":"Q8","address":"VIA TAVERNA - SS 158 19 86070, MONTAQUILA, IS","prices":[{"type":"petrol","price":1.849,"self":true,"updatedAt":"26/06/2026 01:41:54"},{"type":"diesel","price":1.928,"self":true,"updatedAt":"26/06/2026 16:07:26"}]},{"id":"46948","lat":41.5460635585504,"lon":14.124689164024971,"name":"PETROL GAMMA","brand":"Petrol Gamma","address":"158 della Valle del Volturno, Km. 36+900, montaquila - 86070, MONTAQUILA, IS","prices":[{"type":"petrol","price":1.849,"self":true,"updatedAt":"27/06/2026 09:42:09"},{"type":"diesel","price":1.928,"self":true,"updatedAt":"27/06/2026 09:42:09"}]},{"id":"44816","lat":41.52953836850667,"lon":14.153954684734344,"name":"Eni Monteroduni","brand":"Agip Eni","address":"VIA CERQUELLE SNC 86075, MONTERODUNI, IS","prices":[{"type":"petrol","price":1.829,"self":true,"updatedAt":"28/06/2026 23:36:53"},{"type":"diesel","price":1.929,"self":true,"updatedAt":"28/06/2026 23:36:53"}]},{"id":"54455","lat":41.6923401,"lon":14.2279672,"name":"Petrol Gamma - Pietrabbondante","brand":"Petrol Gamma","address":"PROV F.DO VALLE VERRINO KM.4+850 86085, PIETRABBONDANTE, IS","prices":[{"type":"petrol","price":1.839,"self":true,"updatedAt":"26/06/2026 08:42:35"},{"type":"diesel","price":1.734,"self":true,"updatedAt":"26/06/2026 08:42:35"}]},{"id":"60778","lat":41.51333070063706,"lon":14.11902758728027,"name":"NTE Pozzilli","brand":"Pompe Bianche","address":"SS 85 Venafrana KM 27+725  86070, POZZILLI, IS","prices":[{"type":"lpg","price":0.779,"self":false,"updatedAt":"25/06/2026 14:16:40"}]},{"id":"60245","lat":41.5016911,"lon":14.0596673,"name":"POZZILLI","brand":"Pompe Bianche","address":"Strada Comunale Pozzilli SNC 86077, POZZILLI, IS","prices":[{"type":"petrol","price":1.807,"self":true,"updatedAt":"29/06/2026 00:28:57"},{"type":"diesel","price":1.896,"self":true,"updatedAt":"29/06/2026 00:28:57"}]},{"id":"33626","lat":41.72163209755997,"lon":14.122962355613708,"name":"ENERGAS IS003","brand":"Q8","address":"Statale 652 di Fondo Valle Sangro, Km. 11+400, dir. VENAFRO-NAPOLI 1 86087, RIONERO SANNITICO, IS","prices":[{"type":"petrol","price":1.829,"self":true,"updatedAt":"28/06/2026 20:39:54"},{"type":"diesel","price":1.929,"self":true,"updatedAt":"28/06/2026 20:39:54"},{"type":"lpg","price":0.789,"self":false,"updatedAt":"28/06/2026 20:39:54"}]}]