[{"id":"49235","lat":41.70367395716098,"lon":14.90377351641655,"name":"BONEFRO","brand":"Pompe Bianche","address":"S.P. 166 BONEFRO CASACALENDA   86041, BONEFRO, CB","prices":[{"type":"petrol","price":1.839,"self":true,"updatedAt":"27/06/2026 17:20:58"},{"type":"diesel","price":1.929,"self":true,"updatedAt":"27/06/2026 17:20:58"}]},{"id":"24328","lat":41.73782692049675,"lon":14.846251988746644,"name":"Ip","brand":"Api-Ip","address":"VIA ROMA 0 86043, CASACALENDA, CB","prices":[{"type":"petrol","price":1.819,"self":true,"updatedAt":"01/07/2026 00:04:25"},{"type":"diesel","price":1.919,"self":true,"updatedAt":"01/07/2026 00:04:25"}]},{"id":"60246","lat":41.66165,"lon":14.96773,"name":"COLLETORTO","brand":"Pompe Bianche","address":"Corso Vittorio Emanuele SNC 86040, COLLETORTO, CB","prices":[{"type":"petrol","price":1.816,"self":true,"updatedAt":"30/06/2026 23:37:27"},{"type":"diesel","price":1.885,"self":true,"updatedAt":"30/06/2026 23:37:27"}]},{"id":"51079","lat":41.657019063127954,"lon":14.96598803452598,"name":"FERRANTE Carburanti","brand":"Pompe Bianche","address":"ALDO MORO 40-46 86044, COLLETORTO, CB","prices":[{"type":"petrol","price":1.829,"self":true,"updatedAt":"29/06/2026 08:14:44"},{"type":"diesel","price":1.909,"self":true,"updatedAt":"29/06/2026 08:14:44"}]},{"id":"20823","lat":41.53439497832944,"lon":14.884641319513321,"name":"Esso","brand":"Esso","address":"645 Fondo Valle del Tappino, Km. 22+900, Gambatesa - 86013, GAMBATESA, CB","prices":[{"type":"petrol","price":1.815,"self":true,"updatedAt":"29/06/2026 06:33:33"},{"type":"diesel","price":1.909,"self":true,"updatedAt":"29/06/2026 06:33:33"}]},{"id":"51929","lat":41.52452319154891,"lon":14.93206645105056,"name":"TAMOIL - GAMBATESA FONDO VALLE TAPPINO","brand":"Tamoil","address":"FONDO VALLE TAPPINO  86013, GAMBATESA, CB","prices":[{"type":"petrol","price":1.819,"self":true,"updatedAt":"01/07/2026 07:54:22"},{"type":"diesel","price":1.899,"self":true,"updatedAt":"01/07/2026 07:54:22"}]},{"id":"48952","lat":41.51778296478805,"lon":14.79929085434152,"name":"TAMOIL - JELSI S.S. 17 KM 246+691","brand":"Tamoil","address":"S.S. 17 KM 246+691  86015, JELSI, CB","prices":[{"type":"petrol","price":1.799,"self":true,"updatedAt":"01/07/2026 07:53:55"},{"type":"diesel","price":1.889,"self":true,"updatedAt":"01/07/2026 07:53:55"}]},{"id":"60251","lat":41.73705,"lon":14.95034,"name":"MONTELONGO","brand":"Pompe Bianche","address":"Strada Comunale Mulino Snc   86040, MONTELONGO, CB","prices":[{"type":"petrol","price":1.835,"self":true,"updatedAt":"30/06/2026 09:03:45"},{"type":"diesel","price":1.925,"self":true,"updatedAt":"30/06/2026 09:03:45"},{"type":"lpg","price":0.778,"self":false,"updatedAt":"30/06/2026 09:03:45"}]},{"id":"34202","lat":41.69338335806305,"lon":14.957920610904694,"name":"CAR WASH M.P. s.n.c. di Iacurto Paolo & C.","brand":"Pompe Bianche","address":"contrada Colle Monte snc 86040, SAN GIULIANO DI PUGLIA, CB","prices":[{"type":"petrol","price":1.929,"self":true,"updatedAt":"29/06/2026 18:15:11"},{"type":"diesel","price":1.899,"self":true,"updatedAt":"29/06/2026 18:15:11"}]},{"id":"51567","lat":41.71122170376458,"lon":14.986572393485176,"name":"CAPPIELLO LENADRO","brand":"Retitalia","address":"VIA PRINCIPE DI PIEMONTE SNC 86047, SANTA CROCE DI MAGLIANO, CB","prices":[{"type":"petrol","price":1.839,"self":true,"updatedAt":"30/06/2026 15:21:03"},{"type":"diesel","price":1.929,"self":true,"updatedAt":"30/06/2026 15:21:03"}]},{"id":"42552","lat":41.71141664540002,"lon":14.987380357829352,"name":"LICURSI GIOVANNI","brand":"Tamoil","address":"Via Principe di Piemonte  17B 86047, SANTA CROCE DI MAGLIANO, CB","prices":[{"type":"petrol","price":1.839,"self":true,"updatedAt":"28/06/2026 16:36:18"},{"type":"diesel","price":1.929,"self":true,"updatedAt":"28/06/2026 16:36:18"}]},{"id":"39310","lat":41.56503299603491,"lon":14.783497899770737,"name":"di bona salvatore","brand":"Pompe Bianche","address":"CONTRADA VICENNE  86018, TORO, CB","prices":[{"type":"lpg","price":0.849,"self":false,"updatedAt":"29/06/2026 12:14:28"}]},{"id":"60248","lat":41.5677371,"lon":14.8018637,"name":"TORO","brand":"Pompe Bianche","address":"SS645 12 86018, TORO, CB","prices":[{"type":"petrol","price":1.787,"self":true,"updatedAt":"30/06/2026 23:19:32"},{"type":"diesel","price":1.878,"self":true,"updatedAt":"30/06/2026 23:19:32"}]},{"id":"60329","lat":41.56048,"lon":14.97898,"name":"CELENZA VALFORTORE","brand":"Pompe Bianche","address":"SP1 snc 71035, CELENZA VALFORTORE, FG","prices":[{"type":"petrol","price":1.765,"self":true,"updatedAt":"30/06/2026 23:46:52"},{"type":"diesel","price":1.554,"self":true,"updatedAt":"30/06/2026 23:46:52"}]}]