[{"id":"36326","lat":41.77676418558959,"lon":13.20958100259304,"name":"eni Acuto","brand":"Agip Eni","address":"155 DI FIUGGI KM. 16+050 SNC 03010, ACUTO, FR","prices":[{"type":"petrol","price":1.829,"self":true,"updatedAt":"27/06/2026 07:49:46"},{"type":"diesel","price":1.919,"self":true,"updatedAt":"27/06/2026 07:49:46"},{"type":"methane","price":1.799,"self":false,"updatedAt":"27/06/2026 07:49:46"},{"type":"lpg","price":0.729,"self":false,"updatedAt":"27/06/2026 07:49:46"}]},{"id":"59625","lat":41.790787286096624,"lon":13.130129948258359,"name":"LA FENICE STAZIONE","brand":"Agip Eni","address":"S.S. RACC. 155 KM 16.500 SNC 03010, ACUTO, FR","prices":[{"type":"petrol","price":1.83,"self":true,"updatedAt":"27/06/2026 00:36:32"},{"type":"diesel","price":1.909,"self":true,"updatedAt":"27/06/2026 00:36:32"},{"type":"lpg","price":0.722,"self":false,"updatedAt":"26/06/2026 23:51:31"}]},{"id":"6677","lat":41.75194351655798,"lon":13.128455579280853,"name":"ANAGNI VIA C.NAVICELLA KM.2+730","brand":"Q8","address":"VIA C.NAVICELLA KM.2+730 SNC 03012, ANAGNI, FR","prices":[{"type":"petrol","price":1.829,"self":true,"updatedAt":"22/06/2026 15:05:13"},{"type":"diesel","price":1.919,"self":true,"updatedAt":"22/06/2026 15:05:13"}]},{"id":"60908","lat":41.7976555,"lon":13.221446,"name":"FIUGGI","brand":"Pompe Bianche","address":"Via A. Diaz 30  03014, FIUGGI, FR","prices":[{"type":"petrol","price":1.654,"self":true,"updatedAt":"26/06/2026 23:40:37"},{"type":"diesel","price":1.605,"self":true,"updatedAt":"26/06/2026 23:40:37"}]},{"id":"45929","lat":41.79658067553583,"lon":13.221589567867909,"name":"FIUGGI","brand":"Pompe Bianche","address":"VIA A. DIAZ 572 03014, FIUGGI, FR","prices":[{"type":"petrol","price":1.779,"self":true,"updatedAt":"24/06/2026 12:03:05"},{"type":"diesel","price":1.879,"self":true,"updatedAt":"24/06/2026 12:03:05"}]},{"id":"60926","lat":41.78246903721325,"lon":13.232863247394562,"name":"Q8 LAURI ANTONELLA","brand":"Q8","address":"Viale dello Sport 10  03014, FIUGGI, FR","prices":[{"type":"petrol","price":1.839,"self":true,"updatedAt":"26/06/2026 09:30:24"},{"type":"diesel","price":1.919,"self":true,"updatedAt":"26/06/2026 09:30:24"},{"type":"lpg","price":0.729,"self":false,"updatedAt":"26/06/2026 09:30:24"}]},{"id":"8820","lat":41.78463907575299,"lon":13.230875730514526,"name":"Stazione di Servizio Eni Perinelli","brand":"Agip Eni","address":"Statale 155 di Fiuggi, Km. 26.309, dir. frosinone - 03014, FIUGGI, FR","prices":[{"type":"petrol","price":1.829,"self":true,"updatedAt":"27/06/2026 00:12:03"},{"type":"diesel","price":1.909,"self":true,"updatedAt":"27/06/2026 00:12:03"}]},{"id":"52116","lat":41.789591809322296,"lon":13.223454872503039,"name":"Stazione IP 42553","brand":"Api-Ip","address":"VIA PRENESTINA 17 03014, FIUGGI (FR) 17 03014, FIUGGI, FR","prices":[{"type":"petrol","price":1.827,"self":true,"updatedAt":"26/06/2026 10:09:17"},{"type":"diesel","price":1.897,"self":true,"updatedAt":"26/06/2026 10:09:17"}]},{"id":"38231","lat":41.81837069154095,"lon":13.019753380231677,"name":"Easy Service Paliano","brand":"Esso","address":"Via Delle Valli  snc 03018, PALIANO, FR","prices":[{"type":"petrol","price":1.787,"self":true,"updatedAt":"26/06/2026 00:25:08"},{"type":"diesel","price":1.897,"self":true,"updatedAt":"26/06/2026 00:25:08"},{"type":"lpg","price":0.719,"self":false,"updatedAt":"27/06/2026 00:34:25"}]},{"id":"60292","lat":41.77654752497552,"lon":13.025747203408823,"name":"FREE GESTIONI SRL","brand":"Pompe Bianche","address":"sp palianese km 4+239 snc 03018, PALIANO, FR","prices":[{"type":"petrol","price":1.798,"self":true,"updatedAt":"26/06/2026 23:43:41"},{"type":"diesel","price":1.897,"self":true,"updatedAt":"26/06/2026 23:43:41"}]},{"id":"52614","lat":41.80592,"lon":13.05402,"name":"stazione di servizio IP di Fonzi Paolo","brand":"Api-Ip","address":"via s francesco d'assisi snc snc 03018, PALIANO, FR","prices":[{"type":"petrol","price":1.947,"self":true,"updatedAt":"22/06/2026 08:42:53"},{"type":"diesel","price":2.02,"self":true,"updatedAt":"22/06/2026 08:42:53"}]},{"id":"13224","lat":41.80603672181846,"lon":13.063441514968872,"name":"STAZIONE DI SERVIZIO SPIRITO GIUSEPPE UMBERTO","brand":"Esso","address":"CONTRADA SANROCCO - -, PALIANO, FR","prices":[{"type":"petrol","price":1.789,"self":true,"updatedAt":"23/06/2026 09:55:22"},{"type":"diesel","price":1.899,"self":true,"updatedAt":"23/06/2026 09:55:22"}]},{"id":"12267","lat":41.829796998849126,"lon":13.127892315387726,"name":"EMILY DI EMILIANO SALVI SAS","brand":"Pompe Bianche","address":"ROMAGNANO S.N. 03010, PIGLIO, FR","prices":[{"type":"petrol","price":1.809,"self":true,"updatedAt":"26/06/2026 07:23:16"},{"type":"diesel","price":1.899,"self":true,"updatedAt":"26/06/2026 07:23:16"}]},{"id":"21663","lat":41.7960121065152,"lon":13.14507166137696,"name":"TOIL PIGLIO","brand":"Toil","address":"via anticolana  03010, PIGLIO, FR","prices":[{"type":"petrol","price":1.809,"self":true,"updatedAt":"27/06/2026 00:42:02"},{"type":"diesel","price":1.899,"self":true,"updatedAt":"27/06/2026 00:42:02"},{"type":"lpg","price":0.719,"self":false,"updatedAt":"26/06/2026 23:46:07"}]},{"id":"44003","lat":41.831641011723136,"lon":13.076531411045039,"name":"AS FUEL","brand":"Pompe Bianche","address":"155 di Fiuggi, Km. 47,650, FIUGGI - 03010, SERRONE, FR","prices":[{"type":"petrol","price":1.787,"self":true,"updatedAt":"26/06/2026 12:38:43"},{"type":"diesel","price":1.897,"self":true,"updatedAt":"26/06/2026 12:38:43"},{"type":"lpg","price":0.719,"self":false,"updatedAt":"26/06/2026 12:38:43"}]},{"id":"61975","lat":41.83085,"lon":13.07294,"name":"ENGY S \"SERRONE\"","brand":"Api-Ip","address":"SR155 SNC 03010, SERRONE, FR","prices":[{"type":"petrol","price":1.787,"self":true,"updatedAt":"27/06/2026 06:50:12"},{"type":"diesel","price":1.897,"self":true,"updatedAt":"27/06/2026 06:50:12"}]},{"id":"11810","lat":41.97953251171709,"lon":13.032264373016346,"name":"AGOSTA-VIA SUBLA CENSE KM.6","brand":"Q8","address":"VIA SUBLA CENSE KM.6 S/N 00020, AGOSTA, RM","prices":[{"type":"petrol","price":1.819,"self":true,"updatedAt":"24/06/2026 18:07:39"},{"type":"diesel","price":1.899,"self":true,"updatedAt":"24/06/2026 18:07:39"}]},{"id":"44304","lat":41.962118000123,"lon":13.047953000123,"name":"Star Oil","brand":"Pompe Bianche","address":"Strada Statale, Km. 8,250, roma - 00020, AGOSTA, RM","prices":[{"type":"lpg","price":0.714,"self":false,"updatedAt":"22/06/2026 18:01:19"}]},{"id":"56071","lat":41.8591,"lon":13.03597,"name":"Distribuzione carburanti di Quaresima Mauro","brand":"Api-Ip","address":"VITTORIO VENETO 10 00035, OLEVANO ROMANO, RM","prices":[{"type":"petrol","price":1.839,"self":true,"updatedAt":"24/06/2026 11:49:43"},{"type":"diesel","price":1.899,"self":true,"updatedAt":"24/06/2026 11:49:43"}]},{"id":"44660","lat":41.834125000123,"lon":13.017521000123,"name":"ENI","brand":"Agip Eni","address":"VIA MAREMMANASUPERIORE KM1+450 SNC 00035, OLEVANO ROMANO, RM","prices":[{"type":"petrol","price":1.769,"self":true,"updatedAt":"24/06/2026 09:37:29"},{"type":"diesel","price":1.859,"self":true,"updatedAt":"24/06/2026 09:37:29"}]},{"id":"62930","lat":41.8400276,"lon":13.0220965,"name":"TIZIANO PISANELLI","brand":"Agip Eni","address":"SP61a km 2,245 00035, OLEVANO ROMANO, RM","prices":[{"type":"petrol","price":1.789,"self":true,"updatedAt":"26/06/2026 23:56:34"},{"type":"diesel","price":1.854,"self":true,"updatedAt":"26/06/2026 23:56:34"}]},{"id":"34085","lat":41.925826970695155,"lon":13.084530383348465,"name":"eni","brand":"Agip Eni","address":"corso cesare battisti sn 00028, SUBIACO, RM","prices":[{"type":"petrol","price":1.829,"self":true,"updatedAt":"27/06/2026 00:33:06"},{"type":"diesel","price":1.909,"self":true,"updatedAt":"27/06/2026 00:33:06"}]},{"id":"58542","lat":41.92839963528032,"lon":13.072185516357422,"name":"Star Oil","brand":"Pompe Bianche","address":"SUBLACENSE KM. 13,600 SNC 00028, SUBIACO, RM","prices":[{"type":"petrol","price":1.809,"self":true,"updatedAt":"26/06/2026 19:12:22"},{"type":"diesel","price":1.889,"self":true,"updatedAt":"26/06/2026 19:12:22"}]}]