[{"id":"44480","lat":41.91252065353366,"lon":14.915182724122587,"name":"GUGLIONESI TAMOIL","brand":"Tamoil","address":"VIALE R.MARGHERITA SNC 86034, GUGLIONESI, CB","prices":[{"type":"petrol","price":1.799,"self":true,"updatedAt":"29/06/2026 07:21:04"},{"type":"diesel","price":1.899,"self":true,"updatedAt":"29/06/2026 07:21:04"}]},{"id":"59069","lat":41.9221,"lon":14.9178,"name":"Eni 17270 Guglionesi","brand":"Agip Eni","address":"STATALE 483 KM 18+450 SNC 86034, GUGLIONESI, CB","prices":[{"type":"petrol","price":1.819,"self":true,"updatedAt":"28/06/2026 23:54:00"},{"type":"diesel","price":1.909,"self":true,"updatedAt":"28/06/2026 23:54:00"}]},{"id":"30063","lat":41.917606200498845,"lon":14.96301144361496,"name":"MED OIL 48047 Guglionesi","brand":"Api-Ip","address":"VIA SS 647 BIFERNINA KM. 72+800 0 86034, GUGLIONESI (CB)  76034, GUGLIONESI, CB","prices":[{"type":"petrol","price":1.817,"self":true,"updatedAt":"26/06/2026 16:42:11"},{"type":"diesel","price":1.897,"self":true,"updatedAt":"26/06/2026 16:42:11"}]},{"id":"40426","lat":41.79715366465477,"lon":14.911605566740036,"name":"DISTRIBUTORE IP","brand":"Api-Ip","address":"largo garibaldi  86035, LARINO, CB","prices":[{"type":"petrol","price":1.939,"self":true,"updatedAt":"29/06/2026 07:08:40"},{"type":"diesel","price":2.019,"self":true,"updatedAt":"29/06/2026 07:08:40"}]},{"id":"22328","lat":41.80332796681053,"lon":14.91818368434906,"name":"ESSO","brand":"Esso","address":"VIA LUIGI STURZO  86035, LARINO, CB","prices":[{"type":"petrol","price":1.819,"self":true,"updatedAt":"27/06/2026 08:25:28"},{"type":"diesel","price":1.919,"self":true,"updatedAt":"27/06/2026 08:25:28"}]},{"id":"10212","lat":41.80014681281972,"lon":14.917757213115692,"name":"Stazione di Servizio ENI","brand":"Agip Eni","address":"PIAZZA ADELMO ROMANO  86035, LARINO, CB","prices":[{"type":"petrol","price":1.824,"self":true,"updatedAt":"29/06/2026 00:36:30"},{"type":"diesel","price":1.904,"self":true,"updatedAt":"29/06/2026 00:36:30"}]},{"id":"34062","lat":41.76591252619729,"lon":14.77501206099987,"name":"Laureti Petroli Srl - Lupara","brand":"Pompe Bianche","address":"Statale 647 Fondo Valle del Biferno, Km. 47+740, dir. campobasso  86030, LUPARA, CB","prices":[{"type":"petrol","price":1.839,"self":true,"updatedAt":"24/06/2026 17:26:00"},{"type":"diesel","price":1.939,"self":true,"updatedAt":"24/06/2026 17:26:00"},{"type":"lpg","price":0.799,"self":true,"updatedAt":"24/06/2026 17:26:00"}]},{"id":"27308","lat":41.96598398436598,"lon":14.779400825500488,"name":"ESSO Angiolino Di Pinti snc","brand":"Esso","address":"VIA F. BARACCA 31 86036, MONTENERO DI BISACCIA, CB","prices":[{"type":"petrol","price":1.799,"self":true,"updatedAt":"26/06/2026 07:52:07"},{"type":"diesel","price":1.899,"self":true,"updatedAt":"26/06/2026 07:52:07"}]},{"id":"49236","lat":41.87857603158057,"lon":14.808053523302078,"name":"PALATA","brand":"Pompe Bianche","address":"S.P. 2+200 BIVIO SANTA GIUSTA   86037, PALATA, CB","prices":[{"type":"petrol","price":1.839,"self":true,"updatedAt":"27/06/2026 17:21:03"},{"type":"diesel","price":1.929,"self":true,"updatedAt":"27/06/2026 17:21:03"}]},{"id":"62836","lat":41.88758193357444,"lon":14.78470241377255,"name":"Palata - Calvario","brand":"Api-Ip","address":"CALVARIO 0 86037, PALATA, CB","prices":[{"type":"petrol","price":1.889,"self":true,"updatedAt":"28/06/2026 09:04:36"},{"type":"diesel","price":1.989,"self":true,"updatedAt":"28/06/2026 09:04:36"}]},{"id":"60403","lat":41.96234,"lon":14.94481,"name":"SAN GIACOMO DEGLI SCHIAVONI","brand":"Pompe Bianche","address":"Via Solagne SNC 86030, SAN GIACOMO DEGLI SCHIAVONI, CB","prices":[{"type":"petrol","price":1.789,"self":true,"updatedAt":"29/06/2026 00:18:25"},{"type":"diesel","price":1.859,"self":true,"updatedAt":"29/06/2026 00:18:25"}]},{"id":"9762","lat":41.993526972991226,"lon":14.997866749763489,"name":"CANNONE PETROLI di VINCENZO CANNONE & C.SAS","brand":"Agip Eni","address":"VIA CORSICA 62 86039, TERMOLI, CB","prices":[{"type":"petrol","price":1.829,"self":true,"updatedAt":"29/06/2026 00:30:43"},{"type":"diesel","price":1.899,"self":true,"updatedAt":"28/06/2026 19:02:15"}]},{"id":"30009","lat":41.95931836895771,"lon":14.993066266179085,"name":"DISTRIBUTORE Q8 TERMOLI","brand":"Q8","address":"Statale 87 Sannitica, Km. 218+743, dir. CAMPOBASSO - 86039, TERMOLI, CB","prices":[{"type":"petrol","price":1.829,"self":true,"updatedAt":"27/06/2026 08:08:24"},{"type":"diesel","price":1.889,"self":true,"updatedAt":"27/06/2026 08:08:24"},{"type":"methane","price":1.444,"self":false,"updatedAt":"27/06/2026 08:08:24"},{"type":"lpg","price":0.769,"self":false,"updatedAt":"27/06/2026 08:08:24"}]},{"id":"56766","lat":41.99959705891982,"lon":14.985384127933509,"name":"ENI","brand":"Agip Eni","address":"MARTIRI DELLA RESISTENZA 67 86039, TERMOLI, CB","prices":[{"type":"petrol","price":1.829,"self":true,"updatedAt":"28/06/2026 01:13:54"},{"type":"diesel","price":1.899,"self":true,"updatedAt":"29/06/2026 00:53:25"}]},{"id":"7100","lat":41.98500630108447,"lon":14.990528225898743,"name":"Impianto Eni Dommar s.a.s.","brand":"Agip Eni","address":"VIALE S. FRANCESCO 14 86039, TERMOLI, CB","prices":[{"type":"petrol","price":1.829,"self":true,"updatedAt":"28/06/2026 23:44:04"},{"type":"diesel","price":1.899,"self":true,"updatedAt":"28/06/2026 23:44:04"}]},{"id":"62064","lat":41.93458433833193,"lon":14.986481522246011,"name":"PIT STOP","brand":"Api-Ip","address":"87 Sannitica, Km. 215+890, SUD  86039, TERMOLI, CB","prices":[{"type":"lpg","price":0.769,"self":false,"updatedAt":"22/06/2026 18:14:43"}]},{"id":"49220","lat":41.93458433833193,"lon":14.986481522246011,"name":"PIT STOP","brand":"Pompe Bianche","address":"87 Sannitica, Km. 215+890, SUD  86039, TERMOLI, CB","prices":[{"type":"petrol","price":1.849,"self":true,"updatedAt":"22/06/2026 18:14:36"},{"type":"diesel","price":1.949,"self":true,"updatedAt":"22/06/2026 18:14:36"},{"type":"lpg","price":0.769,"self":false,"updatedAt":"22/06/2026 18:14:36"}]},{"id":"31338","lat":41.998471389858594,"lon":14.978136420249939,"name":"RIO VIVO EST","brand":"Tamoil","address":"Autostrada A14 BOLOGNA-BARI-TARANTO, Km. -, dir. Est - 86039, TERMOLI, CB","prices":[{"type":"petrol","price":1.889,"self":true,"updatedAt":"25/06/2026 21:00:06"},{"type":"diesel","price":1.999,"self":true,"updatedAt":"25/06/2026 21:00:06"},{"type":"lpg","price":0.779,"self":false,"updatedAt":"25/06/2026 21:00:08"}]},{"id":"50954","lat":41.81716965732094,"lon":14.986512362956995,"name":"Petrol Gamma","brand":"Petrol Gamma","address":"SP167 KM4,3 C.DA CRETA BIANCA SNC 86049, URURI, CB","prices":[{"type":"petrol","price":1.999,"self":true,"updatedAt":"22/06/2026 10:30:48"},{"type":"diesel","price":2.129,"self":true,"updatedAt":"22/06/2026 10:30:48"}]}]