[{"id":"26233","lat":41.845775948968594,"lon":15.698784291744232,"name":"PETROLGAS","brand":"Pompe Bianche","address":"Statale 693 dei Laghi di Lesina e Varano, Km. 33+040, dir. Sx - 71010, CAGNANO VARANO, FG","prices":[{"type":"petrol","price":1.849,"self":true,"updatedAt":"28/06/2026 15:53:08"},{"type":"diesel","price":1.929,"self":true,"updatedAt":"28/06/2026 15:53:08"},{"type":"lpg","price":0.859,"self":false,"updatedAt":"28/06/2026 15:53:08"}]},{"id":"29537","lat":41.83121610370188,"lon":15.561580101002619,"name":"AREA DI SERVIZIO ENI","brand":"Agip Eni","address":"Statale 89 Garganica, Km. 26+582, dir. APRICENA  71015, SAN NICANDRO GARGANICO, FG","prices":[{"type":"petrol","price":1.824,"self":true,"updatedAt":"29/06/2026 23:36:49"},{"type":"diesel","price":1.884,"self":true,"updatedAt":"29/06/2026 10:44:08"}]},{"id":"54666","lat":41.8405609,"lon":15.5653846,"name":"DISTRIBUTORE KENDA'L","brand":"Pompe Bianche","address":"TORRE MILETO 17 71015, SAN NICANDRO GARGANICO, FG","prices":[{"type":"petrol","price":1.824,"self":true,"updatedAt":"23/06/2026 16:06:48"},{"type":"diesel","price":1.915,"self":true,"updatedAt":"23/06/2026 16:06:48"}]},{"id":"31078","lat":41.83700000816312,"lon":15.576798906745921,"name":"GASAUTO","brand":"GasAuto","address":"Statale 89 Garganica, Km. 28.300, dir. cimitero - 71015, SAN NICANDRO GARGANICO, FG","prices":[{"type":"petrol","price":1.849,"self":false,"updatedAt":"25/06/2026 08:55:00"},{"type":"diesel","price":1.99,"self":false,"updatedAt":"25/06/2026 08:55:00"},{"type":"lpg","price":0.809,"self":false,"updatedAt":"25/06/2026 08:55:00"}]},{"id":"43559","lat":41.832340495065125,"lon":15.565723945547006,"name":"MARINACCI FRANCESCO","brand":"Agip Eni","address":"S.S.89 KM 26+972  71015, SAN NICANDRO GARGANICO, FG","prices":[{"type":"petrol","price":1.784,"self":true,"updatedAt":"29/06/2026 23:35:06"},{"type":"diesel","price":1.829,"self":true,"updatedAt":"29/06/2026 23:35:06"}]},{"id":"35672","lat":41.85713491239326,"lon":15.5695629119873,"name":"P e P","brand":"Pompe Bianche","address":"PER TORREMILETO KM.3,700 SNC 71015, SAN NICANDRO GARGANICO, FG","prices":[{"type":"petrol","price":1.848,"self":true,"updatedAt":"29/06/2026 21:31:35"},{"type":"diesel","price":1.928,"self":true,"updatedAt":"29/06/2026 21:31:35"}]},{"id":"50336","lat":41.87563928576403,"lon":15.5256175994873,"name":"P. I.","brand":"Pompe Bianche","address":"693 dei Laghi di Lesina e Varano, Km. 17+260, autostrada - 71015, SAN NICANDRO GARGANICO, FG","prices":[{"type":"petrol","price":1.849,"self":true,"updatedAt":"29/06/2026 17:05:25"},{"type":"diesel","price":1.926,"self":true,"updatedAt":"29/06/2026 17:05:25"},{"type":"lpg","price":0.816,"self":false,"updatedAt":"29/06/2026 17:05:25"}]},{"id":"50335","lat":41.82792130367777,"lon":15.555003881454462,"name":"P. I.","brand":"Pompe Bianche","address":"VIA MARCONI KM25+600 71015, SAN NICANDRO GARGANICO, FG","prices":[{"type":"petrol","price":1.749,"self":true,"updatedAt":"29/06/2026 17:05:16"},{"type":"diesel","price":1.819,"self":true,"updatedAt":"29/06/2026 17:05:16"}]}]