[{"id":"26233","lat":41.845775948968594,"lon":15.698784291744232,"name":"PETROLGAS","brand":"Pompe Bianche","address":"Statale 693 dei Laghi di Lesina e Varano, Km. 33+040, dir. Sx - 71010, CAGNANO VARANO, FG","prices":[{"type":"petrol","price":1.849,"self":true,"updatedAt":"18/06/2026 16:36:47"},{"type":"diesel","price":1.929,"self":true,"updatedAt":"18/06/2026 16:36:47"},{"type":"lpg","price":0.859,"self":false,"updatedAt":"18/06/2026 16:36:47"}]},{"id":"29537","lat":41.83121610370188,"lon":15.561580101002619,"name":"AREA DI SERVIZIO ENI","brand":"Agip Eni","address":"Statale 89 Garganica, Km. 26+582, dir. APRICENA  71015, SAN NICANDRO GARGANICO, FG","prices":[{"type":"petrol","price":1.844,"self":true,"updatedAt":"20/06/2026 23:34:21"},{"type":"diesel","price":1.944,"self":true,"updatedAt":"20/06/2026 23:34:21"}]},{"id":"54666","lat":41.8405609,"lon":15.5653846,"name":"DISTRIBUTORE KENDA'L","brand":"Pompe Bianche","address":"TORRE MILETO 17 71015, SAN NICANDRO GARGANICO, FG","prices":[{"type":"petrol","price":1.934,"self":true,"updatedAt":"16/06/2026 17:56:22"},{"type":"diesel","price":1.985,"self":true,"updatedAt":"16/06/2026 17:56:22"}]},{"id":"31078","lat":41.83700000816312,"lon":15.576798906745921,"name":"GASAUTO","brand":"GasAuto","address":"Statale 89 Garganica, Km. 28.300, dir. cimitero - 71015, SAN NICANDRO GARGANICO, FG","prices":[{"type":"petrol","price":1.949,"self":false,"updatedAt":"19/06/2026 12:17:52"},{"type":"diesel","price":2.029,"self":false,"updatedAt":"19/06/2026 12:17:52"},{"type":"lpg","price":0.796,"self":false,"updatedAt":"19/06/2026 12:17:52"}]},{"id":"43559","lat":41.832340495065125,"lon":15.565723945547006,"name":"MARINACCI FRANCESCO","brand":"Agip Eni","address":"S.S.89 KM 26+972  71015, SAN NICANDRO GARGANICO, FG","prices":[{"type":"petrol","price":1.784,"self":true,"updatedAt":"20/06/2026 23:31:40"},{"type":"diesel","price":1.859,"self":true,"updatedAt":"20/06/2026 23:31:40"}]},{"id":"35672","lat":41.85713491239326,"lon":15.5695629119873,"name":"P e P","brand":"Pompe Bianche","address":"PER TORREMILETO KM.3,700 SNC 71015, SAN NICANDRO GARGANICO, FG","prices":[{"type":"petrol","price":1.948,"self":true,"updatedAt":"16/06/2026 13:51:33"},{"type":"diesel","price":2.058,"self":true,"updatedAt":"16/06/2026 13:51:33"}]},{"id":"50336","lat":41.87563928576403,"lon":15.5256175994873,"name":"P. I.","brand":"Pompe Bianche","address":"693 dei Laghi di Lesina e Varano, Km. 17+260, autostrada - 71015, SAN NICANDRO GARGANICO, FG","prices":[{"type":"petrol","price":1.849,"self":true,"updatedAt":"18/06/2026 20:31:55"},{"type":"diesel","price":1.926,"self":true,"updatedAt":"18/06/2026 20:31:55"},{"type":"lpg","price":0.816,"self":false,"updatedAt":"18/06/2026 20:31:55"}]},{"id":"50335","lat":41.82792130367777,"lon":15.555003881454462,"name":"P. I.","brand":"Pompe Bianche","address":"VIA MARCONI KM25+600 71015, SAN NICANDRO GARGANICO, FG","prices":[{"type":"petrol","price":1.809,"self":true,"updatedAt":"17/06/2026 07:47:17"},{"type":"diesel","price":1.899,"self":true,"updatedAt":"17/06/2026 07:47:17"}]}]