[{"id":"62843","lat":42.06196,"lon":14.77805,"name":"PP109","brand":"Api-Ip","address":"Contrada Padula, MONTENERO DI BISACCIA, CB","prices":[{"type":"petrol","price":1.699,"self":true,"updatedAt":"23/06/2026 18:24:06"},{"type":"diesel","price":1.799,"self":true,"updatedAt":"23/06/2026 18:22:07"}]},{"id":"62738","lat":42.04762613157266,"lon":14.813809093254076,"name":"TRIGNO EST","brand":"Agip Eni","address":"A14 BOLOGNA-BARI-TARANTO, Km. 458,60, NORD - 86036, MONTENERO DI BISACCIA, CB","prices":[{"type":"diesel","price":1.979,"self":true,"updatedAt":"17/06/2026 16:53:04"}]},{"id":"47661","lat":42.04762613157266,"lon":14.813809093254076,"name":"TRIGNO EST","brand":"Agip Eni","address":"A14 BOLOGNA-BARI-TARANTO, Km. 458,60, NORD - 86036, MONTENERO DI BISACCIA, CB","prices":[{"type":"petrol","price":1.888,"self":true,"updatedAt":"22/06/2026 10:30:11"},{"type":"diesel","price":2.018,"self":true,"updatedAt":"22/06/2026 10:30:11"},{"type":"lpg","price":0.869,"self":false,"updatedAt":"22/06/2026 10:30:13"}]},{"id":"62725","lat":42.04658383499255,"lon":14.814132750034332,"name":"TRIGNO OVEST","brand":"Tamoil","address":"Autostrada A14 BOLOGNA-BARI-TARANTO, Km. 458+600, dir. sud - 86036, MONTENERO DI BISACCIA, CB","prices":[{"type":"diesel","price":1.979,"self":true,"updatedAt":"19/06/2026 11:51:51"}]},{"id":"37289","lat":42.04658383499255,"lon":14.814132750034332,"name":"TRIGNO OVEST","brand":"Tamoil","address":"Autostrada A14 BOLOGNA-BARI-TARANTO, Km. 458+600, dir. sud - 86036, MONTENERO DI BISACCIA, CB","prices":[{"type":"petrol","price":1.899,"self":true,"updatedAt":"22/06/2026 14:00:08"},{"type":"diesel","price":1.999,"self":true,"updatedAt":"22/06/2026 14:00:08"},{"type":"lpg","price":0.899,"self":false,"updatedAt":"22/06/2026 14:00:10"}]},{"id":"6303","lat":42.041133610987615,"lon":14.832084774971008,"name":"Eni Petacciato","brand":"Agip Eni","address":"Statale 16 Adriatica, Km. 530+110, dir. sud - 86038, PETACCIATO, CB","prices":[{"type":"petrol","price":1.809,"self":true,"updatedAt":"24/06/2026 00:30:54"},{"type":"diesel","price":1.909,"self":true,"updatedAt":"24/06/2026 00:30:54"}]},{"id":"34146","lat":42.01360674402188,"lon":14.93483953177929,"name":"AREA DI SERVIZIO \"ESSO\"","brand":"Esso","address":"Statale 16 Adriatica, Km. 539+180, dir. vasto - 86039, TERMOLI, CB","prices":[{"type":"petrol","price":1.829,"self":true,"updatedAt":"21/06/2026 10:05:01"},{"type":"diesel","price":1.939,"self":true,"updatedAt":"21/06/2026 10:05:01"}]},{"id":"62381","lat":42.01232,"lon":14.93226,"name":"smart oil","brand":"Pompe Bianche","address":"CORSICA 64 86039, TERMOLI, CB","prices":[{"type":"petrol","price":1.859,"self":true,"updatedAt":"23/06/2026 01:39:33"},{"type":"diesel","price":1.959,"self":true,"updatedAt":"23/06/2026 01:39:33"}]},{"id":"57412","lat":42.067681575189646,"lon":14.773409677246105,"name":"ENI","brand":"Agip Eni","address":"PIGAFETTA SNC 66050, SAN SALVO, CH","prices":[{"type":"petrol","price":1.829,"self":true,"updatedAt":"24/06/2026 00:47:53"},{"type":"diesel","price":1.919,"self":true,"updatedAt":"24/06/2026 00:47:53"}]},{"id":"52897","lat":42.070722782779505,"lon":14.764133095741272,"name":"GG OIL","brand":"Pompe Bianche","address":"16 Adriatica, Km. 523-568, SUD  66050, SAN SALVO, CH","prices":[{"type":"petrol","price":1.799,"self":true,"updatedAt":"24/06/2026 07:16:22"},{"type":"diesel","price":1.899,"self":true,"updatedAt":"24/06/2026 07:16:22"},{"type":"lpg","price":0.729,"self":false,"updatedAt":"24/06/2026 07:16:22"}]},{"id":"43826","lat":42.055925570817784,"lon":14.757030928743006,"name":"GGOIL METANO","brand":"Pompe Bianche","address":"STRADA VECCHIO MULINO  66050, SAN SALVO, CH","prices":[{"type":"petrol","price":1.799,"self":true,"updatedAt":"23/06/2026 08:38:50"},{"type":"diesel","price":1.899,"self":true,"updatedAt":"23/06/2026 08:38:50"},{"type":"methane","price":1.498,"self":false,"updatedAt":"23/06/2026 08:38:50"}]},{"id":"15894","lat":42.058175119756115,"lon":14.762739830688474,"name":"MED OIL 48043 San Salvo","brand":"Api-Ip","address":"VIA LOCALITA' SANT'ANGELO S.N. 66050, SAN SALVO (CH)  66050, SAN SALVO, CH","prices":[{"type":"petrol","price":1.818,"self":true,"updatedAt":"23/06/2026 09:10:46"},{"type":"diesel","price":1.918,"self":true,"updatedAt":"23/06/2026 09:10:46"},{"type":"lpg","price":0.758,"self":false,"updatedAt":"23/06/2026 09:10:46"}]}]