[{"id":"22116","lat":42.29273508341408,"lon":14.306675150517322,"name":"area servizi Primante Massimo","brand":"Pompe Bianche","address":"STRADA PROVINCIALE PER CRECCHIO - VIA VALLI  66010, CANOSA SANNITA, CH","prices":[{"type":"petrol","price":1.993,"self":true,"updatedAt":"17/06/2026 17:25:49"},{"type":"diesel","price":1.979,"self":true,"updatedAt":"17/06/2026 17:25:49"},{"type":"lpg","price":0.839,"self":true,"updatedAt":"17/06/2026 17:25:49"}]},{"id":"22554","lat":42.302288318099365,"lon":14.305671877909845,"name":"Di Sario srl","brand":"Pompe Bianche","address":"VIA VERSO TOLLO 67 66010, CANOSA SANNITA, CH","prices":[{"type":"petrol","price":1.899,"self":true,"updatedAt":"20/06/2026 23:17:58"},{"type":"diesel","price":1.999,"self":true,"updatedAt":"20/06/2026 23:17:58"}]},{"id":"27304","lat":42.27571066944312,"lon":14.340350080148255,"name":"Più carburanti","brand":"Pompe Bianche","address":"Località Villa Selciaroli  66014, CRECCHIO, CH","prices":[{"type":"petrol","price":1.839,"self":true,"updatedAt":"20/06/2026 23:40:13"},{"type":"diesel","price":1.939,"self":true,"updatedAt":"20/06/2026 23:40:13"}]},{"id":"62599","lat":42.399723,"lon":14.319362,"name":"26582 FRANCAVILLA AL MARE","brand":"Agip Eni","address":"SS 263 KM 0+400 LOC. FORO  SN, FRANCAVILLA AL MARE, CH","prices":[{"type":"petrol","price":1.829,"self":true,"updatedAt":"21/06/2026 00:16:01"},{"type":"diesel","price":1.919,"self":true,"updatedAt":"21/06/2026 00:16:01"}]},{"id":"27745","lat":42.44257992682259,"lon":14.25558552145958,"name":"8143","brand":"Tamoil","address":"ALCYONE 255 66023, FRANCAVILLA AL MARE, CH","prices":[{"type":"petrol","price":1.769,"self":true,"updatedAt":"20/06/2026 23:34:30"},{"type":"diesel","price":1.849,"self":true,"updatedAt":"20/06/2026 23:34:30"}]},{"id":"61872","lat":42.41558,"lon":14.29658,"name":"ENGY S \"FRANCAVILLA  SS16 KM 456\"","brand":"Api-Ip","address":"SS16 snc 66023, FRANCAVILLA AL MARE, CH","prices":[{"type":"petrol","price":1.797,"self":true,"updatedAt":"21/06/2026 00:00:57"},{"type":"diesel","price":1.907,"self":true,"updatedAt":"21/06/2026 00:00:57"}]},{"id":"48391","lat":42.422637802867236,"lon":14.28291454911232,"name":"ESSO FRANCAVILLA AL MARE","brand":"Esso","address":"16 Adriatica, Km. 455+500, Nord - 66023, FRANCAVILLA AL MARE, CH","prices":[{"type":"petrol","price":1.839,"self":true,"updatedAt":"21/06/2026 07:24:36"},{"type":"diesel","price":1.919,"self":true,"updatedAt":"21/06/2026 07:24:36"}]},{"id":"56801","lat":42.430215953616134,"lon":14.274900779128075,"name":"GASOLINE SELF","brand":"Pompe Bianche","address":"VIALE ALCIONE 50 66023, FRANCAVILLA AL MARE, CH","prices":[{"type":"petrol","price":1.768,"self":true,"updatedAt":"20/06/2026 11:55:31"},{"type":"diesel","price":1.848,"self":true,"updatedAt":"20/06/2026 11:55:31"}]},{"id":"56800","lat":42.4216745367432,"lon":14.273096323013306,"name":"GASOLINE STATION","brand":"Pompe Bianche","address":"COMUNALE SAN LEONARDO SNC 66023, FRANCAVILLA AL MARE, CH","prices":[{"type":"petrol","price":1.768,"self":true,"updatedAt":"20/06/2026 11:55:22"},{"type":"diesel","price":1.848,"self":true,"updatedAt":"20/06/2026 11:55:22"},{"type":"lpg","price":0.784,"self":false,"updatedAt":"20/06/2026 11:55:22"}]},{"id":"37966","lat":42.427390177642444,"lon":14.27881555257045,"name":"IP","brand":"Api-Ip","address":"via alcione 16 66023, FRANCAVILLA AL MARE, CH","prices":[{"type":"petrol","price":1.839,"self":true,"updatedAt":"19/06/2026 07:29:28"},{"type":"diesel","price":1.949,"self":true,"updatedAt":"19/06/2026 07:29:28"}]},{"id":"46911","lat":42.42853203455841,"lon":14.27160006803922,"name":"IP","brand":"Api-Ip","address":"Strada Statale, Km. 454 350, Francavilla AL MARE - 66023, FRANCAVILLA AL MARE, CH","prices":[{"type":"petrol","price":1.797,"self":true,"updatedAt":"19/06/2026 07:31:02"},{"type":"diesel","price":1.907,"self":true,"updatedAt":"19/06/2026 07:31:02"}]},{"id":"50893","lat":42.43960221166939,"lon":14.254556966934189,"name":"OK FRANCAVILLA","brand":"OK energie","address":"16 Adriatica, Km. 452+520, SUD  66023, FRANCAVILLA AL MARE, CH","prices":[{"type":"petrol","price":1.789,"self":true,"updatedAt":"21/06/2026 00:08:08"},{"type":"diesel","price":1.879,"self":true,"updatedAt":"21/06/2026 00:08:08"}]},{"id":"58885","lat":42.42697,"lon":14.2745,"name":"Pv 6606 Francavilla Al Mare","brand":"Agip Eni","address":"SS 16 KM 454+653 SN 66023, FRANCAVILLA AL MARE, CH","prices":[{"type":"petrol","price":1.789,"self":true,"updatedAt":"21/06/2026 00:15:16"},{"type":"diesel","price":1.854,"self":true,"updatedAt":"21/06/2026 00:15:16"}]},{"id":"60761","lat":42.30926616099966,"lon":14.278905694958484,"name":"FC","brand":"Pompe Bianche","address":"Via Nevi 241 66010, GIULIANO TEATINO, CH","prices":[{"type":"petrol","price":1.959,"self":true,"updatedAt":"20/06/2026 07:50:07"},{"type":"diesel","price":2.019,"self":true,"updatedAt":"20/06/2026 07:50:07"}]},{"id":"36293","lat":42.388474890565625,"lon":14.289200976490974,"name":"ALENTO EST","brand":"Q8","address":"Autostrada A14 BOLOGNA-BARI-TARANTO, Km. 393, dir. Est - 66010, MIGLIANICO, CH","prices":[{"type":"petrol","price":1.889,"self":true,"updatedAt":"20/06/2026 14:30:31"},{"type":"diesel","price":2.004,"self":true,"updatedAt":"20/06/2026 14:30:31"},{"type":"lpg","price":0.889,"self":false,"updatedAt":"20/06/2026 14:30:33"}]},{"id":"3730","lat":42.38654047428998,"lon":14.288167055225358,"name":"ALENTO OVEST","brand":"Agip Eni","address":"Autostrada A14 BOLOGNA-BARI-TARANTO, Km. 393+900, dir. Sud - 66010, MIGLIANICO, CH","prices":[{"type":"petrol","price":1.95,"self":true,"updatedAt":"21/06/2026 00:11:14"},{"type":"diesel","price":2.092,"self":true,"updatedAt":"21/06/2026 00:11:13"},{"type":"methane","price":1.698,"self":false,"updatedAt":"21/06/2026 00:11:14"},{"type":"lpg","price":0.916,"self":false,"updatedAt":"21/06/2026 00:11:14"}]},{"id":"58401","lat":42.35876493698409,"lon":14.29342969131468,"name":"COPPA CARBURANTI","brand":"Pompe Bianche","address":"PIANE SAN PANTALEONE 129 66010, MIGLIANICO, CH","prices":[{"type":"petrol","price":1.84,"self":true,"updatedAt":"16/06/2026 16:53:50"},{"type":"diesel","price":1.94,"self":true,"updatedAt":"16/06/2026 16:53:50"}]},{"id":"8897","lat":42.35575839400206,"lon":14.287958095037084,"name":"De Marco Patrizio","brand":"Agip Eni","address":"VIA ROMA 134 66010, MIGLIANICO, CH","prices":[{"type":"petrol","price":1.825,"self":true,"updatedAt":"21/06/2026 00:54:57"},{"type":"diesel","price":1.914,"self":true,"updatedAt":"21/06/2026 00:54:57"}]},{"id":"30067","lat":42.39155456359505,"lon":14.296723902225494,"name":"MED OIL 48112 Miglianico","brand":"Api-Ip","address":"VIA S.P. CERRETO SUPERIORE SNC 66010, MIGLIANICO (CH) snc 66010, MIGLIANICO, CH","prices":[{"type":"petrol","price":1.839,"self":true,"updatedAt":"19/06/2026 17:41:02"},{"type":"diesel","price":1.939,"self":true,"updatedAt":"19/06/2026 17:41:02"},{"type":"lpg","price":0.789,"self":false,"updatedAt":"19/06/2026 17:41:02"}]},{"id":"50894","lat":42.36003144397989,"lon":14.278480262565608,"name":"OK MIGLIANICO","brand":"OK energie","address":"VIA VAL DI FORO SNC 66010, MIGLIANICO, CH","prices":[{"type":"petrol","price":1.819,"self":true,"updatedAt":"20/06/2026 11:19:01"},{"type":"diesel","price":1.909,"self":true,"updatedAt":"20/06/2026 11:19:01"}]},{"id":"52321","lat":42.359497000123,"lon":14.276871000123,"name":"OK MIGLIANICO 2","brand":"OK energie","address":"CONTRADA CERRETO 2 66010, MIGLIANICO, CH","prices":[{"type":"petrol","price":1.699,"self":true,"updatedAt":"18/06/2026 17:24:40"},{"type":"diesel","price":1.869,"self":true,"updatedAt":"18/06/2026 17:24:40"}]},{"id":"55661","lat":42.3522441,"lon":14.4028113,"name":"AREA DI SERVIZIO ENI di Seccia Gianluca","brand":"Agip Eni","address":"16 LOC. S. LIBERATA KM 468+204 - 66026, ORTONA, CH","prices":[{"type":"petrol","price":1.829,"self":true,"updatedAt":"21/06/2026 00:48:14"},{"type":"diesel","price":1.919,"self":true,"updatedAt":"21/06/2026 00:48:14"}]},{"id":"13834","lat":42.356897543793664,"lon":14.412005363993103,"name":"Ditta Ranalli Giuseppe Srl","brand":"Pompe Bianche","address":"VIA PORTO 68 66026, ORTONA, CH","prices":[{"type":"petrol","price":1.98,"self":true,"updatedAt":"19/06/2026 16:42:53"},{"type":"diesel","price":2.099,"self":true,"updatedAt":"19/06/2026 16:42:53"}]},{"id":"9424","lat":42.33015051367128,"lon":14.390920400619507,"name":"eni","brand":"Agip Eni","address":"S.S.538 MARRUCINA  66026, ORTONA, CH","prices":[{"type":"petrol","price":1.849,"self":true,"updatedAt":"21/06/2026 00:44:12"},{"type":"diesel","price":1.949,"self":true,"updatedAt":"21/06/2026 00:44:12"}]},{"id":"50892","lat":42.3431573093235,"lon":14.37651472387314,"name":"OK ORTONA","brand":"OK energie","address":"C.DA SANTA LIBERATA SNC 66026, ORTONA, CH","prices":[{"type":"petrol","price":1.819,"self":true,"updatedAt":"20/06/2026 20:56:06"},{"type":"diesel","price":1.909,"self":true,"updatedAt":"20/06/2026 20:56:06"},{"type":"methane","price":1.799,"self":false,"updatedAt":"15/05/2026 11:10:43"},{"type":"lpg","price":0.809,"self":false,"updatedAt":"20/06/2026 20:56:06"}]},{"id":"62682","lat":42.387932512573336,"lon":14.3517796590393,"name":"PETROL GAMMA SRL ORTONA","brand":"Petrol Gamma","address":"SS16 KM 462+420 66026, ORTONA, CH","prices":[{"type":"petrol","price":1.837,"self":true,"updatedAt":"20/06/2026 13:09:32"},{"type":"diesel","price":1.937,"self":true,"updatedAt":"20/06/2026 13:09:32"}]},{"id":"55200","lat":42.356692,"lon":14.4027338,"name":"TAMOIL ORTONA VIA MONTE MAIELLA, 14","brand":"Tamoil","address":"MONTE MAIELLA 14 66026, ORTONA, CH","prices":[{"type":"petrol","price":1.829,"self":true,"updatedAt":"21/06/2026 07:45:29"},{"type":"diesel","price":1.929,"self":true,"updatedAt":"21/06/2026 07:45:29"}]},{"id":"14772","lat":42.346622248023714,"lon":14.401949644088745,"name":"TRE ESSE di Seccia Franceco e C SAS","brand":"Agip Eni","address":"VIA DELLA LIBERTA' 160 66026, ORTONA, CH","prices":[{"type":"petrol","price":1.829,"self":true,"updatedAt":"20/06/2026 12:46:05"},{"type":"diesel","price":1.919,"self":true,"updatedAt":"20/06/2026 12:46:05"}]},{"id":"28591","lat":42.256776348508275,"lon":14.318916499614716,"name":"IP-ITALA-POGGIOFIORITO","brand":"Itala Petroli","address":"strada statale 528 km 12+492  66030, POGGIOFIORITO, CH","prices":[{"type":"petrol","price":1.779,"self":true,"updatedAt":"20/06/2026 11:47:50"},{"type":"diesel","price":1.859,"self":true,"updatedAt":"20/06/2026 11:47:50"}]},{"id":"43220","lat":42.38136196255973,"lon":14.265587364418025,"name":"mangifesta srl","brand":"Pompe Bianche","address":"VIA ARENARO SANTA CECILIA 83 66010, RIPA TEATINA, CH","prices":[{"type":"petrol","price":1.779,"self":true,"updatedAt":"18/06/2026 12:56:16"},{"type":"diesel","price":1.859,"self":true,"updatedAt":"18/06/2026 12:56:16"}]},{"id":"50108","lat":42.26350091862507,"lon":14.43171115826645,"name":"ENI DI FRANCESCHINI ROCCA SAN GIOVANNI","brand":"Agip Eni","address":"S.P SAN VITO-LANCIANO  66020, ROCCA SAN GIOVANNI, CH","prices":[{"type":"petrol","price":1.829,"self":true,"updatedAt":"20/06/2026 11:58:13"},{"type":"diesel","price":1.919,"self":true,"updatedAt":"20/06/2026 11:58:13"}]},{"id":"58755","lat":42.259808479959815,"lon":14.430517852306366,"name":"PORTOBELLO AREA DI SERVIZIO","brand":"Pompe Bianche","address":"Contrada Santa Calcagna  66020, ROCCA SAN GIOVANNI, CH","prices":[{"type":"petrol","price":1.828,"self":true,"updatedAt":"20/06/2026 17:46:21"},{"type":"diesel","price":1.918,"self":true,"updatedAt":"20/06/2026 17:46:21"},{"type":"methane","price":1.498,"self":false,"updatedAt":"20/06/2026 17:46:21"},{"type":"lpg","price":0.788,"self":false,"updatedAt":"20/06/2026 17:46:21"}]},{"id":"42677","lat":42.297285961506915,"lon":14.443797969180423,"name":"DISTRIBUTORE IP di DI PAOLO PAOLO","brand":"Api-Ip","address":"VIA MATTEOTTI 114 66038, SAN VITO CHIETINO, CH","prices":[{"type":"petrol","price":1.889,"self":false,"updatedAt":"18/06/2026 17:04:38"},{"type":"diesel","price":2.009,"self":false,"updatedAt":"18/06/2026 17:04:38"}]},{"id":"58493","lat":42.294943260807074,"lon":14.412465775927238,"name":"Distributore IP Lleshi pashke","brand":"Api-Ip","address":"LANCIANO 27 66038, SAN VITO CHIETINO, CH","prices":[{"type":"petrol","price":1.879,"self":true,"updatedAt":"17/06/2026 00:09:18"},{"type":"diesel","price":2.029,"self":true,"updatedAt":"17/06/2026 00:09:18"}]},{"id":"54907","lat":42.309751,"lon":14.441496,"name":"ESSO - SAN VITO CHIETINO - VIA ADRIATICA NORD, 19","brand":"Esso","address":"S.S. 16 KM. 478+687 19 66038, SAN VITO CHIETINO, CH","prices":[{"type":"petrol","price":1.839,"self":true,"updatedAt":"21/06/2026 07:24:45"},{"type":"diesel","price":1.939,"self":true,"updatedAt":"21/06/2026 07:24:45"}]},{"id":"37987","lat":42.349659207196076,"lon":14.318630039724667,"name":"Eni 26610","brand":"Agip Eni","address":"C.da Colle della Signora SNC 66010, TOLLO, CH","prices":[{"type":"petrol","price":1.809,"self":true,"updatedAt":"20/06/2026 06:36:07"},{"type":"diesel","price":1.894,"self":true,"updatedAt":"20/06/2026 06:36:07"}]},{"id":"20924","lat":42.392024841344494,"lon":14.25085611641407,"name":"Area Torrevecchia Teatina","brand":"Pompe Bianche","address":"Statale 649 di Fondo Valle Alento, Km. 4+609, dir. NORD - 66010, TORREVECCHIA TEATINA, CH","prices":[{"type":"petrol","price":1.859,"self":true,"updatedAt":"20/06/2026 09:01:36"},{"type":"diesel","price":1.979,"self":true,"updatedAt":"20/06/2026 09:01:36"},{"type":"lpg","price":0.799,"self":false,"updatedAt":"20/06/2026 09:01:36"}]}]