[{"id":"47275","lat":42.5853492792878,"lon":11.286461353301997,"name":"Ala Carburanti","brand":"Pompe Bianche","address":"Strada provinciale 160 amiatina km. 97,400  58051, MAGLIANO IN TOSCANA, GR","prices":[{"type":"petrol","price":1.939,"self":true,"updatedAt":"30/06/2026 16:09:51"},{"type":"diesel","price":1.999,"self":true,"updatedAt":"30/06/2026 16:09:51"}]},{"id":"9185","lat":42.53497095179947,"lon":11.336098909378052,"name":"TAMOIL","brand":"Tamoil","address":"S.R. 74 km 11,770 - -, MANCIANO, GR","prices":[{"type":"petrol","price":1.789,"self":true,"updatedAt":"30/06/2026 12:36:15"},{"type":"diesel","price":1.889,"self":true,"updatedAt":"30/06/2026 14:02:26"}]},{"id":"61355","lat":42.521267110831644,"lon":11.280193288360593,"name":"Grosseto - Orbetello","brand":"Beyfin","address":"POLVEROSA S.P. 74 SNC 58015, ORBETELLO, GR","prices":[{"type":"petrol","price":1.789,"self":true,"updatedAt":"01/07/2026 00:14:06"},{"type":"diesel","price":1.869,"self":true,"updatedAt":"01/07/2026 00:14:06"},{"type":"lpg","price":0.819,"self":false,"updatedAt":"01/07/2026 00:14:06"}]},{"id":"32908","lat":42.693509348474414,"lon":11.320925652980804,"name":"SCANSANO","brand":"Agip Eni","address":"S.P. DELLE COLLACCHIE  58054, SCANSANO, GR","prices":[{"type":"petrol","price":1.829,"self":true,"updatedAt":"30/06/2026 09:27:27"},{"type":"diesel","price":1.899,"self":true,"updatedAt":"30/06/2026 10:46:43"},{"type":"lpg","price":0.772,"self":false,"updatedAt":"27/06/2026 07:04:41"}]},{"id":"62345","lat":42.68779,"lon":11.32975,"name":"SCANSANO","brand":"Pompe Bianche","address":"LOC. BACCINELLO - STR. PROV.LE FRONZINA KM 24  SNC 58054, SCANSANO, GR","prices":[{"type":"petrol","price":1.895,"self":true,"updatedAt":"30/06/2026 10:02:43"},{"type":"diesel","price":1.896,"self":true,"updatedAt":"30/06/2026 10:02:43"}]}]