[{"id":"47275","lat":42.5853492792878,"lon":11.286461353301997,"name":"Ala Carburanti","brand":"Pompe Bianche","address":"Strada provinciale 160 amiatina km. 97,400  58051, MAGLIANO IN TOSCANA, GR","prices":[{"type":"petrol","price":1.939,"self":true,"updatedAt":"19/06/2026 21:00:38"},{"type":"diesel","price":1.999,"self":true,"updatedAt":"19/06/2026 21:00:38"}]},{"id":"9185","lat":42.53497095179947,"lon":11.336098909378052,"name":"TAMOIL","brand":"Tamoil","address":"S.R. 74 km 11,770 - -, MANCIANO, GR","prices":[{"type":"petrol","price":1.819,"self":true,"updatedAt":"21/06/2026 01:01:57"},{"type":"diesel","price":1.919,"self":true,"updatedAt":"21/06/2026 01:01:57"}]},{"id":"61355","lat":42.521267110831644,"lon":11.280193288360593,"name":"Grosseto - Orbetello","brand":"Beyfin","address":"POLVEROSA S.P. 74 SNC 58015, ORBETELLO, GR","prices":[{"type":"petrol","price":1.799,"self":true,"updatedAt":"21/06/2026 00:45:36"},{"type":"diesel","price":1.899,"self":true,"updatedAt":"21/06/2026 00:45:36"},{"type":"lpg","price":0.819,"self":false,"updatedAt":"21/06/2026 00:19:02"}]},{"id":"32908","lat":42.693509348474414,"lon":11.320925652980804,"name":"SCANSANO","brand":"Agip Eni","address":"S.P. DELLE COLLACCHIE  58054, SCANSANO, GR","prices":[{"type":"petrol","price":1.849,"self":true,"updatedAt":"19/06/2026 09:54:48"},{"type":"diesel","price":1.959,"self":true,"updatedAt":"19/06/2026 09:47:45"},{"type":"lpg","price":0.772,"self":false,"updatedAt":"16/06/2026 10:53:56"}]},{"id":"62345","lat":42.68779,"lon":11.32975,"name":"SCANSANO","brand":"Pompe Bianche","address":"LOC. BACCINELLO - STR. PROV.LE FRONZINA KM 24  SNC 58054, SCANSANO, GR","prices":[{"type":"petrol","price":1.935,"self":true,"updatedAt":"20/06/2026 08:33:32"},{"type":"diesel","price":1.958,"self":true,"updatedAt":"20/06/2026 08:33:32"}]}]