[{"id":"48119","lat":42.67323157740967,"lon":12.21623225889549,"name":"ESSO BASCHI","brand":"Esso","address":"VIA VIA AMELIA 9 05023, BASCHI (TR) 9 05023, BASCHI, TR","prices":[{"type":"petrol","price":1.778,"self":true,"updatedAt":"30/06/2026 09:51:30"},{"type":"diesel","price":1.858,"self":true,"updatedAt":"30/06/2026 09:51:30"}]},{"id":"56373","lat":42.715153635318295,"lon":12.096901432965858,"name":"AREA DI SERVIZIO TAMOIL","brand":"Tamoil","address":"LOC. SAN GIOVANNI VIA DELLA GABELLETTA 7 05018, ORVIETO, TR","prices":[{"type":"petrol","price":1.823,"self":true,"updatedAt":"01/07/2026 01:59:57"},{"type":"diesel","price":1.904,"self":true,"updatedAt":"01/07/2026 01:59:55"}]},{"id":"20231","lat":42.730168938625745,"lon":12.139255553483963,"name":"AREA DI SERVIZIO TAMOIL DI PORCARI IVANO","brand":"Tamoil","address":"Statale 79 bis Orvietana, Km. 0,4, dir. PERUGIA - 05018, ORVIETO, TR","prices":[{"type":"petrol","price":1.823,"self":true,"updatedAt":"30/06/2026 16:20:39"},{"type":"diesel","price":1.908,"self":true,"updatedAt":"30/06/2026 16:20:39"}]},{"id":"55881","lat":42.71573,"lon":12.14507,"name":"ENI","brand":"Agip Eni","address":"ANGELO COSTANZI 75 05018, ORVIETO, TR","prices":[{"type":"petrol","price":1.824,"self":true,"updatedAt":"01/07/2026 00:39:00"},{"type":"diesel","price":1.889,"self":true,"updatedAt":"01/07/2026 00:39:00"}]},{"id":"17814","lat":42.717481000123,"lon":12.123937000123,"name":"Fratelli Trequattrini S.A.S.","brand":"Shell","address":"VIALE I MAGGIO  123 05018, ORVIETO, TR","prices":[{"type":"petrol","price":1.799,"self":true,"updatedAt":"30/06/2026 07:38:02"},{"type":"diesel","price":1.879,"self":true,"updatedAt":"30/06/2026 07:38:02"},{"type":"lpg","price":0.799,"self":false,"updatedAt":"30/06/2026 07:38:02"}]},{"id":"29048","lat":42.72162067218727,"lon":12.132721272228885,"name":"GIONTELLA S.R.L. - ORVIETO CARBURANTI","brand":"Pompe Bianche","address":"A. COSTANZI 54 05018, ORVIETO, TR","prices":[{"type":"petrol","price":1.807,"self":true,"updatedAt":"30/06/2026 06:41:30"},{"type":"diesel","price":1.883,"self":true,"updatedAt":"30/06/2026 06:41:30"}]},{"id":"58106","lat":42.727096718386086,"lon":12.093738570022587,"name":"GIONTELLA S.R.L. -SFERRACAVALLO CARBURANTI","brand":"Pompe Bianche","address":"LIVENZA SNC 05018, ORVIETO, TR","prices":[{"type":"petrol","price":1.807,"self":true,"updatedAt":"30/06/2026 06:41:45"},{"type":"diesel","price":1.883,"self":true,"updatedAt":"30/06/2026 06:41:45"}]},{"id":"9412","lat":42.69821687455367,"lon":12.18209445476532,"name":"ICM - Amerina","brand":"ICM","address":"S.S. AMERINA KM. 48+660   05018, ORVIETO, TR","prices":[{"type":"petrol","price":1.806,"self":false,"updatedAt":"30/06/2026 10:34:26"},{"type":"diesel","price":1.879,"self":false,"updatedAt":"30/06/2026 10:34:26"}]},{"id":"9415","lat":42.73517707762299,"lon":12.081270217895508,"name":"ICM - Romealla","brand":"ICM","address":"LOCALITA' ROMEALLA  05018, ORVIETO, TR","prices":[{"type":"petrol","price":1.807,"self":false,"updatedAt":"30/06/2026 10:34:55"},{"type":"diesel","price":1.883,"self":false,"updatedAt":"30/06/2026 10:34:55"}]},{"id":"9410","lat":42.72037411969436,"lon":12.126245498657227,"name":"ICM - Viale I° Maggio","brand":"ICM","address":"STRADA PROVINCIALE BAGNOREGIO   05018, ORVIETO, TR","prices":[{"type":"petrol","price":1.807,"self":false,"updatedAt":"30/06/2026 10:35:10"},{"type":"diesel","price":1.883,"self":false,"updatedAt":"30/06/2026 10:35:10"}]},{"id":"4339","lat":42.719145273355664,"lon":12.125480656327795,"name":"METAN PETROLI - IP","brand":"Api-Ip","address":"VIALE I° MAGGIO - S.P. BAGNOREGIO KM.0+386,   05018, ORVIETO, TR","prices":[{"type":"petrol","price":1.807,"self":true,"updatedAt":"01/07/2026 07:52:22"},{"type":"diesel","price":1.883,"self":true,"updatedAt":"01/07/2026 07:52:22"},{"type":"methane","price":1.479,"self":false,"updatedAt":"01/07/2026 07:52:22"}]},{"id":"24092","lat":42.712421462948264,"lon":12.105843882017325,"name":"Orvieto","brand":"Api-Ip","address":"Via Piana dell'Arcone 13 05018, ORVIETO, TR","prices":[{"type":"petrol","price":1.799,"self":true,"updatedAt":"30/06/2026 13:12:30"},{"type":"diesel","price":1.879,"self":true,"updatedAt":"30/06/2026 13:12:30"}]},{"id":"30409","lat":42.71964088290121,"lon":12.138115334987674,"name":"ORVIETO - S.S. 205","brand":"Api-Ip","address":"S.S.N. 205 KM. 53,30  05019, ORVIETO, TR","prices":[{"type":"petrol","price":1.799,"self":true,"updatedAt":"30/06/2026 13:03:27"},{"type":"diesel","price":1.879,"self":true,"updatedAt":"30/06/2026 13:03:27"},{"type":"lpg","price":0.799,"self":false,"updatedAt":"30/06/2026 09:05:38"}]},{"id":"19542","lat":42.71297781961968,"lon":12.11730569601059,"name":"Q8 di brugi claudio","brand":"Q8","address":"DELL'ARCONE 28 05018, ORVIETO, TR","prices":[{"type":"petrol","price":1.859,"self":true,"updatedAt":"30/06/2026 11:32:30"},{"type":"diesel","price":1.899,"self":true,"updatedAt":"30/06/2026 11:32:30"}]},{"id":"53055","lat":42.7231181,"lon":12.1267365,"name":"SOCA","brand":"Tamoil","address":"via Antonio Gramsci 4 05018, ORVIETO, TR","prices":[{"type":"petrol","price":1.807,"self":true,"updatedAt":"01/07/2026 01:14:43"},{"type":"diesel","price":1.883,"self":true,"updatedAt":"01/07/2026 01:14:44"}]},{"id":"8482","lat":42.71674722081752,"lon":12.143614143133163,"name":"Stazione Servizio Esso - R.B.C. snc","brand":"Esso","address":"VIA COSTANZI 73 05018, ORVIETO, TR","prices":[{"type":"petrol","price":1.799,"self":true,"updatedAt":"30/06/2026 17:01:21"},{"type":"diesel","price":1.879,"self":true,"updatedAt":"30/06/2026 17:01:21"}]},{"id":"58887","lat":42.684278,"lon":12.0977554,"name":"AREA SERVIZIO TAMOIL PORANO","brand":"Tamoil","address":"SP55 KM2+100 05010, PORANO, TR","prices":[{"type":"petrol","price":1.819,"self":true,"updatedAt":"01/07/2026 01:07:07"},{"type":"diesel","price":1.889,"self":true,"updatedAt":"01/07/2026 01:59:58"}]},{"id":"61410","lat":42.62716502387571,"lon":12.089006878359982,"name":"ENGY'S BAGNOREGIO","brand":"Api-Ip","address":"Via Teverina snc 01022, BAGNOREGIO, VT","prices":[{"type":"petrol","price":1.847,"self":true,"updatedAt":"30/06/2026 08:56:03"},{"type":"diesel","price":1.937,"self":true,"updatedAt":"30/06/2026 08:56:03"}]},{"id":"9416","lat":42.6281392188406,"lon":12.036300301551819,"name":"ICM - Capraccia","brand":"ICM","address":"LOC. CAPARACCIA  01022, BAGNOREGIO, VT","prices":[{"type":"petrol","price":1.787,"self":false,"updatedAt":"30/06/2026 10:34:34"},{"type":"diesel","price":1.877,"self":false,"updatedAt":"30/06/2026 10:34:34"}]},{"id":"62046","lat":42.62749,"lon":12.09257,"name":"IMPIANTO Q8","brand":"Q8","address":"S. BATTAGLINI SNC 01022, BAGNOREGIO, VT","prices":[{"type":"petrol","price":1.847,"self":true,"updatedAt":"01/07/2026 07:22:30"},{"type":"diesel","price":1.937,"self":true,"updatedAt":"01/07/2026 07:22:30"}]},{"id":"42468","lat":42.65268320279659,"lon":12.201364114880562,"name":"PROSPERITA SRL","brand":"Api-Ip","address":"VIA DEL MASSETO 1 01024, CASTIGLIONE IN TEVERINA, VT","prices":[{"type":"petrol","price":1.829,"self":true,"updatedAt":"25/06/2026 11:33:44"},{"type":"diesel","price":1.919,"self":true,"updatedAt":"25/06/2026 11:33:44"}]},{"id":"49666","lat":42.604507896894084,"lon":12.186148705522552,"name":"ENERPETROLI - PV CIVITELLA D'AGLIANO - VT","brand":"Enerpetroli","address":"VIA G. MARCONI  24 01020, CIVITELLA D'AGLIANO, VT","prices":[{"type":"petrol","price":1.829,"self":true,"updatedAt":"29/06/2026 11:34:08"},{"type":"diesel","price":1.899,"self":true,"updatedAt":"29/06/2026 11:34:08"}]},{"id":"48233","lat":42.625053023035434,"lon":12.23152756690979,"name":"TEVERE EST","brand":"Q8","address":"A1 MILANO-NAPOLI, Km. 464, NORD - 01020, CIVITELLA D'AGLIANO, VT","prices":[{"type":"petrol","price":1.844,"self":true,"updatedAt":"30/06/2026 14:05:01"},{"type":"diesel","price":1.954,"self":true,"updatedAt":"30/06/2026 14:05:01"},{"type":"lpg","price":0.799,"self":false,"updatedAt":"30/06/2026 14:05:01"}]},{"id":"48191","lat":42.62414848786896,"lon":12.230390520238132,"name":"TEVERE OVEST","brand":"Q8","address":"A1 MILANO-NAPOLI, Km. 464+700, SUD - 01020, CIVITELLA D'AGLIANO, VT","prices":[{"type":"petrol","price":1.844,"self":true,"updatedAt":"30/06/2026 14:04:59"},{"type":"diesel","price":1.954,"self":true,"updatedAt":"30/06/2026 14:04:59"},{"type":"lpg","price":0.799,"self":false,"updatedAt":"30/06/2026 14:04:59"}]},{"id":"51069","lat":42.57672501863525,"lon":12.200858441869787,"name":"GRAFFIGNANO","brand":"TIBER","address":"VIA SALVO D'ACQUISTO SNC 01020, GRAFFIGNANO, VT","prices":[{"type":"petrol","price":1.859,"self":true,"updatedAt":"30/06/2026 23:25:04"},{"type":"diesel","price":1.959,"self":true,"updatedAt":"30/06/2026 23:25:04"},{"type":"lpg","price":0.789,"self":false,"updatedAt":"30/06/2026 23:25:04"}]},{"id":"58352","lat":42.547436,"lon":12.232964,"name":"VT 01 SIPICCIANO","brand":"Pompe Bianche","address":"MAZZINI SNC 01020, GRAFFIGNANO, VT","prices":[{"type":"petrol","price":1.839,"self":true,"updatedAt":"30/06/2026 11:44:49"},{"type":"diesel","price":1.899,"self":true,"updatedAt":"30/06/2026 11:44:49"}]},{"id":"12123","lat":42.6362500788786,"lon":12.110157217196615,"name":"ENERPETROLI - PV LUBRIANO - VT","brand":"Enerpetroli","address":"PIAZZA COL DI LANA SNC 01020, LUBRIANO, VT","prices":[{"type":"petrol","price":1.829,"self":true,"updatedAt":"29/06/2026 11:40:43"},{"type":"diesel","price":1.899,"self":true,"updatedAt":"29/06/2026 11:40:43"}]},{"id":"58825","lat":42.53749,"lon":12.036616,"name":"7473  MONTEFIASCONE","brand":"Agip Eni","address":"SS 2 CASSIA KM 97+800, MONTEFIASCONE, VT","prices":[{"type":"petrol","price":1.829,"self":true,"updatedAt":"01/07/2026 00:32:19"},{"type":"diesel","price":1.889,"self":true,"updatedAt":"01/07/2026 00:32:19"}]},{"id":"60404","lat":42.5137381,"lon":12.0535881,"name":"GPS MONTEFIASCONE","brand":"Pompe Bianche","address":"Strada Statale Cassia Km 94 01027, MONTEFIASCONE, VT","prices":[{"type":"petrol","price":1.779,"self":true,"updatedAt":"30/06/2026 13:26:52"},{"type":"diesel","price":1.879,"self":true,"updatedAt":"30/06/2026 13:26:52"}]},{"id":"14744","lat":42.5500215946191,"lon":12.030812501907349,"name":"MANZI PETROLI","brand":"Pompe Bianche","address":"VIA CARDINAL SALOTTI SNC 01027, MONTEFIASCONE, VT","prices":[{"type":"petrol","price":1.815,"self":true,"updatedAt":"30/06/2026 15:43:54"},{"type":"diesel","price":1.917,"self":true,"updatedAt":"30/06/2026 15:43:54"}]},{"id":"55439","lat":42.54224,"lon":12.03616,"name":"MANZI PETROLI SAS","brand":"Pompe Bianche","address":"DELLE CANNELLE SNC 01027, MONTEFIASCONE, VT","prices":[{"type":"petrol","price":1.815,"self":true,"updatedAt":"30/06/2026 15:44:13"},{"type":"diesel","price":1.917,"self":true,"updatedAt":"30/06/2026 15:44:13"}]},{"id":"60393","lat":42.54255,"lon":12.03192,"name":"MONTEFIASCONE - VIA DELLE GRAZIE","brand":"Pompe Bianche","address":"via Madonna delle Grazie - Montefiascone (VT) SNC 01027, MONTEFIASCONE, VT","prices":[{"type":"petrol","price":1.725,"self":true,"updatedAt":"30/06/2026 23:56:27"},{"type":"diesel","price":2.125,"self":true,"updatedAt":"30/06/2026 23:56:27"}]},{"id":"33878","lat":42.517231883431954,"lon":12.169454397837285,"name":"ENERPETROLI - PV GROTTE SANTO STEFANO","brand":"Enerpetroli","address":"STRADA PROVINCIALE 18  01026, VITERBO, VT","prices":[{"type":"petrol","price":1.799,"self":true,"updatedAt":"25/06/2026 15:20:39"},{"type":"diesel","price":1.889,"self":true,"updatedAt":"25/06/2026 15:20:39"}]},{"id":"49162","lat":42.52277799438117,"lon":12.122430801391596,"name":"Grotte Santo Stefano","brand":"Cancellieri carburanti","address":"VIA PROV.LE TEVERINA 40 01100, VITERBO (VT) 40 01100, VITERBO, VT","prices":[{"type":"petrol","price":1.789,"self":true,"updatedAt":"30/06/2026 22:01:14"},{"type":"diesel","price":1.879,"self":true,"updatedAt":"30/06/2026 22:01:12"},{"type":"lpg","price":0.709,"self":false,"updatedAt":"30/06/2026 22:01:13"}]},{"id":"30644","lat":42.58402676523191,"lon":12.105996324483158,"name":"PRATOLEVA","brand":"Pompe Bianche","address":"PRATOLEVA 12 01100, VITERBO, VT","prices":[{"type":"petrol","price":1.799,"self":true,"updatedAt":"29/06/2026 07:01:35"},{"type":"diesel","price":1.899,"self":true,"updatedAt":"29/06/2026 07:01:35"}]},{"id":"54723","lat":42.51866,"lon":12.1651,"name":"TIBER VITERBO GROTTE SANTO STEFANO","brand":"TIBER","address":"PROVINCIALE GROTTANA KM 2 01100, VITERBO, VT","prices":[{"type":"petrol","price":1.789,"self":true,"updatedAt":"30/06/2026 23:24:32"},{"type":"diesel","price":1.879,"self":true,"updatedAt":"30/06/2026 23:24:32"}]}]