[{"id":"31026","lat":42.9515929730568,"lon":12.004887399043696,"name":"DARM- CITTA' DELLA PIEVE","brand":"Pompe Bianche","address":"via beato giacomo villa 13 06062, CITTÀ DELLA PIEVE, PG","prices":[{"type":"petrol","price":1.879,"self":true,"updatedAt":"17/06/2026 16:05:07"},{"type":"diesel","price":1.979,"self":true,"updatedAt":"17/06/2026 16:05:07"}]},{"id":"29600","lat":42.96837805566838,"lon":12.084583149073751,"name":"PG 01 PIEGARO","brand":"Pompe Bianche","address":"VIA CAVALIERI DI VITTORIO VENETO 1 06066, PIEGARO, PG","prices":[{"type":"petrol","price":1.879,"self":true,"updatedAt":"19/06/2026 09:46:15"},{"type":"diesel","price":1.929,"self":true,"updatedAt":"19/06/2026 09:46:15"}]},{"id":"62668","lat":42.96596,"lon":12.08409,"name":"PIEGARO","brand":"Pompe Bianche","address":"LOCALITA' CASTIGLIONFOSCO SNC 06066, PIEGARO, PG","prices":[{"type":"petrol","price":1.734,"self":true,"updatedAt":"27/04/2026 09:25:53"},{"type":"diesel","price":2.105,"self":true,"updatedAt":"27/04/2026 09:25:53"}]},{"id":"9411","lat":42.767247551101846,"lon":12.038320004940033,"name":"ICM - Le Prese","brand":"ICM","address":"LOCALITA' LE PRESE KM. 14+400  05011, CASTEL VISCARDO, TR","prices":[{"type":"petrol","price":1.843,"self":false,"updatedAt":"22/06/2026 10:59:12"},{"type":"diesel","price":1.918,"self":false,"updatedAt":"22/06/2026 10:59:12"}]},{"id":"18360","lat":42.87667073115646,"lon":12.037484496831894,"name":"EUROFUEL SAS","brand":"Q8","address":"STRADA PROVINCIALE 106 KM. 1,850  05015, FABRO, TR","prices":[{"type":"petrol","price":1.829,"self":true,"updatedAt":"23/06/2026 07:35:43"},{"type":"diesel","price":1.919,"self":true,"updatedAt":"23/06/2026 07:35:43"}]},{"id":"44643","lat":42.87667174013965,"lon":12.018480058860746,"name":"FABRO EST","brand":"Api-Ip","address":"A1 MILANO-NAPOLI, Km. 427+800, Nord - 05015, FABRO, TR","prices":[{"type":"petrol","price":1.859,"self":true,"updatedAt":"22/06/2026 17:41:31"},{"type":"diesel","price":1.969,"self":true,"updatedAt":"22/06/2026 17:41:31"},{"type":"methane","price":1.529,"self":false,"updatedAt":"22/06/2026 17:41:31"},{"type":"lpg","price":0.919,"self":false,"updatedAt":"22/06/2026 17:41:31"}]},{"id":"3855","lat":42.87565157135933,"lon":12.0180344581604,"name":"FABRO OVEST","brand":"Agip Eni","address":"Autostrada A1 MILANO-NAPOLI, Km. 427+800, dir. Sud - 05015, FABRO, TR","prices":[{"type":"petrol","price":1.837,"self":true,"updatedAt":"22/06/2026 23:41:57"},{"type":"diesel","price":1.937,"self":true,"updatedAt":"22/06/2026 23:41:57"}]},{"id":"34580","lat":42.87973695421063,"lon":12.043268010020256,"name":"stazione eni","brand":"Agip Eni","address":"Statale 71 Umbro Casentinese Romagnola, Km. 61+052, dir. Arezzo61 - 05015, FABRO, TR","prices":[{"type":"petrol","price":1.829,"self":true,"updatedAt":"23/06/2026 00:03:04"},{"type":"diesel","price":1.919,"self":true,"updatedAt":"23/06/2026 00:03:04"}]},{"id":"51322","lat":42.850988941450744,"lon":12.067980495700827,"name":"ENERPETROLI - PV FICULLE - TR","brand":"Enerpetroli","address":"S.R. N.71 KM. 55,000  05016, FICULLE, TR","prices":[{"type":"petrol","price":1.879,"self":true,"updatedAt":"16/06/2026 16:07:16"},{"type":"diesel","price":1.989,"self":true,"updatedAt":"16/06/2026 16:07:16"}]},{"id":"50828","lat":42.91529753710503,"lon":12.094960272184343,"name":"AREA DI SERVIZIO MARCHETTI SRL","brand":"Esso","address":"STRADA PROVINCIALE 58 KM.1.250  05010, MONTEGABBIONE, TR","prices":[{"type":"petrol","price":1.829,"self":true,"updatedAt":"22/06/2026 11:47:33"},{"type":"diesel","price":1.919,"self":true,"updatedAt":"22/06/2026 11:47:33"}]},{"id":"60962","lat":42.92171,"lon":12.05347,"name":"MONTELEONE D'ORVIETO","brand":"Pompe Bianche","address":"Sp piegarese km 0+60  SNC 05017, MONTELEONE D'ORVIETO, TR","prices":[{"type":"petrol","price":1.826,"self":true,"updatedAt":"22/06/2026 14:46:08"},{"type":"diesel","price":1.894,"self":true,"updatedAt":"22/06/2026 14:46:08"}]},{"id":"50044","lat":42.86455653785216,"lon":12.10721413242453,"name":"OP PETROLI Parrano","brand":"Pompe Bianche","address":"VIA OSTERIA snc 05010, PARRANO, TR","prices":[{"type":"petrol","price":1.979,"self":true,"updatedAt":"22/06/2026 21:30:41"},{"type":"diesel","price":2.069,"self":true,"updatedAt":"22/06/2026 21:30:41"}]}]