[{"id":"5009","lat":42.835357201937555,"lon":12.76284635066986,"name":"ADS \"IP\" di GF SERVIZI SRL","brand":"Api-Ip","address":"Statale 3 Via Flaminia, Km. 137, dir. SUD - 06042, CAMPELLO SUL CLITUNNO, PG","prices":[{"type":"petrol","price":1.759,"self":true,"updatedAt":"23/06/2026 10:20:02"},{"type":"diesel","price":1.859,"self":true,"updatedAt":"23/06/2026 10:20:02"}]},{"id":"58254","lat":42.8153425,"lon":12.915688,"name":"IP BORGO CERRETO SUBASIO PETROLI SRL","brand":"Api-Ip","address":"Via Valnerina SNC 06041, CERRETO DI SPOLETO, PG","prices":[{"type":"petrol","price":1.819,"self":true,"updatedAt":"25/06/2026 19:47:57"},{"type":"diesel","price":1.899,"self":true,"updatedAt":"25/06/2026 19:47:57"}]},{"id":"25578","lat":42.977205569428456,"lon":12.839707732200623,"name":"STAZIONE ICM","brand":"Pompe Bianche","address":"VIA MACERATA 12/B, 06034  06034, FOLIGNO, PG","prices":[{"type":"petrol","price":1.895,"self":true,"updatedAt":"24/06/2026 12:15:07"},{"type":"diesel","price":1.971,"self":true,"updatedAt":"24/06/2026 12:15:07"}]},{"id":"30969","lat":42.79428666267247,"lon":12.764407396316528,"name":"7754","brand":"Tamoil","address":"S.S.3FLAMINIA(VARIANTE)KM3+962 SNC 06049, SPOLETO, PG","prices":[{"type":"petrol","price":1.739,"self":true,"updatedAt":"25/06/2026 00:37:58"},{"type":"diesel","price":1.859,"self":true,"updatedAt":"25/06/2026 00:37:58"}]},{"id":"14913","lat":42.77306899522541,"lon":12.767030596733093,"name":"CENTRO CARBURANTI FLAMINIA SNC","brand":"Tamoil","address":"VIA FLAMINIA KM 130 + 200, 06049 - -, SPOLETO, PG","prices":[{"type":"petrol","price":1.749,"self":true,"updatedAt":"25/06/2026 14:06:10"},{"type":"diesel","price":1.839,"self":true,"updatedAt":"25/06/2026 14:06:10"},{"type":"methane","price":1.349,"self":false,"updatedAt":"25/06/2026 14:06:10"},{"type":"lpg","price":0.799,"self":false,"updatedAt":"25/06/2026 23:52:48"}]},{"id":"31954","lat":42.75878906931839,"lon":12.756620627455277,"name":"IP","brand":"Api-Ip","address":"Statale 3 Via Flaminia, Km. 128,640, dir. Foligno - 06049, SPOLETO, PG","prices":[{"type":"petrol","price":1.789,"self":true,"updatedAt":"24/06/2026 08:41:33"},{"type":"diesel","price":1.869,"self":true,"updatedAt":"24/06/2026 08:41:32"},{"type":"lpg","price":0.799,"self":false,"updatedAt":"24/06/2026 08:41:33"}]},{"id":"48078","lat":42.795062128050915,"lon":12.763106524944305,"name":"Spoleto","brand":"Esso","address":"3 Via Flaminia, Km. 4+65, _ - 06049, SPOLETO, PG","prices":[{"type":"petrol","price":1.799,"self":true,"updatedAt":"24/06/2026 20:09:05"},{"type":"diesel","price":1.879,"self":true,"updatedAt":"24/06/2026 20:09:05"},{"type":"lpg","price":0.779,"self":false,"updatedAt":"24/06/2026 20:09:05"}]},{"id":"61877","lat":42.80213,"lon":12.75366,"name":"TIBER SPOLETO","brand":"TIBER","address":"SS 3 FLAMINIA KM. 133+795  06049, SPOLETO, PG","prices":[{"type":"petrol","price":1.859,"self":true,"updatedAt":"26/06/2026 00:19:57"},{"type":"diesel","price":1.899,"self":true,"updatedAt":"26/06/2026 00:19:57"},{"type":"lpg","price":0.789,"self":false,"updatedAt":"26/06/2026 00:19:57"}]}]