[{"id":"61232","lat":42.80502,"lon":10.76522,"name":"CHECCHI CARBURANTI PUNTA ALA","brand":"Agip Eni","address":"DEL PORTO 3 58043, CASTIGLIONE DELLA PESCAIA, GR","prices":[{"type":"petrol","price":1.89,"self":true,"updatedAt":"24/06/2026 00:56:10"},{"type":"diesel","price":1.979,"self":true,"updatedAt":"24/06/2026 00:56:10"}]},{"id":"27178","lat":42.768715390974336,"lon":10.885596937196397,"name":"esso","brand":"Esso","address":"PROVINCIALE CASTIGLIONESE SNC 58043, CASTIGLIONE DELLA PESCAIA, GR","prices":[{"type":"petrol","price":1.809,"self":true,"updatedAt":"23/06/2026 16:10:45"},{"type":"diesel","price":1.899,"self":true,"updatedAt":"23/06/2026 16:10:45"}]},{"id":"62646","lat":42.7640889,"lon":10.874095,"name":"IP CASTIGLIONE FM PETROL SRL","brand":"Api-Ip","address":"Via Guglielmo Marconi 88 58043, CASTIGLIONE DELLA PESCAIA, GR","prices":[{"type":"petrol","price":1.876,"self":true,"updatedAt":"24/06/2026 09:55:55"},{"type":"diesel","price":2.026,"self":true,"updatedAt":"24/06/2026 09:55:55"}]},{"id":"25761","lat":42.76121886274206,"lon":10.887711010873318,"name":"SELF AREA 4966","brand":"Agip Eni","address":"VIA ANSEDONIA  32 58043, CASTIGLIONE DELLA PESCAIA, GR","prices":[{"type":"petrol","price":1.824,"self":true,"updatedAt":"24/06/2026 23:36:57"},{"type":"diesel","price":1.914,"self":true,"updatedAt":"24/06/2026 23:36:57"}]},{"id":"9749","lat":42.771032556185325,"lon":10.889827609062195,"name":"TAMOIL","brand":"Tamoil","address":"STRADA PROV.LE  3 PADULE SNC 58043, CASTIGLIONE DELLA PESCAIA, GR","prices":[{"type":"petrol","price":1.829,"self":true,"updatedAt":"24/06/2026 23:43:01"},{"type":"diesel","price":1.919,"self":true,"updatedAt":"24/06/2026 23:43:01"},{"type":"lpg","price":0.739,"self":false,"updatedAt":"24/06/2026 15:06:13"}]},{"id":"36054","lat":42.9262896818544,"lon":10.751923352710946,"name":"Autolavaggio D'avino Fabio","brand":"Pompe Bianche","address":"Via litoranea  4 58022, FOLLONICA, GR","prices":[{"type":"petrol","price":1.939,"self":false,"updatedAt":"22/06/2026 12:48:03"},{"type":"diesel","price":2.059,"self":false,"updatedAt":"22/06/2026 12:48:03"}]},{"id":"21576","lat":42.936195224194975,"lon":10.778027772903442,"name":"cardini e lazzerini snc","brand":"Agip Eni","address":"VIA AURELIA SNC 58022, FOLLONICA, GR","prices":[{"type":"petrol","price":1.829,"self":true,"updatedAt":"25/06/2026 00:17:32"},{"type":"diesel","price":1.919,"self":true,"updatedAt":"25/06/2026 00:17:32"}]},{"id":"10222","lat":42.93945991506522,"lon":10.781149574471556,"name":"Distributore di Follonica","brand":"Pompe Bianche","address":"DIACCIO  58022, FOLLONICA, GR","prices":[{"type":"petrol","price":1.829,"self":true,"updatedAt":"23/06/2026 14:07:59"},{"type":"diesel","price":1.929,"self":true,"updatedAt":"23/06/2026 14:07:59"},{"type":"methane","price":1.455,"self":false,"updatedAt":"23/06/2026 14:07:59"},{"type":"lpg","price":0.748,"self":false,"updatedAt":"23/06/2026 14:07:59"}]},{"id":"11131","lat":42.92796166424806,"lon":10.753251694527762,"name":"ENERPETROLI - PV FOLLONICA U.BASSI - GR","brand":"Enerpetroli","address":"VIA UGO BASSI SNC 58022, FOLLONICA, GR","prices":[{"type":"petrol","price":1.799,"self":true,"updatedAt":"24/06/2026 17:01:46"},{"type":"diesel","price":1.899,"self":true,"updatedAt":"24/06/2026 17:01:46"}]},{"id":"13142","lat":42.93564893727554,"lon":10.775361061096186,"name":"ENI \tS & G SNC DI FERRETTI STEFANO E GIACOMO","brand":"Agip Eni","address":"AURELIA SNC 58022, FOLLONICA, GR","prices":[{"type":"petrol","price":1.829,"self":true,"updatedAt":"25/06/2026 00:17:19"},{"type":"diesel","price":1.919,"self":true,"updatedAt":"25/06/2026 00:17:19"},{"type":"lpg","price":0.759,"self":false,"updatedAt":"25/06/2026 00:17:19"}]},{"id":"49043","lat":42.951615245171425,"lon":10.776901245117188,"name":"Follonica","brand":"Esso","address":"1 Via Aurelia, Km. 226+673, Nord - 58022, FOLLONICA, GR","prices":[{"type":"petrol","price":1.769,"self":true,"updatedAt":"25/06/2026 05:48:00"},{"type":"diesel","price":1.899,"self":true,"updatedAt":"25/06/2026 05:48:00"}]},{"id":"34730","lat":42.935584117195944,"lon":10.773259713425773,"name":"FOLLONICA B.FUEL","brand":"Pompe Bianche","address":"s.p. 152 \"Vecchia Aurelia\" km 42,500  58022, FOLLONICA, GR","prices":[{"type":"petrol","price":1.799,"self":true,"updatedAt":"24/06/2026 20:06:56"},{"type":"diesel","price":1.879,"self":true,"updatedAt":"24/06/2026 19:16:41"},{"type":"methane","price":1.455,"self":false,"updatedAt":"24/06/2026 10:56:43"},{"type":"lpg","price":0.749,"self":false,"updatedAt":"24/06/2026 20:36:42"}]},{"id":"11130","lat":42.92596203372656,"lon":10.753037631511688,"name":"FOLLONICA VIA SANTINI - GR","brand":"Enerpetroli","address":"VIA SANTINI SNC 58022, FOLLONICA, GR","prices":[{"type":"petrol","price":1.799,"self":true,"updatedAt":"24/06/2026 17:01:09"},{"type":"diesel","price":1.899,"self":true,"updatedAt":"24/06/2026 17:01:09"}]},{"id":"63244","lat":42.91490096265646,"lon":10.769040661376952,"name":"IP CARLI ANDREA","brand":"Api-Ip","address":"VIAL DELLE COLLACCHIE SNC SNC 58022, FOLLONICA, GR","prices":[{"type":"petrol","price":1.819,"self":true,"updatedAt":"22/06/2026 17:12:41"},{"type":"diesel","price":1.919,"self":true,"updatedAt":"22/06/2026 17:12:41"}]},{"id":"61817","lat":42.925891,"lon":10.756118,"name":"SHELL FOLLONICA VIA BICOCCHI","brand":"Shell","address":"EMILIO BICOCCHI SNC 58022, FOLLONICA, GR","prices":[{"type":"petrol","price":1.799,"self":true,"updatedAt":"25/06/2026 07:19:13"},{"type":"diesel","price":1.899,"self":true,"updatedAt":"25/06/2026 07:19:13"}]},{"id":"11614","lat":42.951404172544585,"lon":10.908896559524464,"name":"GAVORRANO-LOC.LA MENGA VARIANTE AURELIA","brand":"Q8","address":"LOC.LA MENGA VARIANTE AURELIA S/N 58023, GAVORRANO, GR","prices":[{"type":"petrol","price":1.764,"self":true,"updatedAt":"24/06/2026 07:50:07"},{"type":"diesel","price":1.914,"self":true,"updatedAt":"24/06/2026 07:50:07"}]},{"id":"25242","lat":42.93840893267775,"lon":10.887863612233787,"name":"shell","brand":"Esso","address":"via curiel 10 bagno di gavorrano  58023, GAVORRANO, GR","prices":[{"type":"petrol","price":1.849,"self":true,"updatedAt":"23/06/2026 07:53:59"},{"type":"diesel","price":1.949,"self":true,"updatedAt":"23/06/2026 07:53:59"}]},{"id":"63257","lat":42.898390864278255,"lon":10.784696023890508,"name":"CARLI CLAUDIO PUNTONE SCARLINO","brand":"Api-Ip","address":"DELLE COLLACCHIE SNC 58020, SCARLINO, GR","prices":[{"type":"petrol","price":1.829,"self":true,"updatedAt":"24/06/2026 17:00:00"},{"type":"diesel","price":1.889,"self":true,"updatedAt":"24/06/2026 17:00:00"},{"type":"lpg","price":0.749,"self":false,"updatedAt":"24/06/2026 17:00:00"}]},{"id":"51574","lat":42.85488593254055,"lon":10.806830999999981,"name":"Andrea Raffaelli Soccorso Stradale","brand":"Api-Ip","address":"STRADA PROVINCIALE N.158 KM 10+970  snc 58020, SCARLINO, GR","prices":[{"type":"petrol","price":1.829,"self":true,"updatedAt":"20/06/2026 15:56:37"},{"type":"diesel","price":1.929,"self":true,"updatedAt":"20/06/2026 15:56:37"}]},{"id":"56842","lat":42.940308,"lon":10.806527,"name":"ESSO - SCARLINO V. AURELIA LOC. CASONE","brand":"Esso","address":"1 AURELIA - LOCALITA' CASONE SNC 58020, SCARLINO, GR","prices":[{"type":"petrol","price":1.799,"self":true,"updatedAt":"25/06/2026 07:19:50"},{"type":"diesel","price":1.899,"self":true,"updatedAt":"25/06/2026 07:19:50"}]},{"id":"8718","lat":42.95867210715349,"lon":10.816238522529602,"name":"La Castellina s.s.1","brand":"Agip Eni","address":"Statale 1 bis Via Aurelia, Km. 223, dir. Roma - 58020, SCARLINO, GR","prices":[{"type":"petrol","price":1.809,"self":true,"updatedAt":"25/06/2026 01:06:03"},{"type":"diesel","price":1.899,"self":true,"updatedAt":"25/06/2026 01:06:03"}]},{"id":"7447","lat":42.94351568016679,"lon":10.825131386518478,"name":"S.A.M. Scarlino","brand":"Agip Eni","address":"SP. 152 Aurelia Vecchia Km.48+300 Scarlino Scalo  58020, SCARLINO, GR","prices":[{"type":"petrol","price":1.825,"self":true,"updatedAt":"25/06/2026 00:18:15"},{"type":"diesel","price":1.904,"self":true,"updatedAt":"24/06/2026 20:24:09"},{"type":"lpg","price":0.749,"self":false,"updatedAt":"25/06/2026 00:18:15"}]}]