[{"id":"7506","lat":42.759140407673364,"lon":10.377576649188995,"name":"Bazar di Mola","brand":"Agip Eni","address":"via P.le Ovest 101-103 - Loc. Mola  57036, PORTO AZZURRO, LI","prices":[{"type":"petrol","price":1.825,"self":true,"updatedAt":"22/06/2026 00:48:42"},{"type":"diesel","price":1.919,"self":true,"updatedAt":"22/06/2026 00:48:42"}]},{"id":"56443","lat":42.76457431102737,"lon":10.398384630680079,"name":"BEY0050","brand":"Beyfin","address":"Lungomare Paride Adami SNC 57036, PORTO AZZURRO, LI","prices":[{"type":"petrol","price":1.999,"self":true,"updatedAt":"16/06/2026 10:48:53"},{"type":"diesel","price":2.119,"self":true,"updatedAt":"16/06/2026 10:48:53"}]},{"id":"36831","lat":42.76012781483875,"lon":10.369934365153313,"name":"beyfin","brand":"Beyfin","address":"Strada Provinciale Ovest 67 57036, PORTO AZZURRO, LI","prices":[{"type":"petrol","price":1.879,"self":true,"updatedAt":"18/06/2026 14:08:32"},{"type":"diesel","price":1.989,"self":true,"updatedAt":"18/06/2026 14:08:32"}]},{"id":"45944","lat":42.798830205830626,"lon":10.304273289071716,"name":"3A BARONTINI","brand":"Pompe Bianche","address":"strada provinciale per marciana 28/A 57037, PORTOFERRAIO, LI","prices":[{"type":"petrol","price":1.968,"self":true,"updatedAt":"22/06/2026 00:13:48"},{"type":"diesel","price":2.028,"self":true,"updatedAt":"22/06/2026 00:13:48"}]},{"id":"19792","lat":42.813810838303674,"lon":10.317442579487874,"name":"aci-agip","brand":"ACI","address":"VIA R.MANGANARO 5 57030, PORTOFERRAIO, LI","prices":[{"type":"petrol","price":1.959,"self":true,"updatedAt":"22/06/2026 16:06:48"},{"type":"diesel","price":2.019,"self":true,"updatedAt":"22/06/2026 16:06:48"}]},{"id":"47907","lat":42.811481498607726,"lon":10.314920341104509,"name":"CONAD SUPERMERCATI PORTOFERRAIO","brand":"CONAD","address":"Via Cementeria 15 57037, PORTOFERRAIO, LI","prices":[{"type":"petrol","price":1.884,"self":true,"updatedAt":"20/06/2026 09:20:06"},{"type":"diesel","price":1.994,"self":true,"updatedAt":"20/06/2026 09:20:06"}]},{"id":"40591","lat":42.803400522243685,"lon":10.306644961237907,"name":"ENI PORTOFERRAIO","brand":"Agip Eni","address":"VIA CARPANI 90 57037, PORTOFERRAIO, LI","prices":[{"type":"petrol","price":1.824,"self":true,"updatedAt":"22/06/2026 13:16:04"},{"type":"diesel","price":1.919,"self":true,"updatedAt":"22/06/2026 13:16:04"}]},{"id":"37804","lat":42.85897395772876,"lon":10.422502433531122,"name":"Mancusi Mirco","brand":"Pompe Bianche","address":"VIA MICHELANGELO 23 57038, RIO, LI","prices":[{"type":"petrol","price":1.999,"self":true,"updatedAt":"22/06/2026 09:43:26"},{"type":"diesel","price":2.079,"self":true,"updatedAt":"22/06/2026 09:43:26"}]},{"id":"42833","lat":42.808503128915156,"lon":10.400998387731534,"name":"Beyfin Bazar La Ginestra","brand":"Beyfin","address":"strada provinciale per Porto Azzurro  57039, RIO NELL'ELBA, LI","prices":[{"type":"petrol","price":1.959,"self":true,"updatedAt":"22/06/2026 08:10:40"},{"type":"diesel","price":2.049,"self":true,"updatedAt":"22/06/2026 08:10:40"}]}]