[{"id":"21161","lat":43.36578525208384,"lon":12.267382411600238,"name":"BACCARINI S.N.C.","brand":"Api-Ip","address":"Statale 3 bis Tiberina, Km. 130+100, dir. nord 55 06012, CITTÀ DI CASTELLO, PG","prices":[{"type":"petrol","price":1.799,"self":true,"updatedAt":"26/06/2026 07:19:43"},{"type":"diesel","price":1.899,"self":true,"updatedAt":"26/06/2026 07:19:43"}]},{"id":"15147","lat":43.462704337785084,"lon":12.252438068389893,"name":"p.&l.di pietosi f. & landi r. s.n.c.","brand":"Tamoil","address":"via palmiro togliatti   06012, CITTÀ DI CASTELLO, PG","prices":[{"type":"petrol","price":1.819,"self":true,"updatedAt":"27/06/2026 00:36:15"},{"type":"diesel","price":1.899,"self":true,"updatedAt":"27/06/2026 00:36:15"}]},{"id":"38260","lat":43.36263271335436,"lon":12.324008461740618,"name":"LA STACCHIO","brand":"Pompe Bianche","address":"VIALE FORTEBRACCI 4 06014, MONTONE, PG","prices":[{"type":"petrol","price":1.799,"self":true,"updatedAt":"25/06/2026 19:16:26"},{"type":"diesel","price":1.899,"self":true,"updatedAt":"25/06/2026 19:16:26"}]},{"id":"53707","lat":43.43634,"lon":12.43393,"name":"STAZIONE DI SERVIZIO IP DI EVSEI AURELIA","brand":"Api-Ip","address":"B. BUOZZI SNC 06026, PIETRALUNGA, PG","prices":[{"type":"petrol","price":1.819,"self":true,"updatedAt":"26/06/2026 08:33:50"},{"type":"diesel","price":1.899,"self":true,"updatedAt":"26/06/2026 08:33:51"}]},{"id":"59002","lat":43.3,"lon":12.33893,"name":"4574  UMBERTIDE","brand":"Agip Eni","address":"STRADA TIBERINA  181, UMBERTIDE, PG","prices":[{"type":"petrol","price":1.829,"self":true,"updatedAt":"26/06/2026 23:40:06"},{"type":"diesel","price":1.889,"self":true,"updatedAt":"27/06/2026 07:40:13"}]},{"id":"42728","lat":43.30215990882349,"lon":12.334931754309082,"name":"FRATTA OIL SAS","brand":"Esso","address":"3 bis Tiberina, Km. 119, NORD -, UMBERTIDE, PG","prices":[{"type":"petrol","price":1.809,"self":true,"updatedAt":"26/06/2026 09:09:32"},{"type":"diesel","price":1.909,"self":true,"updatedAt":"26/06/2026 09:09:32"}]},{"id":"24085","lat":43.3056278102967,"lon":12.323581673016388,"name":"IP","brand":"Api-Ip","address":"3 bis Tiberina, Km. 999, Città di castello - 06019, UMBERTIDE, PG","prices":[{"type":"petrol","price":1.829,"self":true,"updatedAt":"23/06/2026 14:39:07"},{"type":"diesel","price":1.919,"self":true,"updatedAt":"23/06/2026 14:39:07"}]},{"id":"60676","lat":43.2900223,"lon":12.3718234,"name":"METANO UMBERTIDE","brand":"Simonetti Petroli","address":"LOC. RANCO NUOVO STRADA STATALE 29 KM 44+300  06019, UMBERTIDE, PG","prices":[{"type":"methane","price":1.499,"self":false,"updatedAt":"26/06/2026 18:55:53"}]},{"id":"53846","lat":43.25704373446559,"lon":12.381578907372955,"name":"MINELLI CECILIA","brand":"Api-Ip","address":"STR.PROV.LE PANTANO 169 06019, UMBERTIDE, PG","prices":[{"type":"petrol","price":1.839,"self":true,"updatedAt":"22/06/2026 20:52:03"},{"type":"diesel","price":1.929,"self":true,"updatedAt":"22/06/2026 20:52:03"}]},{"id":"15276","lat":43.29178100649248,"lon":12.373767793178558,"name":"Q8 Frazione Pierantonio-LOCALITA' MONTELOVESCO SNC","brand":"Q8","address":"219 di Gubbio e Piandassino, Km. III 44, Si trova 300 mt prima dello svincolo per la E/45 - 06019, UMBERTIDE, PG","prices":[{"type":"petrol","price":1.829,"self":true,"updatedAt":"26/06/2026 21:30:54"},{"type":"diesel","price":1.929,"self":true,"updatedAt":"26/06/2026 21:30:54"},{"type":"lpg","price":0.849,"self":false,"updatedAt":"26/06/2026 21:30:54"}]},{"id":"58708","lat":43.3163771559027,"lon":12.333602264547334,"name":"STAZIONE DI SERVIZIO IP","brand":"Api-Ip","address":"E 45 KM 108+840 S.N. 06019, UMBERTIDE, PG","prices":[{"type":"petrol","price":1.829,"self":true,"updatedAt":"26/06/2026 23:54:17"},{"type":"diesel","price":1.919,"self":true,"updatedAt":"26/06/2026 23:54:17"}]},{"id":"39423","lat":43.33793759393784,"lon":12.296350126479865,"name":"Stazione di Servizio IP di Borchiellini Simonetta","brand":"Api-Ip","address":"VIA LOC.MONTECASTELLI -VIALE EUROPA 16/A 06012, CITTA' DI CASTELLO (PG) 16/B 06019, UMBERTIDE, PG","prices":[{"type":"petrol","price":1.799,"self":true,"updatedAt":"26/06/2026 08:31:34"},{"type":"diesel","price":1.899,"self":true,"updatedAt":"26/06/2026 08:31:34"}]}]