[{"id":"23367","lat":43.46013167659828,"lon":11.289621016965839,"name":"distributore petri giuseppe","brand":"Agip Eni","address":"strada provinciale 51, fonte al coscio 0  53011, CASTELLINA IN CHIANTI, SI","prices":[{"type":"petrol","price":1.828,"self":true,"updatedAt":"27/06/2026 00:29:03"},{"type":"diesel","price":1.909,"self":true,"updatedAt":"27/06/2026 15:28:08"}]},{"id":"56386","lat":43.308991729755284,"lon":11.470261370849606,"name":"IP 41932 - CASTELNUOVO BERARDENGA","brand":"Api-Ip","address":"sgc siena bettolle  km 11,470  53019, CASTELNUOVO BERARDENGA, SI","prices":[{"type":"petrol","price":1.789,"self":true,"updatedAt":"23/06/2026 15:35:44"},{"type":"diesel","price":1.889,"self":true,"updatedAt":"23/06/2026 15:35:44"}]},{"id":"12393","lat":43.35184355885619,"lon":11.415615838901756,"name":"privato","brand":"Pompe Bianche","address":"delle fonti 47 47 53019, CASTELNUOVO BERARDENGA, SI","prices":[{"type":"petrol","price":2.169,"self":true,"updatedAt":"27/06/2026 10:20:53"},{"type":"diesel","price":2.239,"self":true,"updatedAt":"27/06/2026 10:20:53"}]},{"id":"46313","lat":43.320183639903114,"lon":11.487563573251578,"name":"RACC. SIENA BETOLLE KM 12+600 - CASTELNUOVO BERARDENGA","brand":"Esso","address":"RACC. SIENA BETOLLE KM 12+600  53019, CASTELNUOVO BERARDENGA, SI","prices":[{"type":"petrol","price":1.789,"self":true,"updatedAt":"27/06/2026 06:01:17"},{"type":"diesel","price":1.889,"self":true,"updatedAt":"27/06/2026 06:01:17"},{"type":"lpg","price":0.738,"self":false,"updatedAt":"27/06/2026 06:01:17"}]},{"id":"56792","lat":43.466752,"lon":11.4163712,"name":"ITALIANA PETROLI","brand":"Itala Petroli","address":"STATALE 408 KM 25 SNC 53013, GAIOLE IN CHIANTI, SI","prices":[{"type":"petrol","price":1.826,"self":true,"updatedAt":"27/06/2026 20:30:32"},{"type":"diesel","price":1.906,"self":true,"updatedAt":"27/06/2026 20:30:32"}]},{"id":"24112","lat":43.379494352555994,"lon":11.281494498252869,"name":"BADESSE","brand":"Agip Eni","address":"BADESSE S.P. DI BASCIANO  53035, MONTERIGGIONI, SI","prices":[{"type":"petrol","price":1.839,"self":true,"updatedAt":"25/06/2026 20:07:37"},{"type":"diesel","price":1.899,"self":true,"updatedAt":"25/06/2026 20:07:33"},{"type":"lpg","price":0.829,"self":false,"updatedAt":"25/06/2026 09:34:24"}]},{"id":"4077","lat":43.3492627904654,"lon":11.302136778831482,"name":"MONTERIGGIONI","brand":"Agip Eni","address":"Statale 674 Tangenziale Ovest di Siena, Km. 1+047, dir. FIRENZE - 53035, MONTERIGGIONI, SI","prices":[{"type":"petrol","price":1.83,"self":true,"updatedAt":"25/06/2026 09:57:52"},{"type":"diesel","price":1.909,"self":true,"updatedAt":"25/06/2026 20:11:46"},{"type":"methane","price":1.699,"self":false,"updatedAt":"27/06/2026 07:03:41"},{"type":"lpg","price":0.782,"self":false,"updatedAt":"27/06/2026 07:04:19"}]},{"id":"58081","lat":43.489647,"lon":11.388073,"name":"5412 Radda in Chianti","brand":"Agip Eni","address":"LOC. LA VILLA  SNC, RADDA IN CHIANTI, SI","prices":[{"type":"petrol","price":1.829,"self":true,"updatedAt":"28/06/2026 01:02:11"},{"type":"diesel","price":1.889,"self":true,"updatedAt":"28/06/2026 01:02:11"}]},{"id":"5439","lat":43.31600432798486,"lon":11.305133703041065,"name":"34001 SIENA","brand":"Agip Eni","address":"Tangeziale ovest SNC 53100, SIENA, SI","prices":[{"type":"petrol","price":1.829,"self":true,"updatedAt":"28/06/2026 00:10:25"},{"type":"diesel","price":1.889,"self":true,"updatedAt":"28/06/2026 00:10:25"},{"type":"methane","price":1.513,"self":false,"updatedAt":"28/06/2026 00:10:25"}]},{"id":"52427","lat":43.31204566486944,"lon":11.359339853372958,"name":"3508","brand":"Tamoil","address":"S.S. 73 LEVANTE SS 73 - 53100, SIENA, SI","prices":[{"type":"petrol","price":1.799,"self":true,"updatedAt":"28/06/2026 00:25:14"},{"type":"diesel","price":1.899,"self":true,"updatedAt":"28/06/2026 00:25:14"}]},{"id":"34744","lat":43.29533980230249,"lon":11.341116651892662,"name":"3517","brand":"Tamoil","address":"MASSETANA 61 53100, SIENA, SI","prices":[{"type":"petrol","price":1.779,"self":true,"updatedAt":"28/06/2026 00:25:25"},{"type":"diesel","price":1.889,"self":true,"updatedAt":"28/06/2026 00:25:25"}]},{"id":"58748","lat":43.332336,"lon":11.314295,"name":"53792  SIENA","brand":"Agip Eni","address":"Viale C.B. di Cavour 222  53100, SIENA, SI","prices":[{"type":"petrol","price":1.829,"self":true,"updatedAt":"28/06/2026 01:00:12"},{"type":"diesel","price":1.889,"self":true,"updatedAt":"28/06/2026 01:00:12"}]},{"id":"58751","lat":43.33491,"lon":11.32606,"name":"54044  SIENA","brand":"Agip Eni","address":"VIALE BRACCI  SNC, SIENA, SI","prices":[{"type":"petrol","price":1.829,"self":true,"updatedAt":"28/06/2026 01:00:27"},{"type":"diesel","price":1.889,"self":true,"updatedAt":"28/06/2026 01:00:26"}]},{"id":"7018","lat":43.31011278487374,"lon":11.312067767584267,"name":"Agip","brand":"Agip Eni","address":"VIA TANGENZIALE OVEST - LOC. COLONNA S. MARCO SNC 53100, SIENA (SI)  53100, SIENA, SI","prices":[{"type":"petrol","price":1.83,"self":true,"updatedAt":"28/06/2026 00:39:07"},{"type":"diesel","price":1.919,"self":true,"updatedAt":"28/06/2026 00:39:07"}]},{"id":"61547","lat":43.30261893669272,"lon":11.369137468147285,"name":"ALA SIENA RUFFOLO","brand":"Ala","address":"S.S. 73 SENESE ARETINA - LOC. RUFFOLO  53100, SIENA, SI","prices":[{"type":"petrol","price":1.787,"self":true,"updatedAt":"28/06/2026 01:21:38"},{"type":"diesel","price":1.887,"self":true,"updatedAt":"28/06/2026 01:21:38"}]},{"id":"61220","lat":43.333823354186265,"lon":11.311717486233505,"name":"ALA SIENA SCLAVO","brand":"Ala","address":"V.le Achille Sclavo 10  53100, SIENA, SI","prices":[{"type":"petrol","price":1.797,"self":true,"updatedAt":"28/06/2026 01:20:41"},{"type":"diesel","price":1.887,"self":true,"updatedAt":"28/06/2026 01:20:41"}]},{"id":"10974","lat":43.302596340038,"lon":11.324320088577224,"name":"AQUILA","brand":"Aquila","address":"VIA MASSETANA ROMANA 51 53100, SIENA, SI","prices":[{"type":"petrol","price":1.789,"self":true,"updatedAt":"26/06/2026 06:57:40"},{"type":"diesel","price":1.869,"self":true,"updatedAt":"26/06/2026 06:57:40"},{"type":"lpg","price":0.739,"self":false,"updatedAt":"26/06/2026 06:57:40"}]},{"id":"6163","lat":43.29874056668045,"lon":11.309016644954681,"name":"Beyfin","brand":"Beyfin","address":"Statale 73 Ponente Senese Aretina, Km. 35, dir. siena 35 53100, SIENA, SI","prices":[{"type":"petrol","price":1.769,"self":true,"updatedAt":"28/06/2026 00:35:42"},{"type":"diesel","price":1.889,"self":true,"updatedAt":"28/06/2026 00:35:41"},{"type":"lpg","price":0.739,"self":false,"updatedAt":"28/06/2026 00:35:42"}]},{"id":"52745","lat":43.326598326073935,"lon":11.331000668122897,"name":"Bossini Natale snc","brand":"Esso","address":"VIALE MAZZINI 24/A 53100, SIENA, SI","prices":[{"type":"petrol","price":1.819,"self":true,"updatedAt":"25/06/2026 19:34:20"},{"type":"diesel","price":1.899,"self":true,"updatedAt":"25/06/2026 19:34:20"}]},{"id":"5328","lat":43.342068211958434,"lon":11.30623251600798,"name":"cinquino snc","brand":"Q8","address":"VIA FIORENTINA 120 53100, SIENA, SI","prices":[{"type":"petrol","price":1.839,"self":true,"updatedAt":"19/06/2026 12:48:23"},{"type":"diesel","price":1.949,"self":true,"updatedAt":"19/06/2026 12:48:23"},{"type":"lpg","price":0.769,"self":false,"updatedAt":"19/06/2026 12:48:23"}]},{"id":"44824","lat":43.322330182527764,"lon":11.348468025084799,"name":"Eni","brand":"Agip Eni","address":"VIALE PIETRO TOSELLI 1 53100, SIENA, SI","prices":[{"type":"petrol","price":1.829,"self":true,"updatedAt":"27/06/2026 23:38:53"},{"type":"diesel","price":1.899,"self":true,"updatedAt":"27/06/2026 23:38:53"}]},{"id":"44134","lat":43.31318523144675,"lon":11.317316763159965,"name":"ENI","brand":"Agip Eni","address":"STRADA DI PESCAIA 52 53100, SIENA, SI","prices":[{"type":"petrol","price":1.829,"self":true,"updatedAt":"28/06/2026 01:36:22"},{"type":"diesel","price":1.909,"self":true,"updatedAt":"28/06/2026 01:36:21"}]},{"id":"35803","lat":43.29297287549348,"lon":11.34318396449089,"name":"ENI 5470 - CORONCINA PETROLI DI MARIO CONIGLIO","brand":"Agip Eni","address":"Statale 2 Via Cassia, Km. 223+700, dir. Sud - 53100, SIENA, SI","prices":[{"type":"petrol","price":1.829,"self":true,"updatedAt":"27/06/2026 23:59:47"},{"type":"diesel","price":1.889,"self":true,"updatedAt":"27/06/2026 21:22:10"}]},{"id":"51456","lat":43.29438727449186,"lon":11.396341323852578,"name":"ENI station","brand":"Agip Eni","address":"Via Principale 10-12, 10/12 53100, SIENA, SI","prices":[{"type":"petrol","price":1.829,"self":true,"updatedAt":"28/06/2026 00:59:46"},{"type":"diesel","price":1.899,"self":true,"updatedAt":"28/06/2026 00:59:46"}]},{"id":"56939","lat":43.3002983,"lon":11.3542092,"name":"ESSO SIENA SS 223 KM 70+200 TANG CERCH.RUFFOLO","brand":"Esso","address":"223-TANGENZ. CERCHIAIA RUFFOLO SNC 53100, SIENA, SI","prices":[{"type":"petrol","price":1.799,"self":true,"updatedAt":"28/06/2026 07:23:35"},{"type":"diesel","price":1.899,"self":true,"updatedAt":"28/06/2026 07:23:35"}]},{"id":"9369","lat":43.30462482433076,"lon":11.321378946304321,"name":"ICM - Siena","brand":"ICM","address":"VIA MASSETANA ROMANA  53100, SIENA, SI","prices":[{"type":"petrol","price":1.768,"self":true,"updatedAt":"27/06/2026 10:08:50"},{"type":"diesel","price":1.868,"self":true,"updatedAt":"27/06/2026 10:08:50"}]},{"id":"23573","lat":43.317757869512086,"lon":11.353144347667694,"name":"Ip Viale Toselli","brand":"Api-Ip","address":"VIALE TOSELLI 120 53100, SIENA, SI","prices":[{"type":"petrol","price":1.789,"self":true,"updatedAt":"27/06/2026 06:16:27"},{"type":"diesel","price":1.889,"self":true,"updatedAt":"27/06/2026 06:16:27"},{"type":"methane","price":1.547,"self":false,"updatedAt":"27/06/2026 06:16:27"},{"type":"lpg","price":0.779,"self":false,"updatedAt":"27/06/2026 06:16:27"}]},{"id":"34685","lat":43.29436501920483,"lon":11.334354132413864,"name":"Metano Siena","brand":"Pompe Bianche","address":"via massetana romana 74 53100, SIENA, SI","prices":[{"type":"methane","price":1.489,"self":false,"updatedAt":"25/06/2026 14:32:11"},{"type":"lpg","price":0.729,"self":false,"updatedAt":"25/06/2026 14:32:11"}]},{"id":"55671","lat":43.32152272,"lon":11.31691843,"name":"SABIA ANGELO VITO","brand":"Api-Ip","address":"DI PESCAIA 12/A 53100, SIENA, SI","prices":[{"type":"petrol","price":1.799,"self":true,"updatedAt":"23/06/2026 07:34:12"},{"type":"diesel","price":1.899,"self":true,"updatedAt":"23/06/2026 07:34:12"},{"type":"lpg","price":0.739,"self":false,"updatedAt":"23/06/2026 07:34:12"}]},{"id":"45068","lat":43.324354481328164,"lon":11.320682847779644,"name":"SHELL - SIENA  V. DI PESCAIA","brand":"Shell","address":"Via Di Pescaia 8 53100, SIENA, SI","prices":[{"type":"petrol","price":1.799,"self":true,"updatedAt":"28/06/2026 07:18:35"},{"type":"diesel","price":1.899,"self":true,"updatedAt":"28/06/2026 07:18:35"}]},{"id":"63104","lat":43.2987921,"lon":11.3090673,"name":"Siena - San Marco","brand":"Beyfin","address":"STATALE 73 DI PONENTE 35 53100, SIENA, SI","prices":[{"type":"petrol","price":1.769,"self":true,"updatedAt":"26/06/2026 10:42:29"},{"type":"diesel","price":1.889,"self":true,"updatedAt":"26/06/2026 10:42:29"},{"type":"lpg","price":0.739,"self":false,"updatedAt":"26/06/2026 10:42:29"}]},{"id":"11836","lat":43.33997765933894,"lon":11.30894457672116,"name":"SIENA VIA GIOVANNI PAOLO II, 1","brand":"Q8","address":"VIA GIOVANNI PAOLO II 1 53100, SIENA, SI","prices":[{"type":"petrol","price":1.799,"self":true,"updatedAt":"25/06/2026 08:11:17"},{"type":"diesel","price":1.899,"self":true,"updatedAt":"25/06/2026 08:11:17"}]},{"id":"6577","lat":43.33508794974619,"lon":11.315828785300255,"name":"SIENA VIA GIOVANNI PAOLO II, 2","brand":"Q8","address":"VIA GIOVANNI PAOLO II 2 53100, SIENA, SI","prices":[{"type":"petrol","price":1.789,"self":true,"updatedAt":"25/06/2026 01:42:02"},{"type":"diesel","price":1.889,"self":true,"updatedAt":"25/06/2026 01:42:02"}]},{"id":"11834","lat":43.3370258299239,"lon":11.304126822090211,"name":"SIENA-VIA CELSO CITTADINI 70","brand":"Q8","address":"VIA CELSO CITTADINI 70 53100, SIENA, SI","prices":[{"type":"petrol","price":1.809,"self":true,"updatedAt":"27/06/2026 01:40:59"},{"type":"diesel","price":1.879,"self":true,"updatedAt":"27/06/2026 01:40:59"}]}]