[{"id":"61226","lat":43.8989710979766,"lon":10.222207043136615,"name":"ALA CAMAIORE","brand":"Ala","address":"viale colombo 410 55049, CAMAIORE, LU","prices":[{"type":"petrol","price":1.819,"self":true,"updatedAt":"20/06/2026 07:10:32"},{"type":"diesel","price":1.919,"self":true,"updatedAt":"20/06/2026 07:10:32"}]},{"id":"47832","lat":43.90774903884411,"lon":10.226374490980312,"name":"stazione di servizio api di vitali luca e e c snc vitali","brand":"Api-Ip","address":"1 Via Aurelia, Km. 361+750, massa - 55041, CAMAIORE, LU","prices":[{"type":"petrol","price":1.829,"self":true,"updatedAt":"20/06/2026 08:24:55"},{"type":"diesel","price":1.929,"self":true,"updatedAt":"20/06/2026 08:24:55"}]},{"id":"26750","lat":43.901022859880094,"lon":10.231273144418083,"name":"stazione di servizio ip di Vitali luca e c snc","brand":"Api-Ip","address":"VIA AURELIA KM.361 122 55041, CAMAIORE, LU","prices":[{"type":"petrol","price":1.829,"self":true,"updatedAt":"20/06/2026 08:24:13"},{"type":"diesel","price":1.929,"self":true,"updatedAt":"20/06/2026 08:24:13"},{"type":"lpg","price":0.787,"self":false,"updatedAt":"20/06/2026 08:24:13"}]},{"id":"57818","lat":43.8914765,"lon":10.2456096,"name":"STAZIONE DI SERVIZIO IP DI VITALI LUCA E C SNC","brand":"Api-Ip","address":"Via Italica 138  55041, CAMAIORE, LU","prices":[{"type":"petrol","price":1.829,"self":true,"updatedAt":"20/06/2026 08:25:36"},{"type":"diesel","price":1.929,"self":true,"updatedAt":"20/06/2026 08:25:36"}]},{"id":"57674","lat":43.8960128,"lon":10.2301696,"name":"STAZIONE DI SERVIZIO IP VITALI LUCA E C SNC","brand":"Api-Ip","address":"Via dello Stadio 1 55041, CAMAIORE, LU","prices":[{"type":"petrol","price":1.839,"self":true,"updatedAt":"20/06/2026 08:25:12"},{"type":"diesel","price":1.939,"self":true,"updatedAt":"20/06/2026 08:25:12"}]},{"id":"38133","lat":43.95730385725239,"lon":10.194953083992004,"name":"BEYFIN","brand":"Beyfin","address":"via G.B. VICO 140/b 55042, FORTE DEI MARMI, LU","prices":[{"type":"petrol","price":1.829,"self":true,"updatedAt":"18/06/2026 08:36:12"},{"type":"diesel","price":1.959,"self":true,"updatedAt":"18/06/2026 08:36:12"}]},{"id":"50157","lat":43.96403841646855,"lon":10.17936658895493,"name":"EH24 FORTE DEI MARMI","brand":"Pompe Bianche","address":"via provinciale della marina 63 55042, FORTE DEI MARMI, LU","prices":[{"type":"petrol","price":1.879,"self":true,"updatedAt":"21/06/2026 00:30:00"},{"type":"diesel","price":1.979,"self":true,"updatedAt":"21/06/2026 00:30:00"}]},{"id":"50479","lat":43.96517889607383,"lon":10.186382127985638,"name":"FORTE DEI MARMI","brand":"Agip Eni","address":"VIA GB VICO LOC CARANNA  55042, FORTE DEI MARMI, LU","prices":[{"type":"petrol","price":1.829,"self":true,"updatedAt":"19/06/2026 09:54:27"},{"type":"diesel","price":1.949,"self":true,"updatedAt":"19/06/2026 09:47:22"}]},{"id":"11637","lat":43.96094287118438,"lon":10.190657842922178,"name":"FORTE DEI MARMI-VIA G.B.VICO 96","brand":"Q8","address":"VIA G.B.VICO 96 55042, FORTE DEI MARMI, LU","prices":[{"type":"petrol","price":1.829,"self":true,"updatedAt":"19/06/2026 07:13:51"},{"type":"diesel","price":1.959,"self":true,"updatedAt":"19/06/2026 07:13:51"}]},{"id":"13016","lat":43.95201456058158,"lon":10.20119994878769,"name":"AGIP LANDI MAURO DI MANFREDI A. & C SNC","brand":"Agip Eni","address":"UNITA' D'ITALIA 9 55045, PIETRASANTA, LU","prices":[{"type":"petrol","price":1.829,"self":true,"updatedAt":"21/06/2026 00:42:12"},{"type":"diesel","price":1.949,"self":true,"updatedAt":"21/06/2026 00:42:12"},{"type":"lpg","price":0.899,"self":false,"updatedAt":"21/06/2026 00:42:12"}]},{"id":"8699","lat":43.96447077590919,"lon":10.216629356145859,"name":"del corto cristiano","brand":"Agip Eni","address":"Statale 1 Via Aurelia, Km. 369, dir. roma 169/171 55045, PIETRASANTA, LU","prices":[{"type":"petrol","price":1.824,"self":true,"updatedAt":"21/06/2026 00:49:45"},{"type":"diesel","price":1.944,"self":true,"updatedAt":"21/06/2026 00:49:45"}]},{"id":"18453","lat":43.93412018403951,"lon":10.222109109163284,"name":"Distributore metano","brand":"Pompe Bianche","address":"1 Via Aurelia, Km. 368, Viareggio - 55045, PIETRASANTA, LU","prices":[{"type":"petrol","price":1.846,"self":true,"updatedAt":"19/06/2026 19:14:59"},{"type":"diesel","price":1.966,"self":true,"updatedAt":"19/06/2026 19:14:59"},{"type":"methane","price":1.479,"self":false,"updatedAt":"19/06/2026 19:14:59"},{"type":"lpg","price":0.847,"self":false,"updatedAt":"19/06/2026 19:14:59"}]},{"id":"38605","lat":43.94351609854073,"lon":10.226255804300308,"name":"DISTRIBUTORE PIETRASANTA","brand":"Ala","address":"VIA AURELIA SUD 91 55045, PIETRASANTA (LU) 91 55045, PIETRASANTA, LU","prices":[{"type":"petrol","price":1.829,"self":true,"updatedAt":"20/06/2026 12:38:24"},{"type":"diesel","price":1.929,"self":true,"updatedAt":"20/06/2026 12:38:24"}]},{"id":"15633","lat":43.952356972516846,"lon":10.237360644180285,"name":"f.lli maremmani snc","brand":"Api-Ip","address":"VIA GARIBALDI 142 55045, PIETRASANTA, LU","prices":[{"type":"petrol","price":1.839,"self":true,"updatedAt":"19/06/2026 18:35:01"},{"type":"diesel","price":1.939,"self":true,"updatedAt":"19/06/2026 18:35:01"}]},{"id":"63338","lat":43.92484780519393,"lon":10.219115527447528,"name":"IP La Sparta","brand":"Api-Ip","address":"Via Aurelia Sud snc 55045, PIETRASANTA, LU","prices":[{"type":"petrol","price":1.829,"self":true,"updatedAt":"19/06/2026 15:20:40"},{"type":"diesel","price":1.929,"self":true,"updatedAt":"19/06/2026 15:20:40"}]},{"id":"32476","lat":43.931018789159936,"lon":10.218238681554794,"name":"PIETRASANTA","brand":"Tamoil","address":"VIALE UNITA' D'ITALIA  55045, PIETRASANTA, LU","prices":[{"type":"petrol","price":1.899,"self":true,"updatedAt":"20/06/2026 08:50:07"},{"type":"diesel","price":2.009,"self":true,"updatedAt":"19/06/2026 11:56:38"},{"type":"methane","price":1.599,"self":false,"updatedAt":"20/06/2026 08:45:01"},{"type":"lpg","price":0.859,"self":false,"updatedAt":"20/06/2026 08:45:17"}]},{"id":"31219","lat":43.96123861360752,"lon":10.222750961971315,"name":"PIETRASANTA - MARCONI","brand":"Api-Ip","address":"VIA GUGLIELMO MARCONI  55045, PIETRASANTA, LU","prices":[{"type":"petrol","price":1.829,"self":true,"updatedAt":"20/06/2026 09:01:54"},{"type":"diesel","price":1.929,"self":true,"updatedAt":"20/06/2026 09:01:54"}]},{"id":"11632","lat":43.95001634939587,"lon":10.228225886821747,"name":"PIETRASANTA-VIA AURELIA KM.366+700","brand":"Q8","address":"VIA AURELIA KM.366+700 S/N 55045, PIETRASANTA, LU","prices":[{"type":"petrol","price":1.844,"self":true,"updatedAt":"20/06/2026 08:14:46"},{"type":"diesel","price":1.974,"self":true,"updatedAt":"20/06/2026 08:14:46"}]},{"id":"48527","lat":43.97239124924465,"lon":10.220678140677899,"name":"PONTE ARANCI","brand":"Pompe Bianche","address":"VIA LOC. PONTE ARANCI,  VIA PROV. VALLECCHIA, SNC 55045, PIETRASANTA (LU)  55045, PIETRASANTA, LU","prices":[{"type":"petrol","price":1.828,"self":true,"updatedAt":"20/06/2026 23:30:49"},{"type":"diesel","price":1.948,"self":true,"updatedAt":"20/06/2026 23:30:49"}]},{"id":"47211","lat":43.99497789532128,"lon":10.176417428135375,"name":"PORTA","brand":"Pompe Bianche","address":"1 Via Aurelia, Km. 373+474, VIAREGGIO - 55045, PIETRASANTA, LU","prices":[{"type":"petrol","price":1.818,"self":true,"updatedAt":"20/06/2026 01:32:03"},{"type":"diesel","price":1.918,"self":true,"updatedAt":"20/06/2026 10:44:08"}]},{"id":"54267","lat":43.94925541148636,"lon":10.203565255821244,"name":"SOPETI CANNICCIA","brand":"Api-Ip","address":"UNITA' D'ITALIA 10 55045, PIETRASANTA, LU","prices":[{"type":"petrol","price":1.839,"self":true,"updatedAt":"20/06/2026 23:28:46"},{"type":"diesel","price":1.959,"self":true,"updatedAt":"20/06/2026 23:28:46"}]},{"id":"38541","lat":43.963627108769344,"lon":10.218404978513718,"name":"SS AQUILA","brand":"Aquila","address":"Statale 1 Via Aurelia, Km. Nord, dir. Massa - 55045, PIETRASANTA, LU","prices":[{"type":"petrol","price":1.789,"self":true,"updatedAt":"20/06/2026 10:26:58"},{"type":"diesel","price":1.889,"self":true,"updatedAt":"20/06/2026 10:26:58"}]},{"id":"22171","lat":43.92811890822932,"lon":10.223223567008972,"name":"VERSILIA EST","brand":"Agip Eni","address":"A12 SESTRI L.-LIVORNO, Km. 131, genova - 55045, PIETRASANTA, LU","prices":[{"type":"petrol","price":1.921,"self":true,"updatedAt":"21/06/2026 00:20:34"},{"type":"diesel","price":2.044,"self":true,"updatedAt":"21/06/2026 00:20:34"},{"type":"lpg","price":0.996,"self":false,"updatedAt":"21/06/2026 00:20:34"}]},{"id":"22167","lat":43.92844653304682,"lon":10.224430561065674,"name":"VERSILIA OVEST","brand":"Agip Eni","address":"Autostrada A12 SESTRI L.-LIVORNO,  Km. 131,00, dir. SUD 55045, PIETRASANTA, LU","prices":[{"type":"petrol","price":1.921,"self":true,"updatedAt":"20/06/2026 23:17:35"},{"type":"diesel","price":2.044,"self":true,"updatedAt":"20/06/2026 23:17:35"},{"type":"lpg","price":0.966,"self":false,"updatedAt":"20/06/2026 23:17:35"}]},{"id":"42253","lat":43.97145023315178,"lon":10.192247689306214,"name":"Distributore IP","brand":"Api-Ip","address":"VIA FEDERIGI 860 55047, SERAVEZZA, LU","prices":[{"type":"petrol","price":1.849,"self":true,"updatedAt":"18/06/2026 19:25:57"},{"type":"diesel","price":1.969,"self":true,"updatedAt":"18/06/2026 19:25:57"}]},{"id":"55265","lat":43.98517815305623,"lon":10.220120222237412,"name":"IMPIANTO IP SERAVEZZA","brand":"Api-Ip","address":"ALCIDE DE GASPERI 77 55047, SERAVEZZA, LU","prices":[{"type":"petrol","price":1.839,"self":true,"updatedAt":"20/06/2026 12:14:33"},{"type":"diesel","price":1.959,"self":true,"updatedAt":"20/06/2026 12:14:33"}]},{"id":"55609","lat":43.9818445,"lon":10.207493,"name":"IP","brand":"Api-Ip","address":"A.DE GASPERI 1231 55040, SERAVEZZA, LU","prices":[{"type":"petrol","price":1.844,"self":true,"updatedAt":"20/06/2026 08:08:20"},{"type":"diesel","price":1.964,"self":true,"updatedAt":"20/06/2026 08:08:20"}]},{"id":"55608","lat":43.9818445,"lon":10.207493,"name":"IP","brand":"Api-Ip","address":"A.DE GASPERI 1231 55040, SERAVEZZA, LU","prices":[{"type":"petrol","price":1.844,"self":true,"updatedAt":"20/06/2026 08:05:41"},{"type":"diesel","price":1.964,"self":true,"updatedAt":"20/06/2026 08:05:41"}]},{"id":"57015","lat":43.9929778,"lon":10.224063,"name":"Stazione di servizio eni","brand":"Agip Eni","address":"Via Guglielmo Marconi 262 55047, SERAVEZZA, LU","prices":[{"type":"petrol","price":1.809,"self":true,"updatedAt":"20/06/2026 09:16:07"},{"type":"diesel","price":1.894,"self":true,"updatedAt":"20/06/2026 09:16:07"}]},{"id":"49301","lat":43.88863404480408,"lon":10.230566447365648,"name":"eni tiber oil","brand":"Agip Eni","address":"viale alfredo belluomini snc 55049, VIAREGGIO, LU","prices":[{"type":"petrol","price":1.825,"self":true,"updatedAt":"21/06/2026 01:05:09"},{"type":"diesel","price":1.924,"self":true,"updatedAt":"21/06/2026 01:05:09"}]},{"id":"60110","lat":43.88558,"lon":10.232922,"name":"ESSO VIAREGGIO VIALE BELLUOMINI, 8","brand":"Esso","address":"BELLUOMINI 8 55049, VIAREGGIO, LU","prices":[{"type":"petrol","price":1.819,"self":true,"updatedAt":"21/06/2026 07:31:05"},{"type":"diesel","price":1.959,"self":true,"updatedAt":"21/06/2026 07:31:05"}]},{"id":"54793","lat":43.8874034882231,"lon":10.244213705002618,"name":"Pitstop di Puccetti e Borghesi snc","brand":"Agip Eni","address":"AURELIA NORD 300 55049, VIAREGGIO, LU","prices":[{"type":"petrol","price":1.844,"self":true,"updatedAt":"21/06/2026 00:38:50"},{"type":"diesel","price":1.944,"self":true,"updatedAt":"21/06/2026 00:38:50"}]},{"id":"40266","lat":43.888966149074946,"lon":10.231357365846634,"name":"Stazione di Servizio Q8","brand":"Q8","address":"BUONARROTI ANG. EINAUDI SNC 55049, VIAREGGIO, LU","prices":[{"type":"petrol","price":1.834,"self":true,"updatedAt":"17/06/2026 06:54:27"},{"type":"diesel","price":1.944,"self":true,"updatedAt":"17/06/2026 06:54:27"}]},{"id":"8343","lat":43.88544325187442,"lon":10.248756173610673,"name":"tamoil","brand":"Tamoil","address":"via marco polo 107 55049, VIAREGGIO, LU","prices":[{"type":"petrol","price":1.819,"self":true,"updatedAt":"21/06/2026 00:52:08"},{"type":"diesel","price":1.949,"self":true,"updatedAt":"21/06/2026 00:52:08"}]},{"id":"22094","lat":43.97728416251269,"lon":10.144764930009842,"name":"IP DI DEL GRANDE MARCO","brand":"Pompe Bianche","address":"VIALE IV NOVEMBRE  54030, MONTIGNOSO, MS","prices":[{"type":"petrol","price":1.876,"self":true,"updatedAt":"17/06/2026 16:49:45"},{"type":"diesel","price":1.986,"self":true,"updatedAt":"17/06/2026 16:49:45"}]}]