[{"id":"27110","lat":43.78724030267889,"lon":7.656904757022858,"name":"Area Servizio IP","brand":"Api-Ip","address":"PASTEUR 111 18012, BORDIGHERA, IM","prices":[{"type":"petrol","price":1.809,"self":true,"updatedAt":"23/06/2026 18:12:41"},{"type":"diesel","price":1.929,"self":true,"updatedAt":"23/06/2026 18:12:41"}]},{"id":"60898","lat":43.78233,"lon":7.64981,"name":"Bordighera","brand":"Retitalia","address":"Via Aurelia 107 18012, BORDIGHERA, IM","prices":[{"type":"petrol","price":1.799,"self":true,"updatedAt":"25/06/2026 23:36:59"},{"type":"diesel","price":1.899,"self":true,"updatedAt":"25/06/2026 23:36:59"}]},{"id":"32371","lat":43.780299031725,"lon":7.659295976686508,"name":"BORDIGHERA - VITTORIO EMANUELE","brand":"Api-Ip","address":"VIA VITTORIO EMANUELE II 258 18012, BORDIGHERA, IM","prices":[{"type":"petrol","price":1.809,"self":true,"updatedAt":"25/06/2026 09:09:25"},{"type":"diesel","price":1.929,"self":true,"updatedAt":"25/06/2026 09:09:25"}]},{"id":"38402","lat":43.79893533700288,"lon":7.691051959991455,"name":"BORDIGHERA NORD","brand":"Agip Eni","address":"Autostrada A10 SAVONA-VENTIMIGLIA, Km. 143, dir. Nord - 18012, BORDIGHERA, IM","prices":[{"type":"petrol","price":1.817,"self":true,"updatedAt":"24/06/2026 16:39:06"},{"type":"diesel","price":1.902,"self":true,"updatedAt":"24/06/2026 16:39:06"}]},{"id":"62717","lat":43.79808874722755,"lon":7.691138978628511,"name":"BORDIGHERA SUD","brand":"Agip Eni","address":"A10 SAVONA-VENTIMIGLIA, Km. 143+544, EST - 18012, BORDIGHERA, IM","prices":[{"type":"diesel","price":1.899,"self":true,"updatedAt":"24/06/2026 15:23:57"}]},{"id":"47200","lat":43.79808874722755,"lon":7.691138978628511,"name":"BORDIGHERA SUD","brand":"Agip Eni","address":"A10 SAVONA-VENTIMIGLIA, Km. 143+544, EST - 18012, BORDIGHERA, IM","prices":[{"type":"petrol","price":1.888,"self":true,"updatedAt":"25/06/2026 11:03:28"},{"type":"diesel","price":1.959,"self":true,"updatedAt":"25/06/2026 11:03:28"}]},{"id":"26880","lat":43.78057085047067,"lon":7.658178210258484,"name":"Esso","brand":"Esso","address":"CORSO VITTORIO EMANUELE 278 18012, BORDIGHERA, IM","prices":[{"type":"petrol","price":1.946,"self":true,"updatedAt":"23/06/2026 08:52:43"},{"type":"diesel","price":2.066,"self":true,"updatedAt":"23/06/2026 08:52:43"}]},{"id":"46336","lat":43.780851811246706,"lon":7.656172181179045,"name":"Europam","brand":"Europam","address":"VIA VITTORIO EMANUELE 451 18012, BORDIGHERA, IM","prices":[{"type":"petrol","price":1.919,"self":true,"updatedAt":"19/06/2026 16:25:15"},{"type":"diesel","price":1.999,"self":true,"updatedAt":"19/06/2026 16:25:15"}]},{"id":"41695","lat":43.78010994093166,"lon":7.660036236047745,"name":"EUROPAM - BORDIGHERA","brand":"Europam","address":"VIA VITTORIO EMANUELE 242 18012, BORDIGHERA, IM","prices":[{"type":"petrol","price":1.807,"self":true,"updatedAt":"25/06/2026 11:12:38"},{"type":"diesel","price":1.927,"self":true,"updatedAt":"25/06/2026 11:12:38"}]},{"id":"49991","lat":43.782792011782604,"lon":7.6479193568229675,"name":"IP","brand":"Api-Ip","address":"1 Via Aurelia, Km. 685, GENOVA - 18012, BORDIGHERA, IM","prices":[{"type":"petrol","price":2.049,"self":true,"updatedAt":"12/06/2026 08:23:21"},{"type":"diesel","price":2.179,"self":true,"updatedAt":"12/06/2026 08:23:21"}]},{"id":"40940","lat":43.7786693,"lon":7.6711171,"name":"pietra daniela","brand":"Api-Ip","address":"VALGOI 20 18012, BORDIGHERA, IM","prices":[{"type":"petrol","price":1.829,"self":true,"updatedAt":"23/06/2026 17:44:39"},{"type":"diesel","price":1.949,"self":true,"updatedAt":"23/06/2026 17:44:39"}]},{"id":"25789","lat":43.78926080139202,"lon":7.632195175843549,"name":"IP","brand":"Api-Ip","address":"1 Via Aurelia, Km. 686,479, Bordighera  18033, CAMPOROSSO, IM","prices":[{"type":"petrol","price":1.809,"self":true,"updatedAt":"23/06/2026 18:04:00"},{"type":"diesel","price":1.929,"self":true,"updatedAt":"23/06/2026 18:04:00"}]},{"id":"15617","lat":43.80775059879502,"lon":7.624922096729279,"name":"TOTALERG","brand":"Api-Ip","address":"CORSO REPUBBLICA 36 18033, CAMPOROSSO, IM","prices":[{"type":"petrol","price":1.829,"self":true,"updatedAt":"25/06/2026 23:35:38"},{"type":"diesel","price":1.919,"self":true,"updatedAt":"25/06/2026 23:35:38"},{"type":"lpg","price":0.899,"self":false,"updatedAt":"25/06/2026 23:35:38"}]},{"id":"47181","lat":43.846799844908354,"lon":7.623932361602783,"name":"KEROPETROL DOLCEACQUA","brand":"KEROPETROL","address":"VIA VIA ROMA 60 18035, DOLCEACQUA (IM) 60 18035, DOLCEACQUA, IM","prices":[{"type":"petrol","price":1.829,"self":true,"updatedAt":"25/06/2026 16:53:09"},{"type":"diesel","price":1.915,"self":true,"updatedAt":"25/06/2026 16:53:09"}]},{"id":"44787","lat":43.802409000123,"lon":7.714486000123,"name":"Ludoil STAR OIL","brand":"Lukoil","address":"CORSO REGINA MARGHERITA 146 18014, OSPEDALETTI, IM","prices":[{"type":"petrol","price":1.839,"self":true,"updatedAt":"24/06/2026 19:56:20"},{"type":"diesel","price":1.944,"self":true,"updatedAt":"24/06/2026 19:56:20"}]},{"id":"5053","lat":43.80884812012369,"lon":7.734671972352544,"name":"Coldi-oil service","brand":"Api-Ip","address":"VIA PADRE SEMERIA 600/A 18038, SANREMO, IM","prices":[{"type":"petrol","price":1.819,"self":true,"updatedAt":"25/06/2026 10:58:41"},{"type":"diesel","price":1.919,"self":true,"updatedAt":"25/06/2026 10:58:41"},{"type":"lpg","price":0.949,"self":false,"updatedAt":"25/06/2026 10:58:41"}]},{"id":"56347","lat":43.7895394,"lon":7.64360502,"name":"7596","brand":"Tamoil","address":"Via Romana Traversa I  18019, VALLECROSIA, IM","prices":[{"type":"petrol","price":1.819,"self":true,"updatedAt":"25/06/2026 23:21:48"},{"type":"diesel","price":1.899,"self":true,"updatedAt":"25/06/2026 12:10:09"}]},{"id":"43113","lat":43.78445290462326,"lon":7.643657457672134,"name":"Europam - Vallecrosia","brand":"Europam","address":"VIA AURELIA KM 685\t  18019, VALLECROSIA, IM","prices":[{"type":"petrol","price":1.807,"self":true,"updatedAt":"25/06/2026 11:02:34"},{"type":"diesel","price":1.927,"self":true,"updatedAt":"25/06/2026 11:02:34"}]},{"id":"62969","lat":43.78874,"lon":7.6213346,"name":"1235 VENTIMIGLIA","brand":"Agip Eni","address":"CORSO GENOVA  84/C 0204, VENTIMIGLIA, IM","prices":[{"type":"petrol","price":1.829,"self":true,"updatedAt":"26/06/2026 00:14:37"},{"type":"diesel","price":1.899,"self":true,"updatedAt":"26/06/2026 07:58:45"}]},{"id":"51733","lat":43.802783964951935,"lon":7.596519525645127,"name":"52849 – Ventimiglia","brand":"Agip Eni","address":"S.S. 20 LOC. ROVERINO  18039, VENTIMIGLIA, IM","prices":[{"type":"petrol","price":1.829,"self":true,"updatedAt":"25/06/2026 00:51:32"},{"type":"diesel","price":1.899,"self":true,"updatedAt":"26/06/2026 07:59:04"}]},{"id":"20947","lat":43.788566639001374,"lon":7.6211816325409245,"name":"eni","brand":"Agip Eni","address":"C.so Genova 84 18039, VENTIMIGLIA, IM","prices":[{"type":"petrol","price":1.994,"self":true,"updatedAt":"24/05/2026 23:47:59"},{"type":"diesel","price":2.066,"self":true,"updatedAt":"24/05/2026 23:47:59"}]},{"id":"55153","lat":43.79960779537,"lon":7.6003354739636375,"name":"Eni Station Punto Vendita 51570","brand":"Agip Eni","address":"Corso Limone Piemonte 1 18039, VENTIMIGLIA, IM","prices":[{"type":"petrol","price":1.844,"self":true,"updatedAt":"25/06/2026 00:51:09"},{"type":"diesel","price":1.939,"self":true,"updatedAt":"25/06/2026 23:54:48"}]},{"id":"16776","lat":43.78922151778829,"lon":7.617630511522293,"name":"ESSO PERRINO E VIGNALI","brand":"Esso","address":"CORSO GENOVA 60 18039, VENTIMIGLIA, IM","prices":[{"type":"petrol","price":1.809,"self":true,"updatedAt":"26/06/2026 07:25:18"},{"type":"diesel","price":1.899,"self":true,"updatedAt":"26/06/2026 07:25:18"}]}]