[{"id":"16869","lat":44.2141651456405,"lon":8.014251440763474,"name":"BOLOGNA SILVANA","brand":"Api-Ip","address":"VIA NAZIONALE A VALLE 25 12075, GARESSIO, CN","prices":[{"type":"petrol","price":1.819,"self":true,"updatedAt":"29/06/2026 14:37:45"},{"type":"diesel","price":1.909,"self":true,"updatedAt":"29/06/2026 14:37:45"}]},{"id":"52243","lat":44.20897911773272,"lon":8.015127225794968,"name":"ENI_00207","brand":"Agip Eni","address":"28 del Colle di Nava, Km. 76+850, TORINO - 12075, GARESSIO, CN","prices":[{"type":"petrol","price":1.824,"self":true,"updatedAt":"30/06/2026 00:10:38"},{"type":"diesel","price":1.864,"self":true,"updatedAt":"30/06/2026 00:10:38"}]},{"id":"11390","lat":44.24403533409806,"lon":8.021800991201417,"name":"stazione di servizio IP","brand":"Api-Ip","address":"Statale 28 del Colle di Nava, Km. 72+540, dir. imperia - 12070, PRIOLA, CN","prices":[{"type":"petrol","price":1.849,"self":true,"updatedAt":"29/06/2026 06:53:28"},{"type":"diesel","price":1.919,"self":true,"updatedAt":"29/06/2026 06:53:28"}]},{"id":"58964","lat":44.01725269547141,"lon":8.193099985284809,"name":"EUROPAM - ALASSIO PORTO","brand":"Europam","address":"BANCHINA DEL PORTO\t 80 17021, ALASSIO, SV","prices":[{"type":"petrol","price":1.999,"self":false,"updatedAt":"25/06/2026 21:30:43"},{"type":"diesel","price":1.899,"self":false,"updatedAt":"25/06/2026 21:30:43"}]},{"id":"20073","lat":44.00477200052126,"lon":8.168962344180272,"name":"Stazione di servizio Eni 01339","brand":"Agip Eni","address":"VIA SAN GIOVANNI BOSCO 53 17021, ALASSIO, SV","prices":[{"type":"petrol","price":1.844,"self":true,"updatedAt":"29/06/2026 00:35:48"},{"type":"diesel","price":1.919,"self":true,"updatedAt":"29/06/2026 00:35:48"}]},{"id":"35749","lat":44.00057114160018,"lon":8.165444928835996,"name":"STAZIONE SERVIZIO ESSO","brand":"Esso","address":"VIA VIA LEONARDO DA VINCI 192 17021, ALASSIO (SV) 192 17021, ALASSIO, SV","prices":[{"type":"petrol","price":1.879,"self":true,"updatedAt":"29/06/2026 09:50:20"},{"type":"diesel","price":1.889,"self":true,"updatedAt":"29/06/2026 09:50:20"}]},{"id":"48158","lat":44.04605887805002,"lon":8.212993660713192,"name":"1337","brand":"Agip Eni","address":"PIAVE 6 17031, ALBENGA, SV","prices":[{"type":"petrol","price":1.829,"self":true,"updatedAt":"30/06/2026 00:26:44"},{"type":"diesel","price":1.844,"self":true,"updatedAt":"30/06/2026 00:26:44"}]},{"id":"54150","lat":44.054905,"lon":8.205321,"name":"1341 Albenga","brand":"Agip Eni","address":"Reg. Frontero, 2, ALBENGA, SV","prices":[{"type":"petrol","price":1.829,"self":true,"updatedAt":"29/06/2026 00:36:00"},{"type":"diesel","price":1.889,"self":true,"updatedAt":"29/06/2026 00:36:00"},{"type":"lpg","price":0.835,"self":false,"updatedAt":"29/06/2026 00:36:00"}]},{"id":"59662","lat":44.052914,"lon":8.213309,"name":"51611  ALBENGA","brand":"Agip Eni","address":"VIA PONTELUNGO  78, ALBENGA, SV","prices":[{"type":"petrol","price":1.829,"self":true,"updatedAt":"29/06/2026 00:38:20"},{"type":"diesel","price":1.889,"self":true,"updatedAt":"29/06/2026 00:38:20"}]},{"id":"39111","lat":44.05425736348627,"lon":8.213522136211395,"name":"ALBENGA VIA PONTELUNGO","brand":"Q8","address":"VIA PONTELUNGO  17031, ALBENGA, SV","prices":[{"type":"petrol","price":1.775,"self":true,"updatedAt":"30/06/2026 01:10:35"},{"type":"diesel","price":1.869,"self":true,"updatedAt":"30/06/2026 01:10:35"}]},{"id":"52811","lat":44.06876978556451,"lon":8.215324815416704,"name":"DISCAR ALBENGA","brand":"DIS-CAR","address":"FRAZ. ROLLO 42 17031, ALBENGA, SV","prices":[{"type":"petrol","price":1.775,"self":true,"updatedAt":"29/06/2026 00:25:44"},{"type":"diesel","price":1.869,"self":true,"updatedAt":"29/06/2026 00:25:44"}]},{"id":"10500","lat":44.04450648476993,"lon":8.206202387809753,"name":"gas auto albenga snc","brand":"Pompe Bianche","address":"REG.DORIA  17031, ALBENGA, SV","prices":[{"type":"lpg","price":0.835,"self":false,"updatedAt":"29/06/2026 09:06:17"}]},{"id":"8681","lat":44.05780741816741,"lon":8.18504512310028,"name":"Ghisolfo Marco","brand":"Europam","address":"VIA AL PIEMONTE SNC 17031, ALBENGA, SV","prices":[{"type":"petrol","price":1.809,"self":false,"updatedAt":"27/06/2026 08:26:27"},{"type":"diesel","price":1.899,"self":false,"updatedAt":"27/06/2026 08:26:28"}]},{"id":"35879","lat":44.053848811604645,"lon":8.206441352778606,"name":"IP gruppo api - Penta sas","brand":"Api-Ip","address":"Regione Cavallo 15 17031, ALBENGA, SV","prices":[{"type":"petrol","price":1.829,"self":true,"updatedAt":"26/06/2026 12:08:00"},{"type":"diesel","price":1.909,"self":true,"updatedAt":"26/06/2026 12:08:00"}]},{"id":"60746","lat":44.05608976342505,"lon":8.19186732172974,"name":"P.V. ALBENGA LECA","brand":"Api-Ip","address":"Regione Bagnoli 32 17031, ALBENGA, SV","prices":[{"type":"petrol","price":1.829,"self":true,"updatedAt":"26/06/2026 16:42:43"},{"type":"diesel","price":1.899,"self":true,"updatedAt":"26/06/2026 16:42:43"}]},{"id":"58831","lat":44.0457235427376,"lon":8.203744142675022,"name":"P.V. ALBENGA REG. MIRANDA","brand":"Api-Ip","address":"Regione Miranda  17031, ALBENGA, SV","prices":[{"type":"petrol","price":1.829,"self":true,"updatedAt":"26/06/2026 16:35:33"},{"type":"diesel","price":1.899,"self":true,"updatedAt":"26/06/2026 16:35:33"}]},{"id":"8213","lat":44.056177083380334,"lon":8.194888830184937,"name":"punto agip di alfano carla","brand":"Agip Eni","address":"VIA PIEMONTE 26 17031, ALBENGA, SV","prices":[{"type":"petrol","price":1.824,"self":true,"updatedAt":"29/06/2026 00:38:06"},{"type":"diesel","price":1.884,"self":true,"updatedAt":"29/06/2026 00:38:06"}]},{"id":"57269","lat":44.056305,"lon":8.197346,"name":"STAZIONE SERVIZIO ESSO","brand":"Esso","address":"Via al Piemonte 19 17031, ALBENGA, SV","prices":[{"type":"petrol","price":1.789,"self":true,"updatedAt":"29/06/2026 09:50:39"},{"type":"diesel","price":1.889,"self":true,"updatedAt":"29/06/2026 09:50:39"}]},{"id":"60518","lat":44.113547,"lon":8.24519,"name":"BORGHETTO SANTO SPIRITO","brand":"Retitalia","address":"Corso Europa  17052, BORGHETTO SANTO SPIRITO, SV","prices":[{"type":"petrol","price":1.779,"self":true,"updatedAt":"29/06/2026 23:35:24"},{"type":"diesel","price":1.869,"self":true,"updatedAt":"29/06/2026 23:35:24"}]},{"id":"49177","lat":44.11203284098143,"lon":8.236508339724658,"name":"IP","brand":"Api-Ip","address":"via Michelangelo Buonarrotti  12 17052, BORGHETTO SANTO SPIRITO, SV","prices":[{"type":"petrol","price":1.849,"self":true,"updatedAt":"25/06/2026 14:26:23"},{"type":"diesel","price":1.969,"self":true,"updatedAt":"25/06/2026 14:26:23"}]},{"id":"59076","lat":44.23691817,"lon":8.11648635,"name":"pv 1383 Calizzano","brand":"Agip Eni","address":"F. LEALE 1 17057, CALIZZANO, SV","prices":[{"type":"petrol","price":1.789,"self":true,"updatedAt":"29/06/2026 00:36:27"},{"type":"diesel","price":1.834,"self":true,"updatedAt":"29/06/2026 00:36:27"}]},{"id":"26580","lat":44.088506961520764,"lon":8.20589844002825,"name":"CERIALE","brand":"Esso","address":"Autostrada A10 SAVONA-VENTIMIGLIA, Km. 77+48, dir. Francia - 17023, CERIALE, SV","prices":[{"type":"petrol","price":1.929,"self":true,"updatedAt":"22/06/2026 00:51:19"},{"type":"diesel","price":2.049,"self":true,"updatedAt":"22/06/2026 00:51:19"}]},{"id":"3850","lat":44.08857912961914,"lon":8.207377195358276,"name":"CERIALE SUD","brand":"Agip Eni","address":"Autostrada A10 SAVONA-VENTIMIGLIA, Km. 77.478, dir. Est - 117023, CERIALE, SV","prices":[{"type":"petrol","price":1.889,"self":true,"updatedAt":"29/06/2026 23:26:35"},{"type":"diesel","price":1.945,"self":true,"updatedAt":"29/06/2026 23:26:35"}]},{"id":"34137","lat":44.0956814083278,"lon":8.231196079970674,"name":"distributore IP","brand":"Api-Ip","address":"VIA AURELIA 80 17023, CERIALE, SV","prices":[{"type":"petrol","price":1.866,"self":true,"updatedAt":"18/06/2026 17:32:16"},{"type":"diesel","price":1.976,"self":true,"updatedAt":"18/06/2026 17:32:16"}]},{"id":"43658","lat":44.09457543915044,"lon":8.230704111027762,"name":"EUROPAM CERIALE 100","brand":"Europam","address":"VIA AURELIA 100 17023, CERIALE, SV","prices":[{"type":"petrol","price":1.787,"self":true,"updatedAt":"29/06/2026 11:20:24"},{"type":"diesel","price":1.867,"self":true,"updatedAt":"29/06/2026 11:20:24"}]},{"id":"43901","lat":44.09170048160881,"lon":8.229212740492812,"name":"EUROPAM-CERIALE152","brand":"Europam","address":"VIA AURELIA 152 17023, CERIALE, SV","prices":[{"type":"petrol","price":1.787,"self":true,"updatedAt":"29/06/2026 11:22:26"},{"type":"diesel","price":1.867,"self":true,"updatedAt":"29/06/2026 11:22:26"}]},{"id":"54605","lat":44.033342690748995,"lon":8.10876948702528,"name":"Ip Garlenda","brand":"Api-Ip","address":"LERRONE 124 17033, GARLENDA, SV","prices":[{"type":"petrol","price":1.829,"self":true,"updatedAt":"26/06/2026 16:21:12"},{"type":"diesel","price":1.899,"self":true,"updatedAt":"26/06/2026 16:21:12"}]},{"id":"52810","lat":44.118708965190166,"lon":8.248930212164293,"name":"DISCAR LOANO","brand":"DIS-CAR","address":"VIA S.S.N 1 AURELIA KM 608 + 550 313 17025, LOANO (SV) 313 17025, LOANO, SV","prices":[{"type":"petrol","price":1.775,"self":true,"updatedAt":"29/06/2026 00:25:31"},{"type":"diesel","price":1.859,"self":true,"updatedAt":"29/06/2026 00:25:31"}]},{"id":"41775","lat":44.13016129658426,"lon":8.246018920797383,"name":"ITALIANA PETROLI","brand":"Api-Ip","address":"VIA VIALE S.AMICO SNC 17025, LOANO (SV) 31 17025, LOANO, SV","prices":[{"type":"petrol","price":1.869,"self":true,"updatedAt":"29/06/2026 08:27:48"},{"type":"diesel","price":1.959,"self":true,"updatedAt":"29/06/2026 08:27:48"}]},{"id":"45613","lat":44.19233870816578,"lon":8.249554336071014,"name":"TERMOCEVA","brand":"Pompe Bianche","address":"MAZZINI SNC 17020, MAGLIOLO, SV","prices":[{"type":"petrol","price":1.837,"self":true,"updatedAt":"24/06/2026 17:33:42"},{"type":"diesel","price":1.929,"self":true,"updatedAt":"24/06/2026 17:33:42"}]},{"id":"41309","lat":44.05381038163507,"lon":8.096403691540559,"name":"FERRARI LUCIANO","brand":"Europam","address":"VIA ROMA 92 17037, ORTOVERO, SV","prices":[{"type":"petrol","price":1.996,"self":true,"updatedAt":"29/06/2026 22:20:36"},{"type":"diesel","price":2.064,"self":true,"updatedAt":"29/06/2026 22:20:36"}]},{"id":"41719","lat":44.05375629178788,"lon":8.091850031282775,"name":"TOTAL","brand":"Api-Ip","address":"VIA ROMA 241 17037, ORTOVERO, SV","prices":[{"type":"petrol","price":1.849,"self":true,"updatedAt":"29/06/2026 07:59:45"},{"type":"diesel","price":1.949,"self":true,"updatedAt":"29/06/2026 07:59:45"}]},{"id":"19153","lat":44.1237162324949,"lon":8.211779370903969,"name":"IP","brand":"Api-Ip","address":"strada provinciale km 2+800  17055, TOIRANO, SV","prices":[{"type":"petrol","price":1.859,"self":true,"updatedAt":"25/06/2026 14:26:02"},{"type":"diesel","price":1.969,"self":true,"updatedAt":"25/06/2026 14:26:02"}]},{"id":"41128","lat":44.045427084207695,"lon":8.14248651266098,"name":"TOTALERG","brand":"Api-Ip","address":"VIA MARTIRI 32 17038, VILLANOVA D'ALBENGA, SV","prices":[{"type":"petrol","price":1.829,"self":true,"updatedAt":"28/06/2026 23:35:32"},{"type":"diesel","price":1.909,"self":true,"updatedAt":"28/06/2026 23:35:32"}]}]