[{"id":"16333","lat":44.15766364960674,"lon":8.303677216172218,"name":"Stazione di servizio VI.DA snc","brand":"Api-Ip","address":"VIA IV NOVEMBRE snc 17022, BORGIO VEREZZI, SV","prices":[{"type":"petrol","price":1.799,"self":true,"updatedAt":"26/06/2026 17:08:18"},{"type":"diesel","price":1.899,"self":true,"updatedAt":"26/06/2026 17:08:18"}]},{"id":"53209","lat":44.20053,"lon":8.298304,"name":"P.V. CALICE LIGURE","brand":"Api-Ip","address":"S.P. 17 Via Roma  snc 17020, CALICE LIGURE, SV","prices":[{"type":"petrol","price":1.799,"self":true,"updatedAt":"26/06/2026 17:25:59"},{"type":"diesel","price":1.899,"self":true,"updatedAt":"26/06/2026 17:25:59"}]},{"id":"41910","lat":44.170464723162745,"lon":8.344319388270378,"name":"bull wash","brand":"Q8","address":"1 Via Aurelia, Km. 598+406, Imperia - 17024, FINALE LIGURE, SV","prices":[{"type":"petrol","price":1.819,"self":true,"updatedAt":"29/06/2026 13:24:00"},{"type":"diesel","price":1.909,"self":true,"updatedAt":"29/06/2026 13:24:00"}]},{"id":"10129","lat":44.186213517797164,"lon":8.306728899478912,"name":"Gas Auto Finale Ligure S.a.s. di Gravellone Geom.Matteo & C.","brand":"Pompe Bianche","address":"LOCALITA' BURDIASSA - STR. PROV. 17  17024, FINALE LIGURE, SV","prices":[{"type":"lpg","price":0.88,"self":false,"updatedAt":"29/06/2026 09:05:16"}]},{"id":"25932","lat":44.16485695920656,"lon":8.336710631847382,"name":"IP","brand":"Api-Ip","address":"VIALE RINALDO PIAGGIO 6 17024, FINALE LIGURE, SV","prices":[{"type":"petrol","price":1.839,"self":true,"updatedAt":"29/06/2026 08:25:22"},{"type":"diesel","price":1.959,"self":true,"updatedAt":"29/06/2026 08:25:22"}]},{"id":"54311","lat":44.1749818,"lon":8.3301838,"name":"IP SPA PUNTO VENDITA FINALBORGO","brand":"Api-Ip","address":"Via Generale Arnaldi  17024, FINALE LIGURE, SV","prices":[{"type":"petrol","price":1.819,"self":true,"updatedAt":"29/06/2026 09:46:57"},{"type":"diesel","price":1.919,"self":true,"updatedAt":"29/06/2026 09:46:57"}]},{"id":"43628","lat":44.17136220871,"lon":8.355693402446718,"name":"stazione Eni 51602","brand":"Agip Eni","address":"CORSO EUROPA 44 17024, FINALE LIGURE, SV","prices":[{"type":"petrol","price":1.712,"self":true,"updatedAt":"25/05/2026 00:04:06"},{"type":"diesel","price":2.044,"self":true,"updatedAt":"25/05/2026 00:04:06"}]},{"id":"42278","lat":44.16877769569171,"lon":8.34149722949985,"name":"STAZIONE ENI di Tripodi Carmelo","brand":"Agip Eni","address":"VIA MAZZINI 13 17024, FINALE LIGURE, SV","prices":[{"type":"petrol","price":1.824,"self":true,"updatedAt":"30/06/2026 00:21:04"},{"type":"diesel","price":1.884,"self":true,"updatedAt":"30/06/2026 00:21:04"}]},{"id":"58188","lat":44.129707,"lon":8.2591305,"name":"51605  LOANO","brand":"Agip Eni","address":"VIA AURELIA KM 607 + 120  SNC, LOANO, SV","prices":[{"type":"petrol","price":1.789,"self":true,"updatedAt":"29/06/2026 00:37:55"},{"type":"diesel","price":1.834,"self":true,"updatedAt":"29/06/2026 00:37:55"}]},{"id":"26420","lat":44.12361380613402,"lon":8.25411056943426,"name":"EUROPAM","brand":"Europam","address":"VIA AURELIA 203 17025, LOANO, SV","prices":[{"type":"petrol","price":1.779,"self":true,"updatedAt":"27/06/2026 16:13:08"},{"type":"diesel","price":1.859,"self":true,"updatedAt":"27/06/2026 16:13:08"}]},{"id":"41108","lat":44.125449845303216,"lon":8.255229463788964,"name":"F.LLI VISCA DI VISCA A. E D. & . SAS","brand":"Esso","address":"AURELIA 312 17025, LOANO, SV","prices":[{"type":"petrol","price":1.781,"self":true,"updatedAt":"30/06/2026 06:54:09"},{"type":"diesel","price":1.866,"self":true,"updatedAt":"30/06/2026 06:54:09"}]},{"id":"41273","lat":44.20674924428758,"lon":8.417113199830055,"name":"walter basso","brand":"Esso","address":"1 Via Aurelia, Km. 589, savona  - 17026, NOLI, SV","prices":[{"type":"petrol","price":1.799,"self":true,"updatedAt":"29/06/2026 16:14:26"},{"type":"diesel","price":1.879,"self":true,"updatedAt":"29/06/2026 16:14:26"}]},{"id":"55886","lat":44.213725289352915,"lon":8.32560896873478,"name":"P.V. Orco Feglino","brand":"Api-Ip","address":"Via Aquila snc 17024, ORCO FEGLINO, SV","prices":[{"type":"petrol","price":1.819,"self":true,"updatedAt":"26/06/2026 16:48:29"},{"type":"diesel","price":1.919,"self":true,"updatedAt":"26/06/2026 16:48:29"}]},{"id":"54199","lat":44.14669,"lon":8.277471,"name":"1362 Pietra Ligure","brand":"Agip Eni","address":"Via Aurelia, 16, PIETRA LIGURE, SV","prices":[{"type":"petrol","price":1.809,"self":true,"updatedAt":"30/06/2026 00:18:47"},{"type":"diesel","price":1.889,"self":true,"updatedAt":"30/06/2026 00:18:47"}]},{"id":"28690","lat":44.1398755699861,"lon":8.269027769565582,"name":"3D SRL PIETRA LIGURE","brand":"KEROPETROL","address":"VIA VIA XXV APRILE 186 17027, PIETRA LIGURE (SV) 186 17027, PIETRA LIGURE, SV","prices":[{"type":"petrol","price":1.784,"self":true,"updatedAt":"26/06/2026 15:54:43"},{"type":"diesel","price":1.874,"self":true,"updatedAt":"26/06/2026 15:54:43"}]},{"id":"38050","lat":44.150920839722666,"lon":8.288112357258797,"name":"4333","brand":"Tamoil","address":"ITALIA 38 17027, PIETRA LIGURE, SV","prices":[{"type":"petrol","price":1.779,"self":true,"updatedAt":"29/06/2026 23:29:22"},{"type":"diesel","price":1.829,"self":true,"updatedAt":"29/06/2026 12:36:22"}]},{"id":"28326","lat":44.144936331121116,"lon":8.274371046209126,"name":"Esso","brand":"Esso","address":"viale riviera 42 17027, PIETRA LIGURE, SV","prices":[{"type":"petrol","price":1.799,"self":true,"updatedAt":"29/06/2026 12:58:57"},{"type":"diesel","price":1.899,"self":true,"updatedAt":"29/06/2026 12:58:57"}]},{"id":"11843","lat":44.141783080709175,"lon":8.271441757678986,"name":"PIETRA LIGURE-SS. 1 AURELIA 90","brand":"Q8","address":"SS. 1 AURELIA 90 17027, PIETRA LIGURE, SV","prices":[{"type":"petrol","price":1.774,"self":true,"updatedAt":"30/06/2026 01:10:36"},{"type":"diesel","price":1.824,"self":true,"updatedAt":"30/06/2026 01:10:36"}]},{"id":"44033","lat":44.22138078083992,"lon":8.414562419056892,"name":"IP SPOTORNO","brand":"Api-Ip","address":"AURELIA VARIANTE NUOVA  17028, SPOTORNO, SV","prices":[{"type":"petrol","price":1.806,"self":true,"updatedAt":"29/06/2026 18:58:32"},{"type":"diesel","price":1.906,"self":true,"updatedAt":"29/06/2026 18:58:32"}]},{"id":"54924","lat":44.16684605736339,"lon":8.275873437523842,"name":"Self  & Go S.n.c.","brand":"Api-Ip","address":"NICOLO' REMBADO 24 17020, TOVO SAN GIACOMO, SV","prices":[{"type":"petrol","price":1.799,"self":true,"updatedAt":"29/06/2026 23:28:36"},{"type":"diesel","price":1.899,"self":true,"updatedAt":"29/06/2026 23:28:36"}]},{"id":"43271","lat":44.225442701196755,"lon":8.36020706134218,"name":"BORSANA SUD","brand":"Api-Ip","address":"A10 SAVONA-VENTIMIGLIA, Km. 55+702, EST - 17028, VEZZI PORTIO, SV","prices":[{"type":"petrol","price":1.829,"self":true,"updatedAt":"29/06/2026 09:06:41"},{"type":"diesel","price":1.919,"self":true,"updatedAt":"29/06/2026 09:06:41"}]}]