[{"id":"25873","lat":44.1768364213489,"lon":11.952062845230103,"name":"PV 5906","brand":"Agip Eni","address":"VIALE MARCONI 94 47011, CASTROCARO TERME E TERRA DEL SOLE, FC","prices":[{"type":"petrol","price":1.789,"self":true,"updatedAt":"26/06/2026 23:48:07"},{"type":"diesel","price":1.824,"self":true,"updatedAt":"27/06/2026 06:09:14"}]},{"id":"12922","lat":44.178475356881464,"lon":11.953611820936203,"name":"Q8","brand":"Q8","address":"VIALE MARCONI 172 47011, CASTROCARO TERME E TERRA DEL SOLE, FC","prices":[{"type":"petrol","price":1.806,"self":true,"updatedAt":"25/06/2026 11:39:54"},{"type":"diesel","price":1.886,"self":true,"updatedAt":"25/06/2026 11:39:54"}]},{"id":"60367","lat":44.176670740764536,"lon":11.951378742328949,"name":"RETITALIA CASTROCARO","brand":"Retitalia","address":"Viale Marconi 87  47011, CASTROCARO TERME E TERRA DEL SOLE, FC","prices":[{"type":"petrol","price":1.777,"self":true,"updatedAt":"26/06/2026 23:29:50"},{"type":"diesel","price":1.827,"self":true,"updatedAt":"26/06/2026 10:26:11"}]},{"id":"60787","lat":44.130444760507366,"lon":11.898293332525261,"name":"KEROPETROL - DOVADOLA","brand":"KEROPETROL","address":"Via Nazionale 16/b 47013, DOVADOLA, FC","prices":[{"type":"petrol","price":1.789,"self":true,"updatedAt":"25/06/2026 14:58:47"},{"type":"diesel","price":1.879,"self":true,"updatedAt":"25/06/2026 14:58:47"}]},{"id":"5037","lat":44.24307868082325,"lon":11.989246308803558,"name":"AGIP","brand":"Agip Eni","address":"VIALE BOLOGNA 302/A 47122, FORLÌ, FC","prices":[{"type":"petrol","price":1.809,"self":true,"updatedAt":"27/06/2026 00:39:02"},{"type":"diesel","price":1.909,"self":true,"updatedAt":"27/06/2026 07:22:04"},{"type":"lpg","price":0.759,"self":false,"updatedAt":"27/06/2026 00:39:02"}]},{"id":"50694","lat":44.19687247603502,"lon":11.997740583206733,"name":"BEYFIN","brand":"Beyfin","address":"VIA DEL PARTIGIANO 12 47121, FORLÌ, FC","prices":[{"type":"petrol","price":1.799,"self":true,"updatedAt":"24/06/2026 11:47:29"},{"type":"diesel","price":1.859,"self":true,"updatedAt":"24/06/2026 11:47:29"},{"type":"lpg","price":0.759,"self":false,"updatedAt":"24/06/2026 11:47:29"}]},{"id":"51992","lat":44.20816917521351,"lon":11.998511058747129,"name":"Stazione di servizio Firenze di Zannoni srl","brand":"Agip Eni","address":"Via Firenze 202/A 47121, FORLÌ, FC","prices":[{"type":"petrol","price":1.805,"self":true,"updatedAt":"27/06/2026 00:39:17"},{"type":"diesel","price":1.894,"self":true,"updatedAt":"27/06/2026 00:39:17"},{"type":"lpg","price":0.759,"self":false,"updatedAt":"27/06/2026 00:15:50"}]},{"id":"53377","lat":44.158042,"lon":11.793403,"name":"6901","brand":"Tamoil","address":"GRAMSCI 19 47015, MODIGLIANA, FC","prices":[{"type":"petrol","price":1.769,"self":true,"updatedAt":"26/06/2026 11:58:38"},{"type":"diesel","price":1.859,"self":true,"updatedAt":"26/06/2026 11:58:38"}]},{"id":"51539","lat":44.02710490506313,"lon":11.785083628095636,"name":"Stazione di servizio Portico di Romagna","brand":"Pompe Bianche","address":"S.S. TOSCO ROMAGNOLA 1 BIS 47010, PORTICO E SAN BENEDETTO, FC","prices":[{"type":"petrol","price":1.789,"self":true,"updatedAt":"27/06/2026 00:10:57"},{"type":"diesel","price":1.889,"self":true,"updatedAt":"27/06/2026 00:10:57"}]},{"id":"55417","lat":44.09844179063157,"lon":11.981083005666733,"name":"Boattini Angela","brand":"Pompe Bianche","address":"VIALE LIBERTA' 32 47016, PREDAPPIO, FC","prices":[{"type":"petrol","price":1.879,"self":true,"updatedAt":"18/06/2026 10:02:19"},{"type":"diesel","price":1.989,"self":true,"updatedAt":"18/06/2026 10:02:19"}]},{"id":"27731","lat":44.10894022530951,"lon":11.981051690807362,"name":"Gpower","brand":"Pompe Bianche","address":"VIA ROMA 100 47016, PREDAPPIO, FC","prices":[{"type":"petrol","price":1.799,"self":true,"updatedAt":"22/06/2026 10:43:51"},{"type":"diesel","price":1.899,"self":true,"updatedAt":"22/06/2026 10:43:51"}]},{"id":"53499","lat":44.143633942346185,"lon":11.98575273156166,"name":"Stazione di Servizio Fiumana di Zannoni srl","brand":"Zannoni","address":"PROVINCIALE 24 47016, PREDAPPIO, FC","prices":[{"type":"petrol","price":1.739,"self":true,"updatedAt":"26/06/2026 10:07:50"},{"type":"diesel","price":1.839,"self":true,"updatedAt":"26/06/2026 10:07:50"}]},{"id":"51538","lat":44.0614856,"lon":11.8419283,"name":"Stazione di servizio Rocca San Casciano","brand":"Pompe Bianche","address":"Piazza Tassinari 2/A 47017, ROCCA SAN CASCIANO, FC","prices":[{"type":"petrol","price":1.789,"self":true,"updatedAt":"27/06/2026 00:11:19"},{"type":"diesel","price":1.889,"self":true,"updatedAt":"27/06/2026 00:11:19"}]},{"id":"16916","lat":44.22519686254413,"lon":11.780372625232845,"name":"CGM","brand":"Q8","address":"FAENTINA 5/C 48013, BRISIGHELLA, RA","prices":[{"type":"petrol","price":1.759,"self":true,"updatedAt":"26/06/2026 11:33:06"},{"type":"diesel","price":1.859,"self":true,"updatedAt":"26/06/2026 11:33:06"}]},{"id":"47909","lat":44.22221424353087,"lon":11.77461326122284,"name":"OIL ITALIA BRISIGHELLA","brand":"Oil Italia","address":"Via Maglioni 4 48013, BRISIGHELLA, RA","prices":[{"type":"petrol","price":1.849,"self":true,"updatedAt":"26/06/2026 16:10:02"},{"type":"diesel","price":1.919,"self":true,"updatedAt":"26/06/2026 16:10:02"}]}]