[{"id":"60126","lat":44.38331833900808,"lon":9.16438561037963,"name":"BECOJL AVEGNO","brand":"Kerotris","address":"Via Leonardo da Vinci 3  16030, AVEGNO, GE","prices":[{"type":"petrol","price":1.829,"self":true,"updatedAt":"25/06/2026 11:28:34"},{"type":"diesel","price":1.939,"self":true,"updatedAt":"25/06/2026 11:28:34"}]},{"id":"58322","lat":44.4533451,"lon":9.0866804,"name":"BARGAGLI VIA S. MARTINI 5","brand":"Q8","address":"VIA S.MARTINI 5, BARGAGLI, GE","prices":[{"type":"petrol","price":1.979,"self":true,"updatedAt":"15/05/2026 13:37:43"},{"type":"diesel","price":1.899,"self":true,"updatedAt":"15/05/2026 13:37:43"}]},{"id":"11604","lat":44.37798918130953,"lon":9.075604643918723,"name":"BOGLIASCO-VIA AURELIA KM 512+025","brand":"Q8","address":"VIA AURELIA KM 512+025 S/N 16031, BOGLIASCO, GE","prices":[{"type":"petrol","price":1.784,"self":true,"updatedAt":"26/06/2026 07:43:48"},{"type":"diesel","price":1.864,"self":true,"updatedAt":"26/06/2026 07:43:48"}]},{"id":"21784","lat":44.343913897185494,"lon":9.17909187574891,"name":"Autogas Nord","brand":"Pompe Bianche","address":"VIA AURELIA 317 16032, CAMOGLI, GE","prices":[{"type":"lpg","price":0.969,"self":false,"updatedAt":"25/06/2026 11:19:52"}]},{"id":"33371","lat":44.34642826802645,"lon":9.158888449636152,"name":"CAMOGLI - GIOVANNI BETTOLO","brand":"Api-Ip","address":"VIA GIOVANNI BETTOLO  16032, CAMOGLI, GE","prices":[{"type":"petrol","price":1.829,"self":true,"updatedAt":"28/06/2026 09:01:49"},{"type":"diesel","price":1.929,"self":true,"updatedAt":"28/06/2026 09:01:49"}]},{"id":"62562","lat":44.345841162902545,"lon":9.180844244475109,"name":"ESSO - RUTA DI CAMOGLI","brand":"Esso","address":"Via Aurelia 317  16030, CAMOGLI, GE","prices":[{"type":"petrol","price":1.809,"self":true,"updatedAt":"23/06/2026 09:40:45"},{"type":"diesel","price":1.889,"self":true,"updatedAt":"27/06/2026 22:00:50"}]},{"id":"53913","lat":44.40586116706818,"lon":9.242696380242705,"name":"Distributore Zerega Silvana","brand":"Api-Ip","address":"PIAN MERCATO 19 16044, CICAGNA, GE","prices":[{"type":"petrol","price":1.829,"self":true,"updatedAt":"24/06/2026 08:53:48"},{"type":"diesel","price":1.929,"self":true,"updatedAt":"24/06/2026 08:53:48"}]},{"id":"60128","lat":44.46532982311273,"lon":9.086602895224212,"name":"BECOJL DAVAGNA","brand":"Kerotris","address":"Via Giovanni Bombrini  16022, DAVAGNA, GE","prices":[{"type":"petrol","price":1.859,"self":true,"updatedAt":"25/06/2026 14:37:59"},{"type":"diesel","price":1.959,"self":true,"updatedAt":"25/06/2026 14:37:59"}]},{"id":"47947","lat":44.389594447461334,"lon":9.01355639449481,"name":"1090","brand":"Agip Eni","address":"EUROPA 1462 16166, GENOVA, GE","prices":[{"type":"petrol","price":1.799,"self":true,"updatedAt":"28/06/2026 01:29:07"},{"type":"diesel","price":1.879,"self":true,"updatedAt":"28/06/2026 01:29:07"}]},{"id":"41229","lat":44.383812204679806,"lon":9.046528413891792,"name":"8264","brand":"Tamoil","address":"DONATO SOMMA (LATO MONTE) SNC 16167, GENOVA, GE","prices":[{"type":"petrol","price":1.759,"self":true,"updatedAt":"28/06/2026 12:16:09"},{"type":"diesel","price":1.859,"self":true,"updatedAt":"28/06/2026 12:16:09"}]},{"id":"29782","lat":44.44940724259811,"lon":9.02037373792848,"name":"DELLEPIANE E CAU S.n.c.","brand":"Tamoil","address":"Via Struppa 113a/r 16165, GENOVA, GE","prices":[{"type":"petrol","price":1.779,"self":true,"updatedAt":"28/06/2026 11:56:06"},{"type":"diesel","price":1.849,"self":true,"updatedAt":"28/06/2026 11:56:06"},{"type":"lpg","price":0.939,"self":false,"updatedAt":"28/06/2026 11:56:06"}]},{"id":"62318","lat":44.39430462012957,"lon":9.00056662829247,"name":"ESSO - GENOVA C.SO EUROPA","brand":"Esso","address":"C.so Europa 1085  16148, GENOVA, GE","prices":[{"type":"petrol","price":1.769,"self":true,"updatedAt":"23/06/2026 08:41:18"},{"type":"diesel","price":1.859,"self":true,"updatedAt":"27/06/2026 10:00:50"}]},{"id":"49923","lat":44.392769328332626,"lon":9.008502038621534,"name":"EUROPAM - C.SO EUROPA 1259","brand":"Europam","address":"Corso Europa 1259 16132, GENOVA, GE","prices":[{"type":"petrol","price":1.757,"self":true,"updatedAt":"26/06/2026 11:53:45"},{"type":"diesel","price":1.857,"self":true,"updatedAt":"26/06/2026 11:53:45"}]},{"id":"42573","lat":44.392792900980545,"lon":9.008513979518852,"name":"Europam CORSO EUROPA","brand":"Europam","address":"corso europa 1258 16100, GENOVA, GE","prices":[{"type":"petrol","price":1.757,"self":true,"updatedAt":"26/06/2026 13:01:45"},{"type":"diesel","price":1.857,"self":true,"updatedAt":"26/06/2026 13:01:45"}]},{"id":"24590","lat":44.386915334350675,"lon":9.018170495700815,"name":"GENOVA - EUROPA 1624","brand":"Api-Ip","address":"CORSO EUROPA 1624 16166, GENOVA, GE","prices":[{"type":"petrol","price":1.759,"self":true,"updatedAt":"28/06/2026 09:01:50"},{"type":"diesel","price":1.859,"self":true,"updatedAt":"28/06/2026 09:01:50"}]},{"id":"27525","lat":44.38392715817099,"lon":9.04515632638936,"name":"GENOVA - NERVI","brand":"Api-Ip","address":"VIA DONATO SOMMA - fraz NERVI  51R 16167, GENOVA, GE","prices":[{"type":"petrol","price":1.759,"self":true,"updatedAt":"28/06/2026 09:07:13"},{"type":"diesel","price":1.859,"self":true,"updatedAt":"28/06/2026 09:07:13"}]},{"id":"31094","lat":44.44932680214545,"lon":9.02144506573677,"name":"GENOVA - STRUPPA","brand":"Api-Ip","address":"VIA STRUPPA 113/DR 16165, GENOVA, GE","prices":[{"type":"petrol","price":1.764,"self":true,"updatedAt":"28/06/2026 09:01:50"},{"type":"diesel","price":1.844,"self":true,"updatedAt":"28/06/2026 09:01:50"}]},{"id":"50741","lat":44.38309410654941,"lon":9.025778414317319,"name":"GENOVA MURCAROLO","brand":"Esso","address":"VIA MURCAROLO 2 E-R 16167, GENOVA, GE","prices":[{"type":"petrol","price":1.799,"self":true,"updatedAt":"27/06/2026 08:12:07"},{"type":"diesel","price":1.899,"self":true,"updatedAt":"27/06/2026 08:12:07"}]},{"id":"22331","lat":44.388870362184285,"lon":9.014873917790965,"name":"GENOVA QUINTO CORSO EUROPA 1500","brand":"Q8","address":"CORSO EUROPA 1500 16166, GENOVA, GE","prices":[{"type":"petrol","price":1.759,"self":true,"updatedAt":"27/06/2026 01:38:51"},{"type":"diesel","price":1.859,"self":true,"updatedAt":"27/06/2026 01:38:51"}]},{"id":"3474","lat":44.3929869210189,"lon":9.04581874603275,"name":"S.ILARIO NORD","brand":"Api-Ip","address":"Autostrada A12 GENOVA-SESTRI L., Km. 14+500, dir. Ovest - 16167, GENOVA, GE","prices":[{"type":"petrol","price":1.869,"self":true,"updatedAt":"26/06/2026 00:00:05"},{"type":"diesel","price":1.969,"self":true,"updatedAt":"26/06/2026 00:00:06"}]},{"id":"23908","lat":44.39251464534096,"lon":9.04591217637062,"name":"S.ILARIO SUD","brand":"Q8","address":"Autostrada A12 GENOVA-SESTRI L., Km. 14, dir. EST - 16167, GENOVA, GE","prices":[{"type":"petrol","price":1.854,"self":true,"updatedAt":"29/06/2026 07:23:32"},{"type":"diesel","price":1.954,"self":true,"updatedAt":"29/06/2026 07:23:32"}]},{"id":"60288","lat":44.439,"lon":9.13186,"name":"Italiana Petroli spa","brand":"Api-Ip","address":"FERRIERE km. 29 16024, LUMARZO, GE","prices":[{"type":"petrol","price":1.839,"self":true,"updatedAt":"27/06/2026 16:10:58"},{"type":"diesel","price":1.939,"self":true,"updatedAt":"27/06/2026 16:10:59"}]},{"id":"60250","lat":44.4205633,"lon":9.2089966,"name":"EUROPAM FERRADA DI MOCONESI","brand":"Europam","address":"Via Alcide De Gasperi  16047, MOCONESI, GE","prices":[{"type":"petrol","price":1.817,"self":true,"updatedAt":"26/06/2026 12:02:48"},{"type":"diesel","price":1.917,"self":true,"updatedAt":"26/06/2026 12:02:48"}]},{"id":"18159","lat":44.43298692374558,"lon":9.175244271755219,"name":"stazione di servizio q8 di cuneo massimo","brand":"Q8","address":"Statale 225 della Fontanabuona, Km. 28, dir. chiavari - 16040, NEIRONE, GE","prices":[{"type":"petrol","price":1.837,"self":true,"updatedAt":"29/06/2026 06:37:59"},{"type":"diesel","price":1.937,"self":true,"updatedAt":"29/06/2026 06:37:59"}]},{"id":"28769","lat":44.373593013851874,"lon":9.08797520852886,"name":"eni 51484 Masera e fugazzi sas","brand":"Agip Eni","address":"via xxv aprile 197 16031, PIEVE LIGURE, GE","prices":[{"type":"petrol","price":1.789,"self":true,"updatedAt":"28/06/2026 23:25:46"},{"type":"diesel","price":1.844,"self":true,"updatedAt":"28/06/2026 16:46:03"}]},{"id":"58091","lat":44.35296,"lon":9.21745,"name":"1103 RAPALLO","brand":"Agip Eni","address":"PIAZZA N. SAURO  2 2, RAPALLO, GE","prices":[{"type":"petrol","price":1.829,"self":true,"updatedAt":"28/06/2026 23:21:05"},{"type":"diesel","price":1.889,"self":true,"updatedAt":"28/06/2026 23:21:05"}]},{"id":"45814","lat":44.3456537451559,"lon":9.228374106301999,"name":"EUROPAM - RAPALLO","brand":"Europam","address":"CORSO COLOMBO  25 16035, RAPALLO, GE","prices":[{"type":"petrol","price":1.797,"self":true,"updatedAt":"27/06/2026 06:00:58"},{"type":"diesel","price":1.897,"self":true,"updatedAt":"27/06/2026 06:00:58"}]},{"id":"59516","lat":44.35406932821919,"lon":9.213322806426323,"name":"IP 43086 di Luca Sanguineti - Via Luigi Arpinati, 32  Rapallo (GE)","brand":"Api-Ip","address":"VIA LUIGI ARPINATI  32 16035, RAPALLO, GE","prices":[{"type":"petrol","price":1.819,"self":true,"updatedAt":"23/06/2026 17:50:05"},{"type":"diesel","price":1.919,"self":true,"updatedAt":"23/06/2026 17:50:05"}]},{"id":"50895","lat":44.347687756090515,"lon":9.22570446514512,"name":"IP Cuneo Enrico Pv 43495","brand":"Api-Ip","address":"VIA PIAZZA ALFIERI 1 16035, RAPALLO (GE) 1/6 16035, RAPALLO, GE","prices":[{"type":"petrol","price":1.839,"self":true,"updatedAt":"23/06/2026 18:12:38"},{"type":"diesel","price":1.939,"self":true,"updatedAt":"23/06/2026 18:12:38"}]},{"id":"50171","lat":44.353423638626026,"lon":9.213300360023288,"name":"Mi.Da","brand":"Q8","address":"via S.Anna  27 16035, RAPALLO, GE","prices":[{"type":"petrol","price":1.829,"self":true,"updatedAt":"23/06/2026 07:20:23"},{"type":"diesel","price":1.919,"self":true,"updatedAt":"23/06/2026 07:20:23"}]},{"id":"6386","lat":44.352721782891685,"lon":9.217646030808055,"name":"RAPALLO P.ZA CESARE BATTISTI 364 IMPQ8","brand":"Q8","address":"P.ZA CESARE BATTISTI - IMPQ8 364 16035, RAPALLO, GE","prices":[{"type":"petrol","price":1.809,"self":true,"updatedAt":"27/06/2026 01:38:49"},{"type":"diesel","price":1.889,"self":true,"updatedAt":"27/06/2026 01:38:49"}]},{"id":"11603","lat":44.3535347899272,"lon":9.214002464178975,"name":"RAPALLO-VIA ARPINATI 5/B","brand":"Q8","address":"VIA ARPINATI 5/B 16035, RAPALLO, GE","prices":[{"type":"petrol","price":1.819,"self":true,"updatedAt":"27/06/2026 07:40:19"},{"type":"diesel","price":1.899,"self":true,"updatedAt":"27/06/2026 07:40:19"}]},{"id":"16734","lat":44.355500905536516,"lon":9.210080485983326,"name":"Staz. di servizio Tender carburanti snc","brand":"Esso","address":"VIA VIA SANTA MARIA SNC 16035, RAPALLO (GE) 1 16035, RAPALLO, GE","prices":[{"type":"petrol","price":1.816,"self":true,"updatedAt":"27/06/2026 06:46:30"},{"type":"diesel","price":1.899,"self":true,"updatedAt":"27/06/2026 06:46:30"}]},{"id":"16730","lat":44.35266954841351,"lon":9.218228049073787,"name":"Staz. di servizio Tender carburanti snc","brand":"Esso","address":"VIA VIA MAMELI 362 16035, RAPALLO (GE) 362 16035, RAPALLO, GE","prices":[{"type":"petrol","price":1.816,"self":true,"updatedAt":"27/06/2026 06:46:19"},{"type":"diesel","price":1.899,"self":true,"updatedAt":"27/06/2026 06:46:19"}]},{"id":"60826","lat":44.3656,"lon":9.14687,"name":"1086 RECCO","brand":"Agip Eni","address":"VIA ROMA  154, RECCO, GE","prices":[{"type":"petrol","price":1.829,"self":true,"updatedAt":"28/06/2026 01:16:12"},{"type":"diesel","price":1.889,"self":true,"updatedAt":"28/06/2026 01:16:12"}]},{"id":"46612","lat":44.3603633903555,"lon":9.145201035581977,"name":"Cuneo Enrico Stazione Ip","brand":"Api-Ip","address":"FILIPPO DA RECCO 4 16036, RECCO, GE","prices":[{"type":"petrol","price":1.829,"self":true,"updatedAt":"24/06/2026 09:04:23"},{"type":"diesel","price":1.929,"self":true,"updatedAt":"24/06/2026 09:04:23"}]},{"id":"43915","lat":44.37255583452761,"lon":9.15036299999997,"name":"EUROPAM - RECCO","brand":"Europam","address":"VIA DEI GIUSTINIANI 19 16036, RECCO, GE","prices":[{"type":"petrol","price":1.977,"self":true,"updatedAt":"27/06/2026 21:30:12"},{"type":"diesel","price":2.106,"self":true,"updatedAt":"27/06/2026 21:30:12"}]},{"id":"44271","lat":44.33086809743651,"lon":9.21263442774432,"name":"q8","brand":"Q8","address":"via tomaso bottaro  16038, SANTA MARGHERITA LIGURE, GE","prices":[{"type":"petrol","price":1.869,"self":true,"updatedAt":"27/06/2026 13:11:40"},{"type":"diesel","price":1.969,"self":true,"updatedAt":"27/06/2026 13:11:40"}]},{"id":"12086","lat":44.32911764468601,"lon":9.213934543251298,"name":"stazione di servizio API","brand":"Api-Ip","address":"VIA GARIBALDI 5 16038, SANTA MARGHERITA LIGURE, GE","prices":[{"type":"petrol","price":1.897,"self":true,"updatedAt":"23/06/2026 23:23:07"},{"type":"diesel","price":2.017,"self":true,"updatedAt":"23/06/2026 23:23:07"}]}]