[{"id":"60534","lat":44.4815,"lon":7.871233,"name":"221 Carru","brand":"Agip Eni","address":"VIA CIRCONVALLAZIONE S.P.No9 KM. 7+940  9, CARRÙ, CN","prices":[{"type":"petrol","price":1.814,"self":true,"updatedAt":"23/06/2026 23:51:52"},{"type":"diesel","price":1.919,"self":true,"updatedAt":"23/06/2026 23:51:52"}]},{"id":"48675","lat":44.478356745987185,"lon":7.869748065673718,"name":"Ellena snc","brand":"Api-Ip","address":"VIALE VITTORIO VENETO 70 12061, CARRÙ, CN","prices":[{"type":"petrol","price":1.799,"self":true,"updatedAt":"23/06/2026 12:23:49"},{"type":"diesel","price":1.899,"self":true,"updatedAt":"23/06/2026 12:23:49"}]},{"id":"46986","lat":44.48388142751854,"lon":7.892170940303799,"name":"Sia Fuel Carrù","brand":"Sia fuel","address":"Strada Provinciale Clavesana 59 12061, CARRÙ, CN","prices":[{"type":"petrol","price":1.849,"self":true,"updatedAt":"22/06/2026 16:48:09"},{"type":"diesel","price":1.949,"self":true,"updatedAt":"22/06/2026 16:48:09"},{"type":"methane","price":1.685,"self":false,"updatedAt":"22/06/2026 16:48:09"}]},{"id":"61778","lat":44.34001080693093,"lon":7.7777213364929265,"name":"Iperstaroil Frabosa Sottana - Gosi","brand":"Pompe Bianche","address":"Via Gosi  12083, FRABOSA SOTTANA, CN","prices":[{"type":"petrol","price":1.759,"self":true,"updatedAt":"23/06/2026 20:16:48"},{"type":"diesel","price":1.819,"self":true,"updatedAt":"23/06/2026 17:25:20"}]},{"id":"11300","lat":44.30184770009087,"lon":7.797337174415588,"name":"TREBI S.N.C. di Botto Paolo, Bertolino Piercarlo & C.","brand":"Api-Ip","address":"VIA IV NOVEMBRE 1 12083, FRABOSA SOTTANA, CN","prices":[{"type":"petrol","price":1.889,"self":true,"updatedAt":"21/06/2026 09:04:49"},{"type":"diesel","price":1.999,"self":true,"updatedAt":"21/06/2026 09:04:49"}]},{"id":"10526","lat":44.46456982429472,"lon":7.830163098484604,"name":"CENTRO CALOR MAGLIANO","brand":"Centro Calor","address":"VIA AUTOSTRADA 48 12060, MAGLIANO ALPI, CN","prices":[{"type":"petrol","price":1.799,"self":true,"updatedAt":"23/06/2026 12:11:17"},{"type":"diesel","price":1.899,"self":true,"updatedAt":"23/06/2026 12:11:17"}]},{"id":"52816","lat":44.451825231597766,"lon":7.782676454687487,"name":"DISCAR MAGLIANO ALPI","brand":"DIS-CAR","address":"VIA VIA COL DI NAVA 22 12060, MAGLIANO ALPI (CN) 22 12060, MAGLIANO ALPI, CN","prices":[{"type":"petrol","price":1.795,"self":true,"updatedAt":"24/06/2026 00:52:32"},{"type":"diesel","price":1.879,"self":true,"updatedAt":"24/06/2026 00:52:32"}]},{"id":"34242","lat":44.46032923141427,"lon":7.821782385844472,"name":"EUROPAM MAGLIANO ALPI","brand":"Europam","address":"via autostrada  26 12060, MAGLIANO ALPI, CN","prices":[{"type":"petrol","price":1.817,"self":true,"updatedAt":"22/06/2026 11:12:32"},{"type":"diesel","price":1.917,"self":true,"updatedAt":"22/06/2026 11:12:32"}]},{"id":"10191","lat":44.4468559625341,"lon":7.775849834776167,"name":"TEALDI PETROLI SAS","brand":"Pompe Bianche","address":"VIA D. ROSSI 51 12060, MAGLIANO ALPI, CN","prices":[{"type":"petrol","price":1.8,"self":true,"updatedAt":"22/06/2026 08:35:12"},{"type":"diesel","price":1.85,"self":true,"updatedAt":"22/06/2026 08:35:12"}]},{"id":"44658","lat":44.362341112856726,"lon":7.833567101163908,"name":"4728","brand":"Tamoil","address":"S.S 28 AL KM. 33+603 S/N 12084, MONDOVÌ, CN","prices":[{"type":"petrol","price":1.769,"self":true,"updatedAt":"23/06/2026 23:37:35"},{"type":"diesel","price":1.819,"self":true,"updatedAt":"23/06/2026 23:37:35"},{"type":"methane","price":1.499,"self":true,"updatedAt":"23/06/2026 23:37:35"}]},{"id":"62597","lat":44.391903,"lon":7.818327,"name":"57130 MONDOVI'","brand":"Agip Eni","address":"VIA DELLA CORNICE  33, MONDOVÌ, CN","prices":[{"type":"petrol","price":1.829,"self":true,"updatedAt":"23/06/2026 23:53:11"},{"type":"diesel","price":1.919,"self":true,"updatedAt":"23/06/2026 23:53:11"}]},{"id":"57938","lat":44.40597667019804,"lon":7.806840937959287,"name":"Eni 00244","brand":"Agip Eni","address":"Via Cuneo 78/G 12084, MONDOVÌ, CN","prices":[{"type":"petrol","price":1.789,"self":true,"updatedAt":"23/06/2026 23:51:14"},{"type":"diesel","price":1.864,"self":true,"updatedAt":"23/06/2026 23:51:14"}]},{"id":"62940","lat":44.4022357,"lon":7.828587899999999,"name":"ENI 51147","brand":"Agip Eni","address":"Via delle Langhe 46  12084, MONDOVÌ, CN","prices":[{"type":"petrol","price":1.829,"self":true,"updatedAt":"24/06/2026 00:47:29"},{"type":"diesel","price":1.919,"self":true,"updatedAt":"24/06/2026 00:47:29"}]},{"id":"50182","lat":44.40225925814803,"lon":7.8285325863449895,"name":"Eni 51147","brand":"Agip Eni","address":"Via langhe  12084, MONDOVÌ, CN","prices":[{"type":"petrol","price":1.757,"self":true,"updatedAt":"29/04/2026 22:38:55"},{"type":"diesel","price":2.079,"self":true,"updatedAt":"29/04/2026 22:38:55"}]},{"id":"7402","lat":44.39792076601225,"lon":7.750496216864008,"name":"IP di Mondino Claudio","brand":"Api-Ip","address":"Via Monregalese  33 12084, MONDOVÌ, CN","prices":[{"type":"petrol","price":1.799,"self":true,"updatedAt":"23/06/2026 08:29:12"},{"type":"diesel","price":1.899,"self":true,"updatedAt":"23/06/2026 08:29:12"}]},{"id":"21783","lat":44.41161189085924,"lon":7.788379937410355,"name":"IP MONDOVI' VIA CUNEO 107","brand":"Api-Ip","address":"VIA CUNEO 107 12084, MONDOVÌ, CN","prices":[{"type":"petrol","price":1.909,"self":true,"updatedAt":"22/06/2026 09:02:58"},{"type":"diesel","price":1.959,"self":true,"updatedAt":"22/06/2026 09:02:58"},{"type":"lpg","price":0.799,"self":false,"updatedAt":"22/06/2026 09:02:58"}]},{"id":"58276","lat":44.36642457602117,"lon":7.797086405493161,"name":"Mondovì","brand":"Api-Ip","address":"SP5, MONDOVÌ, CN","prices":[{"type":"petrol","price":1.789,"self":true,"updatedAt":"24/06/2026 00:30:55"},{"type":"diesel","price":1.879,"self":true,"updatedAt":"24/06/2026 00:30:55"}]},{"id":"60273","lat":44.3946616,"lon":7.8188649,"name":"MONDOVI - VIA QUADRONE","brand":"Pompe Bianche","address":"Via G. B. Quadrone 13  12084, MONDOVÌ, CN","prices":[{"type":"petrol","price":1.745,"self":true,"updatedAt":"24/06/2026 00:07:04"},{"type":"diesel","price":1.986,"self":true,"updatedAt":"24/06/2026 00:07:04"}]},{"id":"62711","lat":44.39826,"lon":7.816348,"name":"MONDOVI EST","brand":"Esso","address":"Autostrada A6 TORINO-SAVONA,  Km. 64, dir. NORD 12084, MONDOVÌ, CN","prices":[{"type":"diesel","price":1.969,"self":true,"updatedAt":"19/06/2026 09:57:53"}]},{"id":"58255","lat":44.39826,"lon":7.816348,"name":"MONDOVI EST","brand":"Esso","address":"Autostrada A6 TORINO-SAVONA,  Km. 64, dir. NORD 12084, MONDOVÌ, CN","prices":[{"type":"petrol","price":1.949,"self":true,"updatedAt":"23/06/2026 10:25:10"},{"type":"diesel","price":2.049,"self":true,"updatedAt":"23/06/2026 10:25:10"},{"type":"lpg","price":0.899,"self":false,"updatedAt":"23/06/2026 10:25:10"}]},{"id":"61824","lat":44.39713524486488,"lon":7.813607820065814,"name":"Mondovì Via Cuneo - Economy srl","brand":"Api-Ip","address":"Via Cuneo 6 12084, MONDOVÌ, CN","prices":[{"type":"petrol","price":1.789,"self":true,"updatedAt":"23/06/2026 10:13:41"},{"type":"diesel","price":1.869,"self":true,"updatedAt":"23/06/2026 10:13:41"}]},{"id":"61825","lat":44.40350820518675,"lon":7.813491383823918,"name":"Mondovì Via Torino - Economy srl","brand":"Api-Ip","address":"Via Torino 44/d 12084, MONDOVÌ, CN","prices":[{"type":"petrol","price":1.789,"self":true,"updatedAt":"23/06/2026 18:58:10"},{"type":"diesel","price":1.869,"self":true,"updatedAt":"23/06/2026 18:58:10"}]},{"id":"60274","lat":44.4039296,"lon":7.8303256,"name":"MONDOVI- VIA LANGHE","brand":"Pompe Bianche","address":"Via delle Langhe 56  12084, MONDOVÌ, CN","prices":[{"type":"petrol","price":1.758,"self":true,"updatedAt":"24/06/2026 00:07:22"},{"type":"diesel","price":1.818,"self":true,"updatedAt":"24/06/2026 00:07:21"}]},{"id":"12764","lat":44.42064735984841,"lon":7.850171327590942,"name":"Mondovicino Power","brand":"Pompe Bianche","address":"piazza Mondovicino 202 12084, MONDOVÌ, CN","prices":[{"type":"petrol","price":1.766,"self":true,"updatedAt":"23/06/2026 23:50:27"},{"type":"diesel","price":1.818,"self":true,"updatedAt":"23/06/2026 23:50:27"}]},{"id":"60150","lat":44.4172376,"lon":7.8253594,"name":"P.V. MONDOVI'","brand":"SACED","address":"Tangenziale di Mondovì  12084, MONDOVÌ, CN","prices":[{"type":"petrol","price":1.768,"self":true,"updatedAt":"22/06/2026 09:15:14"},{"type":"diesel","price":1.848,"self":true,"updatedAt":"22/06/2026 09:15:14"}]},{"id":"48587","lat":44.384512045610315,"lon":7.832644671620197,"name":"piazza","brand":"Tamoil","address":"via carboneri  82 12084, MONDOVÌ, CN","prices":[{"type":"petrol","price":1.819,"self":true,"updatedAt":"19/06/2026 11:51:15"},{"type":"diesel","price":1.929,"self":true,"updatedAt":"19/06/2026 11:51:15"}]},{"id":"58620","lat":44.398432,"lon":7.823794,"name":"SOCOGAS RETE MONDOVI' LANGHE PV 0695","brand":"Q8","address":"Via delle Langhe 7 12084, MONDOVÌ, CN","prices":[{"type":"petrol","price":1.819,"self":true,"updatedAt":"24/06/2026 00:22:02"},{"type":"diesel","price":1.919,"self":true,"updatedAt":"24/06/2026 00:22:02"},{"type":"lpg","price":0.799,"self":false,"updatedAt":"24/06/2026 00:22:02"}]},{"id":"57870","lat":44.3977732635945,"lon":7.822740508326742,"name":"TAMOIL VIA LANGHE n 16","brand":"Tamoil","address":"DELLE LANGHE 16 12084, MONDOVÌ, CN","prices":[{"type":"petrol","price":1.819,"self":true,"updatedAt":"23/06/2026 07:57:48"},{"type":"diesel","price":1.929,"self":true,"updatedAt":"23/06/2026 07:57:48"}]},{"id":"7098","lat":44.410995128456825,"lon":7.802504249662775,"name":"wiracarservice","brand":"Esso","address":"VIA CUNEO 79 12084, MONDOVÌ, CN","prices":[{"type":"petrol","price":1.819,"self":true,"updatedAt":"20/06/2026 11:50:04"},{"type":"diesel","price":1.899,"self":true,"updatedAt":"20/06/2026 11:50:04"}]},{"id":"54663","lat":44.384256,"lon":7.8184448,"name":"STAZIONE SERVIZO ESSO","brand":"Esso","address":"CUNEO 22/A 12040, MOROZZO, CN","prices":[{"type":"petrol","price":1.859,"self":true,"updatedAt":"19/06/2026 08:21:41"},{"type":"diesel","price":1.949,"self":true,"updatedAt":"19/06/2026 08:21:41"},{"type":"lpg","price":0.769,"self":false,"updatedAt":"19/06/2026 08:21:41"}]},{"id":"52819","lat":44.406376347227116,"lon":7.9353263341430536,"name":"DISCAR NIELLA TANARO","brand":"DIS-CAR","address":"VIA VIA LESEGNO ANGOLO VIA ROCCA CIGLIE' S/N 12060, NIELLA TANARO (CN) SN 12060, NIELLA TANARO, CN","prices":[{"type":"petrol","price":1.787,"self":true,"updatedAt":"24/06/2026 00:53:02"},{"type":"diesel","price":1.879,"self":true,"updatedAt":"24/06/2026 00:53:02"},{"type":"lpg","price":0.749,"self":false,"updatedAt":"23/06/2026 23:28:46"}]},{"id":"13294","lat":44.36838645076741,"lon":7.901057526469231,"name":"Q8","brand":"Q8","address":"via torre 10 12080, SAN MICHELE MONDOVÌ, CN","prices":[{"type":"petrol","price":1.799,"self":true,"updatedAt":"22/06/2026 17:13:01"},{"type":"diesel","price":1.899,"self":true,"updatedAt":"22/06/2026 17:13:01"}]},{"id":"20013","lat":44.37361899399984,"lon":7.9137396812438965,"name":"SPG DI GHIGLIA","brand":"Api-Ip","address":"NAZIONALE 19 12080, SAN MICHELE MONDOVÌ, CN","prices":[{"type":"petrol","price":1.929,"self":true,"updatedAt":"23/06/2026 08:00:53"},{"type":"diesel","price":2.079,"self":true,"updatedAt":"23/06/2026 08:00:53"}]},{"id":"44560","lat":44.36014963781018,"lon":7.855520826469615,"name":"eni","brand":"Agip Eni","address":"28 del Colle di Nava, Km. 25, sud, VICOFORTE, CN","prices":[{"type":"petrol","price":1.804,"self":true,"updatedAt":"24/06/2026 01:05:19"},{"type":"diesel","price":1.914,"self":true,"updatedAt":"24/06/2026 01:05:19"}]},{"id":"24518","lat":44.35129627915337,"lon":7.778715938329697,"name":"IP VILLANOVA MONDOVI'","brand":"Api-Ip","address":"VIA MONDOVI' 40/42 12089, VILLANOVA MONDOVÌ, CN","prices":[{"type":"petrol","price":1.899,"self":true,"updatedAt":"22/06/2026 09:03:38"},{"type":"diesel","price":1.949,"self":true,"updatedAt":"22/06/2026 09:03:38"}]}]