[{"id":"59307","lat":44.3342447,"lon":8.3445511,"name":"Besjana Hajdaraj","brand":"Europam","address":"via Gramsci 5 17041, ALTARE, SV","prices":[{"type":"petrol","price":1.787,"self":true,"updatedAt":"26/05/2026 01:46:50"},{"type":"diesel","price":2.057,"self":true,"updatedAt":"26/05/2026 01:46:49"}]},{"id":"62189","lat":44.397896,"lon":8.277968,"name":"1376 CAIRO MONTENOTTE","brand":"Agip Eni","address":"C.SO ITALIA  38, CAIRO MONTENOTTE, SV","prices":[{"type":"petrol","price":1.809,"self":true,"updatedAt":"29/06/2026 23:20:53"},{"type":"diesel","price":1.889,"self":true,"updatedAt":"29/06/2026 23:20:53"}]},{"id":"58661","lat":44.39847,"lon":8.27976396,"name":"8029","brand":"Tamoil","address":"VIA SANGUINETTI ADOLFO 19 17014, CAIRO MONTENOTTE, SV","prices":[{"type":"petrol","price":1.779,"self":true,"updatedAt":"30/06/2026 00:06:24"},{"type":"diesel","price":1.899,"self":true,"updatedAt":"30/06/2026 00:06:24"}]},{"id":"39094","lat":44.432478931693325,"lon":8.301650379133207,"name":"CAIRO MONTENOTTE - S.S.29","brand":"Api-Ip","address":"EX S.S. 29 KM. 122+914/122+867  17014, CAIRO MONTENOTTE, SV","prices":[{"type":"petrol","price":1.799,"self":true,"updatedAt":"29/06/2026 09:02:14"},{"type":"diesel","price":1.898,"self":true,"updatedAt":"29/06/2026 09:02:14"},{"type":"lpg","price":0.789,"self":false,"updatedAt":"29/06/2026 09:02:14"}]},{"id":"6391","lat":44.38843499830716,"lon":8.281929194927216,"name":"CAIRO MONTENOTTE CORSO BRIGATE PARTIGIANE","brand":"Q8","address":"CORSO BRIGATE PARTIGIANE SNC 17014, CAIRO MONTENOTTE, SV","prices":[{"type":"petrol","price":1.799,"self":true,"updatedAt":"27/06/2026 01:38:56"},{"type":"diesel","price":1.899,"self":true,"updatedAt":"27/06/2026 01:38:56"}]},{"id":"56985","lat":44.37597,"lon":8.28361,"name":"Esso-EG Italia","brand":"Esso","address":"Corso Guglielmo Marconi 149 17014, CAIRO MONTENOTTE, SV","prices":[{"type":"petrol","price":1.799,"self":true,"updatedAt":"29/06/2026 08:16:30"},{"type":"diesel","price":1.899,"self":true,"updatedAt":"29/06/2026 08:16:30"}]},{"id":"25737","lat":44.40189205940621,"lon":8.288224339485168,"name":"LIGURIA GAS CAIRO MONTENOTTE","brand":"Pompe Bianche","address":"VIA RESISTENZA 34 17014, CAIRO MONTENOTTE, SV","prices":[{"type":"petrol","price":1.808,"self":true,"updatedAt":"26/06/2026 08:20:12"},{"type":"diesel","price":1.898,"self":true,"updatedAt":"26/06/2026 08:20:12"},{"type":"methane","price":1.399,"self":false,"updatedAt":"26/06/2026 08:20:12"},{"type":"lpg","price":0.798,"self":false,"updatedAt":"26/06/2026 08:20:12"}]},{"id":"60100","lat":44.396489200234896,"lon":8.278383999298113,"name":"Oil Italia Cairo Montenotte","brand":"Oil Italia","address":"Via Colla snc 17014, CAIRO MONTENOTTE, SV","prices":[{"type":"petrol","price":1.776,"self":true,"updatedAt":"29/06/2026 16:05:41"},{"type":"diesel","price":1.876,"self":true,"updatedAt":"29/06/2026 16:05:41"}]},{"id":"53249","lat":44.35644,"lon":8.31304,"name":"P.V. FERRANIA","brand":"Api-Ip","address":"Via Gramsci - Fraz. Ferrania 24 17014, CAIRO MONTENOTTE, SV","prices":[{"type":"petrol","price":1.797,"self":true,"updatedAt":"26/06/2026 17:26:13"},{"type":"diesel","price":1.897,"self":true,"updatedAt":"26/06/2026 17:26:13"}]},{"id":"49136","lat":44.346224218229224,"lon":8.301441669464106,"name":"CARCARE EST","brand":"Tamoil","address":"A6 TORINO-SAVONA, Km. 107,6, NORD - 17043, CARCARE, SV","prices":[{"type":"petrol","price":1.936,"self":true,"updatedAt":"29/06/2026 16:35:01"},{"type":"diesel","price":2.016,"self":true,"updatedAt":"29/06/2026 16:35:01"}]},{"id":"8142","lat":44.36285698276176,"lon":8.290026783943176,"name":"Eni Bivio","brand":"Agip Eni","address":"Statale 28 del Colle di Nava, Km. 27+35, dir. savona - 17043, CARCARE, SV","prices":[{"type":"petrol","price":1.804,"self":true,"updatedAt":"29/06/2026 00:37:30"},{"type":"diesel","price":1.884,"self":true,"updatedAt":"29/06/2026 17:26:11"}]},{"id":"11177","lat":44.360506748116286,"lon":8.291764855384827,"name":"EniStation Carcare","brand":"Agip Eni","address":"Statale 29 del Colle di Cadibona, Km. 16, dir. SAVONA - 17043, CARCARE, SV","prices":[{"type":"petrol","price":1.804,"self":true,"updatedAt":"29/06/2026 23:39:02"},{"type":"diesel","price":1.884,"self":true,"updatedAt":"29/06/2026 17:32:02"}]},{"id":"53248","lat":44.36531,"lon":8.26766,"name":"P.V. COSSERIA","brand":"Api-Ip","address":"FRAZ. CA' LIDORA SNC 17017, COSSERIA, SV","prices":[{"type":"petrol","price":1.797,"self":true,"updatedAt":"26/06/2026 17:26:07"},{"type":"diesel","price":1.897,"self":true,"updatedAt":"26/06/2026 17:26:07"}]},{"id":"48379","lat":44.44515537310656,"lon":8.30941915512085,"name":"11339","brand":"Agip Eni","address":"Via Savona  3 17058, DEGO, SV","prices":[{"type":"petrol","price":1.844,"self":true,"updatedAt":"29/06/2026 00:37:09"},{"type":"diesel","price":1.919,"self":true,"updatedAt":"29/06/2026 12:20:08"}]},{"id":"50783","lat":44.4908882723125,"lon":8.413764098418701,"name":"Help MIOGLIA","brand":"Pompe Bianche","address":"VIA ACQUI 17 17040, MIOGLIA, SV","prices":[{"type":"petrol","price":1.859,"self":true,"updatedAt":"27/06/2026 09:19:35"},{"type":"diesel","price":1.919,"self":true,"updatedAt":"27/06/2026 09:19:35"}]},{"id":"49737","lat":44.429671089502904,"lon":8.47388818860054,"name":"IP Pontinvrea","brand":"Api-Ip","address":"VIA TAGLIATA DELLA CHIESA 2 17042, PONTINVREA, SV","prices":[{"type":"petrol","price":1.849,"self":true,"updatedAt":"27/06/2026 09:19:28"},{"type":"diesel","price":1.919,"self":true,"updatedAt":"27/06/2026 09:19:28"}]},{"id":"45478","lat":44.279330964076316,"lon":8.432698844418042,"name":"eni dell'apa","brand":"Agip Eni","address":"via diaz 1 17047, QUILIANO, SV","prices":[{"type":"petrol","price":1.804,"self":true,"updatedAt":"29/06/2026 00:36:42"},{"type":"diesel","price":1.884,"self":true,"updatedAt":"29/06/2026 00:36:42"}]},{"id":"3559","lat":44.27463254173117,"lon":8.423718810081482,"name":"VALLEGGIA","brand":"Esso","address":"Autostrada A10 SAVONA-VENTIMIGLIA, Km. 46.722, dir. Ovest - 17047, QUILIANO, SV","prices":[{"type":"petrol","price":1.972,"self":true,"updatedAt":"27/06/2026 15:01:00"},{"type":"diesel","price":2.112,"self":true,"updatedAt":"27/06/2026 15:01:00"},{"type":"lpg","price":0.922,"self":false,"updatedAt":"27/06/2026 15:01:00"}]},{"id":"33154","lat":44.47968376022623,"lon":8.490338176488876,"name":"KEROPETROL SPA SASSELLO","brand":"KEROPETROL","address":"VIA PIAZZA  ROLLA 1 17046, SASSELLO (SV) 1 17046, SASSELLO, SV","prices":[{"type":"petrol","price":1.839,"self":true,"updatedAt":"25/06/2026 16:56:50"},{"type":"diesel","price":1.929,"self":true,"updatedAt":"25/06/2026 16:56:50"}]},{"id":"60417","lat":44.4766693115,"lon":8.4855127335,"name":"TAMOIL","brand":"Tamoil","address":"Via G. Badano 30 17046, SASSELLO, SV","prices":[{"type":"petrol","price":1.839,"self":true,"updatedAt":"29/06/2026 23:43:22"},{"type":"diesel","price":1.909,"self":true,"updatedAt":"29/06/2026 14:06:19"}]},{"id":"36450","lat":44.287221004612114,"lon":8.440479934215546,"name":"AURELIA SUD","brand":"Api-Ip","address":"Autostrada A10 GENOVA-SAVONA, Km. 44+800, dir. est - 17040, SAVONA, SV","prices":[{"type":"petrol","price":1.809,"self":true,"updatedAt":"29/06/2026 09:11:26"},{"type":"diesel","price":1.909,"self":true,"updatedAt":"29/06/2026 09:11:26"}]},{"id":"33623","lat":44.317405326616694,"lon":8.492556706745972,"name":"ENI","brand":"Agip Eni","address":"Statale 1 Via Aurelia, Km. 571, dir. roma ventimiglia - 17100, SAVONA, SV","prices":[{"type":"petrol","price":1.804,"self":true,"updatedAt":"29/06/2026 23:47:36"},{"type":"diesel","price":1.884,"self":true,"updatedAt":"29/06/2026 23:47:36"}]},{"id":"52331","lat":44.30112974361842,"lon":8.457928382489092,"name":"ENI PV 55298","brand":"Agip Eni","address":"V BONINI   1 17100, SAVONA, SV","prices":[{"type":"petrol","price":1.844,"self":true,"updatedAt":"29/06/2026 00:38:45"},{"type":"diesel","price":1.919,"self":true,"updatedAt":"29/06/2026 10:22:08"}]},{"id":"38752","lat":44.29415084326569,"lon":8.452990427613258,"name":"eni pv1351","brand":"Agip Eni","address":"PIAZZALE AMBURGO 90R 17100, SAVONA, SV","prices":[{"type":"petrol","price":1.804,"self":true,"updatedAt":"30/06/2026 00:20:12"},{"type":"diesel","price":1.884,"self":true,"updatedAt":"30/06/2026 00:20:12"}]},{"id":"44759","lat":44.294472403023576,"lon":8.458550312576122,"name":"EUROPAM - SAVONA VIA NIZZA","brand":"Europam","address":"VIA NIZZA 40 17100, SAVONA, SV","prices":[{"type":"petrol","price":1.787,"self":true,"updatedAt":"29/06/2026 10:51:26"},{"type":"diesel","price":1.857,"self":true,"updatedAt":"29/06/2026 10:51:26"}]},{"id":"55693","lat":44.320842,"lon":8.4951678,"name":"EUROPAM - SAVOVA RIO TERMINE","brand":"Europam","address":"SS 1 KM 570 RIO TERMINE  snc 17100, SAVONA, SV","prices":[{"type":"petrol","price":1.777,"self":true,"updatedAt":"29/06/2026 14:57:28"},{"type":"diesel","price":1.847,"self":true,"updatedAt":"29/06/2026 14:57:28"}]},{"id":"45061","lat":44.29743070141277,"lon":8.458800789889374,"name":"EUROPAM - STALINGRADO 30","brand":"Europam","address":"VIA STALINGRADO  30 17100, SAVONA, SV","prices":[{"type":"petrol","price":1.787,"self":true,"updatedAt":"29/06/2026 10:57:24"},{"type":"diesel","price":1.857,"self":true,"updatedAt":"29/06/2026 10:57:24"}]},{"id":"60779","lat":44.3071533,"lon":8.4833005,"name":"EUROPAM - SV VIA GRAMSCI","brand":"Europam","address":"VIA GRAMSCI 9 17100, SAVONA, SV","prices":[{"type":"petrol","price":1.797,"self":true,"updatedAt":"29/06/2026 10:28:24"},{"type":"diesel","price":1.867,"self":true,"updatedAt":"29/06/2026 10:28:24"}]},{"id":"57740","lat":44.296104,"lon":8.456068,"name":"EUROPAM - SV/STALINGRADO 38","brand":"Europam","address":"Via Stalingrado 38r  17019, SAVONA, SV","prices":[{"type":"petrol","price":1.787,"self":true,"updatedAt":"29/06/2026 15:48:29"},{"type":"diesel","price":1.857,"self":true,"updatedAt":"29/06/2026 15:48:28"}]},{"id":"48206","lat":44.297688223747784,"lon":8.464505866235713,"name":"EUROPAM SRL-SV V.VITTORIO VENETO","brand":"Europam","address":"VIA VITTORIO VENETO 292R 23189, SAVONA, SV","prices":[{"type":"petrol","price":1.787,"self":true,"updatedAt":"29/06/2026 10:53:24"},{"type":"diesel","price":1.857,"self":true,"updatedAt":"29/06/2026 10:53:24"}]},{"id":"14714","lat":44.28945734474679,"lon":8.451641276478767,"name":"Ferro e Mazzei snc","brand":"Api-Ip","address":"VIA NIZZA 98 R 17100, SAVONA, SV","prices":[{"type":"petrol","price":1.799,"self":true,"updatedAt":"29/06/2026 19:10:11"},{"type":"diesel","price":1.859,"self":true,"updatedAt":"29/06/2026 19:10:11"}]},{"id":"51666","lat":44.31033324759118,"lon":8.485057701120684,"name":"Ghini Laura","brand":"Esso","address":"PIAZZA LEON PANCALDO 13R 17100, SAVONA, SV","prices":[{"type":"petrol","price":1.799,"self":true,"updatedAt":"27/06/2026 08:11:36"},{"type":"diesel","price":1.879,"self":true,"updatedAt":"27/06/2026 08:11:36"}]},{"id":"53251","lat":44.28972,"lon":8.44908,"name":"P.V. SAVONA C.SO SVIZZERA","brand":"Api-Ip","address":"CORSO SVIZZERA 50 17100, SAVONA, SV","prices":[{"type":"petrol","price":1.799,"self":true,"updatedAt":"26/06/2026 16:38:23"},{"type":"diesel","price":1.859,"self":true,"updatedAt":"26/06/2026 16:38:23"}]},{"id":"53253","lat":44.28895,"lon":8.45143,"name":"P.V. SAVONA VIA NIZZA 99R","brand":"Api-Ip","address":"VIA NIZZA 99R 17100, SAVONA, SV","prices":[{"type":"petrol","price":1.799,"self":true,"updatedAt":"26/06/2026 16:38:38"},{"type":"diesel","price":1.859,"self":true,"updatedAt":"26/06/2026 16:38:38"}]},{"id":"44194","lat":44.31928,"lon":8.47374,"name":"PATRONE FRANCESCO","brand":"Esso","address":"VIA SCHIANTAPETTO  11 17100, SAVONA, SV","prices":[{"type":"lpg","price":0.92,"self":false,"updatedAt":"29/06/2026 09:12:11"}]},{"id":"58482","lat":44.3001,"lon":8.465,"name":"PV 55446","brand":"Agip Eni","address":"Via Stalingrado 11 17100, SAVONA, SV","prices":[{"type":"petrol","price":1.784,"self":true,"updatedAt":"30/06/2026 00:00:01"},{"type":"diesel","price":1.829,"self":true,"updatedAt":"30/06/2026 00:00:01"}]},{"id":"44099","lat":44.30291459771181,"lon":8.470906976686479,"name":"RE PAOLO","brand":"Esso","address":"CORSO TARDY E BENECH 134r 17100, SAVONA, SV","prices":[{"type":"petrol","price":1.799,"self":true,"updatedAt":"30/06/2026 07:25:44"},{"type":"diesel","price":1.879,"self":true,"updatedAt":"30/06/2026 07:25:44"}]},{"id":"44096","lat":44.29420827501251,"lon":8.458011810209996,"name":"Ro.ca. di Leugio Roberto&c. s.a.s.","brand":"Esso","address":"VIA NIZZA 44/R 17100, SAVONA, SV","prices":[{"type":"petrol","price":1.799,"self":true,"updatedAt":"30/06/2026 07:39:13"},{"type":"diesel","price":1.879,"self":true,"updatedAt":"30/06/2026 07:39:13"}]},{"id":"21846","lat":44.30221919565257,"lon":8.465794635581915,"name":"SAVONA - VIA STALINGRADO","brand":"Api-Ip","address":"VIA STALINGRADO 10/R 17100, SAVONA, SV","prices":[{"type":"petrol","price":1.799,"self":true,"updatedAt":"29/06/2026 09:02:17"},{"type":"diesel","price":1.879,"self":true,"updatedAt":"29/06/2026 09:02:17"}]},{"id":"24845","lat":44.31647656105537,"lon":8.47197731586914,"name":"SAVONA VIA TORINO, 181 R","brand":"Q8","address":"VIA TORINO 181 R 17100, SAVONA, SV","prices":[{"type":"petrol","price":1.799,"self":true,"updatedAt":"30/06/2026 01:10:37"},{"type":"diesel","price":1.879,"self":true,"updatedAt":"30/06/2026 01:10:37"}]},{"id":"11842","lat":44.32062302756176,"lon":8.466198658895564,"name":"SAVONA-VIA NAZIONALE PIEMONTE 7 R","brand":"Q8","address":"VIA NAZIONALE PIEMONTE 7 R 17100, SAVONA, SV","prices":[{"type":"petrol","price":1.804,"self":true,"updatedAt":"30/06/2026 07:42:42"},{"type":"diesel","price":1.894,"self":true,"updatedAt":"30/06/2026 07:42:42"}]},{"id":"11844","lat":44.284881258995014,"lon":8.446667406082156,"name":"SAVONA-VIA NIZZA 115R","brand":"Q8","address":"VIA NIZZA 115R 17100, SAVONA, SV","prices":[{"type":"petrol","price":1.799,"self":true,"updatedAt":"30/06/2026 01:10:36"},{"type":"diesel","price":1.859,"self":true,"updatedAt":"30/06/2026 01:10:36"}]},{"id":"4035","lat":44.32099274288549,"lon":8.464992642402649,"name":"STAZIONE DI SERVIZIO ENI","brand":"Agip Eni","address":"Via NAZIONALE PIEMONTE 68/R 17100, SAVONA (SV) 68R 17100, SAVONA, SV","prices":[{"type":"petrol","price":1.804,"self":true,"updatedAt":"29/06/2026 00:36:13"},{"type":"diesel","price":1.884,"self":true,"updatedAt":"29/06/2026 15:04:10"}]},{"id":"61352","lat":44.39187877500058,"lon":8.496964042827813,"name":"Distributore carburanti di Stella","brand":"Api-Ip","address":"RICCARDO POGGI 1 17044, STELLA, SV","prices":[{"type":"petrol","price":1.839,"self":true,"updatedAt":"25/06/2026 21:27:06"},{"type":"diesel","price":1.939,"self":true,"updatedAt":"25/06/2026 21:27:06"}]},{"id":"59086","lat":44.266808,"lon":8.440493,"name":"11348 Vado Ligure","brand":"Agip Eni","address":"Via Aurelia 256  17047, VADO LIGURE, SV","prices":[{"type":"petrol","price":1.809,"self":true,"updatedAt":"30/06/2026 00:05:43"},{"type":"diesel","price":1.889,"self":true,"updatedAt":"30/06/2026 00:05:43"}]},{"id":"52161","lat":44.26877805254986,"lon":8.426290055637793,"name":"BIFUEL","brand":"Pompe Bianche","address":"Strada Scorrimento Veloce 2a 17047, VADO LIGURE, SV","prices":[{"type":"petrol","price":1.799,"self":true,"updatedAt":"30/06/2026 00:11:48"},{"type":"diesel","price":1.849,"self":true,"updatedAt":"30/06/2026 00:11:48"},{"type":"methane","price":1.409,"self":false,"updatedAt":"30/06/2026 00:11:48"},{"type":"lpg","price":0.829,"self":false,"updatedAt":"30/06/2026 00:11:48"}]},{"id":"62007","lat":44.263818551122775,"lon":8.44310313463211,"name":"P.V. VADO LIGURE","brand":"Api-Ip","address":"Via Aurelia  298 17047, VADO LIGURE, SV","prices":[{"type":"petrol","price":1.769,"self":true,"updatedAt":"26/06/2026 12:23:33"},{"type":"diesel","price":1.829,"self":true,"updatedAt":"26/06/2026 12:23:33"}]},{"id":"57534","lat":44.26827252,"lon":8.43441256,"name":"Pv 1398 Vado Ligure","brand":"Agip Eni","address":"PIAVE SNC 17047, VADO LIGURE, SV","prices":[{"type":"petrol","price":1.789,"self":true,"updatedAt":"29/06/2026 00:36:57"},{"type":"diesel","price":1.834,"self":true,"updatedAt":"29/06/2026 00:36:57"}]},{"id":"24258","lat":44.27866159331191,"lon":8.442367813491842,"name":"VADO LIGURE - AURELIA 17","brand":"Api-Ip","address":"VIA AURELIA 17 17047, VADO LIGURE, SV","prices":[{"type":"petrol","price":1.799,"self":true,"updatedAt":"29/06/2026 09:02:19"},{"type":"diesel","price":1.879,"self":true,"updatedAt":"29/06/2026 09:02:19"}]}]