[{"id":"43299","lat":44.375949254376316,"lon":7.6775872711639295,"name":"P.V. BEINETTE","brand":"SACED","address":"VIA VIA MONDOVI' 88 12081, BEINETTE (CN) 88 12081, BEINETTE, CN","prices":[{"type":"petrol","price":1.788,"self":true,"updatedAt":"20/06/2026 09:04:01"},{"type":"diesel","price":1.898,"self":true,"updatedAt":"20/06/2026 09:04:01"},{"type":"lpg","price":0.718,"self":false,"updatedAt":"20/06/2026 09:04:01"}]},{"id":"48695","lat":44.369173154803626,"lon":7.632966041564942,"name":"S.A.L.C.A. BEINETTE","brand":"Api-Ip","address":"VIA MARTIRI 98 12081, BEINETTE, CN","prices":[{"type":"petrol","price":1.839,"self":true,"updatedAt":"19/06/2026 14:49:08"},{"type":"diesel","price":1.949,"self":true,"updatedAt":"19/06/2026 14:49:08"}]},{"id":"11549","lat":44.351106400846156,"lon":7.508047521114349,"name":"BORGO SAN DALMAZZO-SS.20 KM. 81+258","brand":"Q8","address":"SS.20 KM. 81+258 S/N 12011, BORGO SAN DALMAZZO, CN","prices":[{"type":"petrol","price":1.788,"self":true,"updatedAt":"20/06/2026 01:38:41"},{"type":"diesel","price":1.878,"self":true,"updatedAt":"20/06/2026 01:38:41"}]},{"id":"60136","lat":44.34793246511676,"lon":7.505641579627991,"name":"CONAD","brand":"CONAD","address":"Via Cuneo 84/86 12011, BORGO SAN DALMAZZO, CN","prices":[{"type":"petrol","price":1.769,"self":true,"updatedAt":"20/06/2026 11:23:01"},{"type":"diesel","price":1.859,"self":true,"updatedAt":"20/06/2026 11:23:01"},{"type":"lpg","price":0.719,"self":false,"updatedAt":"20/06/2026 11:23:01"}]},{"id":"40159","lat":44.34710160910958,"lon":7.54624543484033,"name":"IP","brand":"Api-Ip","address":"Via Professor Mario Martini 12 12012, BOVES, CN","prices":[{"type":"petrol","price":1.839,"self":true,"updatedAt":"20/06/2026 07:35:57"},{"type":"diesel","price":1.949,"self":true,"updatedAt":"20/06/2026 07:35:57"},{"type":"lpg","price":0.759,"self":false,"updatedAt":"20/06/2026 07:35:58"}]},{"id":"13316","lat":44.33607337534874,"lon":7.533851712942123,"name":"p.v. BOVES","brand":"SACED","address":"VIA VIA SANTUARIO 18/C 12012, BOVES (CN) 18C 12012, BOVES, CN","prices":[{"type":"petrol","price":1.788,"self":true,"updatedAt":"19/06/2026 10:36:41"},{"type":"diesel","price":1.898,"self":true,"updatedAt":"19/06/2026 10:36:41"}]},{"id":"48102","lat":44.33007008146895,"lon":7.5516983411168015,"name":"S.A.L.C.A. BOVES C. TRIESTE","brand":"Api-Ip","address":"CORSO TRIESTE . 12012, BOVES, CN","prices":[{"type":"petrol","price":1.849,"self":true,"updatedAt":"17/06/2026 11:02:45"},{"type":"diesel","price":1.969,"self":true,"updatedAt":"17/06/2026 11:02:45"}]},{"id":"61776","lat":44.464,"lon":7.63173,"name":"Iperstaroil Centallo","brand":"Pompe Bianche","address":"LOCALITA' PEDAGGIO SOTTANO S.S. 231 KM 74 + 559   12044, CENTALLO, CN","prices":[{"type":"petrol","price":1.799,"self":true,"updatedAt":"20/06/2026 20:17:44"},{"type":"diesel","price":1.899,"self":true,"updatedAt":"20/06/2026 20:17:44"},{"type":"lpg","price":0.719,"self":false,"updatedAt":"20/06/2026 20:17:44"}]},{"id":"61483","lat":44.49026971380268,"lon":7.5777351957114965,"name":"Ivano Ribero","brand":"Api-Ip","address":"SAN QUIRICO 615/BIS 12044, CENTALLO, CN","prices":[{"type":"petrol","price":1.839,"self":true,"updatedAt":"19/06/2026 10:53:33"},{"type":"diesel","price":1.949,"self":true,"updatedAt":"19/06/2026 10:53:33"}]},{"id":"46096","lat":44.32852008973817,"lon":7.669884574224284,"name":"EUROPAM - CHIUSA PESIO","brand":"Europam","address":"Via Provinciale Beinette 17 12013, CHIUSA DI PESIO, CN","prices":[{"type":"petrol","price":1.817,"self":true,"updatedAt":"19/06/2026 11:06:48"},{"type":"diesel","price":1.917,"self":true,"updatedAt":"19/06/2026 11:06:48"}]},{"id":"59137","lat":44.41241,"lon":7.552894,"name":"00209 CUNEO","brand":"Agip Eni","address":"FRAZ. MADONNA DELL'OLMO VIA TORINO  135 00, CUNEO, CN","prices":[{"type":"petrol","price":1.809,"self":true,"updatedAt":"21/06/2026 00:48:47"},{"type":"diesel","price":1.919,"self":true,"updatedAt":"21/06/2026 00:48:47"},{"type":"methane","price":1.546,"self":false,"updatedAt":"20/06/2026 23:48:47"},{"type":"lpg","price":0.767,"self":false,"updatedAt":"20/06/2026 23:48:47"}]},{"id":"62470","lat":44.409309343090676,"lon":7.552303304419867,"name":"106493 CUNEO","brand":"Esso","address":"TORINO 94 12100, CUNEO, CN","prices":[{"type":"petrol","price":1.799,"self":true,"updatedAt":"21/06/2026 00:16:17"},{"type":"diesel","price":1.889,"self":true,"updatedAt":"21/06/2026 00:16:17"}]},{"id":"48449","lat":44.35627118996407,"lon":7.513515231213392,"name":"236","brand":"Agip Eni","address":"CORSO FRANCIA 236 12100, CUNEO, CN","prices":[{"type":"petrol","price":1.789,"self":true,"updatedAt":"20/06/2026 23:39:01"},{"type":"diesel","price":1.864,"self":true,"updatedAt":"20/06/2026 23:39:01"}]},{"id":"60444","lat":44.389244,"lon":7.5788417,"name":"259  CUNEO","brand":"Agip Eni","address":"LOC. TETTO GARETTO, VIA SAVONA  82, CUNEO, CN","prices":[{"type":"petrol","price":1.809,"self":true,"updatedAt":"21/06/2026 01:00:01"},{"type":"diesel","price":1.919,"self":true,"updatedAt":"21/06/2026 01:00:01"}]},{"id":"58902","lat":44.37229534292166,"lon":7.521890998474112,"name":"AUTOLAVAGGIO VADO DA BENI CUNEO DE GASPERI","brand":"Api-Ip","address":"Corso A. de Gasperi 72 12100, CUNEO, CN","prices":[{"type":"petrol","price":1.819,"self":true,"updatedAt":"19/06/2026 19:43:02"},{"type":"diesel","price":1.899,"self":true,"updatedAt":"19/06/2026 19:43:02"},{"type":"lpg","price":0.719,"self":true,"updatedAt":"19/06/2026 19:43:02"}]},{"id":"36162","lat":44.39145225864856,"lon":7.542913556098938,"name":"BONELLI DANILO","brand":"Agip Eni","address":"VIADOTTO SOLERI 1 12100, CUNEO, CN","prices":[{"type":"petrol","price":1.824,"self":true,"updatedAt":"20/06/2026 22:04:03"},{"type":"diesel","price":1.914,"self":true,"updatedAt":"20/06/2026 22:04:03"}]},{"id":"10531","lat":44.42627078494638,"lon":7.563630938529968,"name":"CENTRO CALOR CUNEO EST","brand":"Centro Calor","address":"VIA F.LLI CEIRANO 100 12100, CUNEO, CN","prices":[{"type":"petrol","price":1.819,"self":true,"updatedAt":"19/06/2026 14:25:52"},{"type":"diesel","price":1.909,"self":true,"updatedAt":"19/06/2026 14:25:52"}]},{"id":"60276","lat":44.3891191,"lon":7.5394957,"name":"CUNEO","brand":"Pompe Bianche","address":"Corso IV Novembre 20  12100, CUNEO, CN","prices":[{"type":"petrol","price":1.635,"self":true,"updatedAt":"21/06/2026 00:00:03"},{"type":"diesel","price":1.624,"self":true,"updatedAt":"21/06/2026 00:00:03"}]},{"id":"50287","lat":44.3936188247127,"lon":7.585062914707486,"name":"Cuneo","brand":"Auchan","address":"VIA MARGARITA 8 12100, CUNEO, CN","prices":[{"type":"petrol","price":1.834,"self":true,"updatedAt":"20/06/2026 20:15:47"},{"type":"diesel","price":1.929,"self":true,"updatedAt":"20/06/2026 20:15:47"}]},{"id":"32372","lat":44.382434504935645,"lon":7.531951720237771,"name":"CUNEO - MONVISO","brand":"Api-Ip","address":"C.SO MONVISO 31 12100, CUNEO, CN","prices":[{"type":"petrol","price":1.819,"self":true,"updatedAt":"20/06/2026 09:03:56"},{"type":"diesel","price":1.889,"self":true,"updatedAt":"20/06/2026 09:03:56"}]},{"id":"7291","lat":44.423482127152454,"lon":7.554105073213577,"name":"CUNEO - VIA DELL AUTOMOBILE CLUB.","brand":"Q8","address":"VIA DELL'AUTOMOBILE CLUB C/O C.C. GRAND'A SN 12100, CUNEO, CN","prices":[{"type":"petrol","price":1.799,"self":true,"updatedAt":"18/06/2026 01:08:41"},{"type":"diesel","price":1.908,"self":true,"updatedAt":"18/06/2026 01:08:41"},{"type":"lpg","price":0.769,"self":false,"updatedAt":"18/06/2026 01:08:41"}]},{"id":"11546","lat":44.37921693990181,"lon":7.537520699405604,"name":"CUNEO-CORSO NIZZA","brand":"Q8","address":"CORSO NIZZA S/N 12100, CUNEO, CN","prices":[{"type":"petrol","price":1.819,"self":true,"updatedAt":"20/06/2026 08:11:33"},{"type":"diesel","price":1.889,"self":true,"updatedAt":"20/06/2026 08:11:33"}]},{"id":"52822","lat":44.38678228565071,"lon":7.569515939855944,"name":"DISCAR CUNEO BOVESANA","brand":"DIS-CAR","address":"TORRE ACCEGLIO SN 12100, CUNEO, CN","prices":[{"type":"petrol","price":1.799,"self":true,"updatedAt":"20/06/2026 00:16:16"},{"type":"diesel","price":1.899,"self":true,"updatedAt":"20/06/2026 00:16:16"}]},{"id":"52790","lat":44.39585187075976,"lon":7.554946180487048,"name":"DISCAR CUNEO PIAZZA TORINO","brand":"DIS-CAR","address":"TORINO 1 12100, CUNEO, CN","prices":[{"type":"petrol","price":1.829,"self":true,"updatedAt":"20/06/2026 23:18:09"},{"type":"diesel","price":1.949,"self":true,"updatedAt":"20/06/2026 23:18:09"}]},{"id":"37489","lat":44.378166101041806,"lon":7.523350864648819,"name":"Enercoop Cuneo","brand":"Enercoop","address":"VIA CASCINA COLOMBARO 26/A 12100, CUNEO, CN","prices":[{"type":"petrol","price":1.769,"self":true,"updatedAt":"21/06/2026 01:14:14"},{"type":"diesel","price":1.859,"self":true,"updatedAt":"21/06/2026 01:14:12"},{"type":"lpg","price":0.719,"self":false,"updatedAt":"21/06/2026 01:13:39"}]},{"id":"50556","lat":44.39554428079672,"lon":7.554247248971144,"name":"eni","brand":"Agip Eni","address":"PIAZZA TORINO 1 12100, CUNEO, CN","prices":[{"type":"petrol","price":1.844,"self":true,"updatedAt":"20/06/2026 12:20:10"},{"type":"diesel","price":1.944,"self":true,"updatedAt":"20/06/2026 12:20:10"}]},{"id":"53966","lat":44.42595740763378,"lon":7.556512355804443,"name":"EREDI SORLINO MARIO SNC","brand":"Api-Ip","address":"TORINO 238A/B/C 12100, CUNEO, CN","prices":[{"type":"petrol","price":1.819,"self":true,"updatedAt":"19/06/2026 10:38:58"},{"type":"diesel","price":1.919,"self":true,"updatedAt":"19/06/2026 10:38:58"},{"type":"lpg","price":0.779,"self":true,"updatedAt":"19/06/2026 10:38:58"}]},{"id":"63111","lat":44.40920070700169,"lon":7.552448581974332,"name":"ESSO - CUNEO MADONNA DELL'OLMO","brand":"Esso","address":"Via Torino  12100, CUNEO, CN","prices":[{"type":"petrol","price":1.799,"self":true,"updatedAt":"18/06/2026 22:01:29"},{"type":"diesel","price":1.889,"self":true,"updatedAt":"20/06/2026 13:50:45"}]},{"id":"59511","lat":44.3850912,"lon":7.5348169,"name":"EUROPAM - CUNEO C.SO MONVISO","brand":"Europam","address":"Corso Monviso 4  12100, CUNEO, CN","prices":[{"type":"petrol","price":1.817,"self":true,"updatedAt":"19/06/2026 11:18:49"},{"type":"diesel","price":1.927,"self":true,"updatedAt":"19/06/2026 11:18:49"}]},{"id":"43501","lat":44.40443339527487,"lon":7.545756329447727,"name":"EUROPAM - MADONNA DELL'OLMO","brand":"Europam","address":"VIA TORINO, 61  12100, CUNEO, CN","prices":[{"type":"petrol","price":1.797,"self":true,"updatedAt":"19/06/2026 11:29:49"},{"type":"diesel","price":1.907,"self":true,"updatedAt":"19/06/2026 11:29:49"}]},{"id":"56337","lat":44.39479,"lon":7.52907,"name":"IP - BONICCO MARINO","brand":"Api-Ip","address":"VIA VALLE MAIRA 72 12100, CUNEO, CN","prices":[{"type":"petrol","price":1.836,"self":true,"updatedAt":"19/06/2026 14:12:08"},{"type":"diesel","price":1.906,"self":true,"updatedAt":"19/06/2026 14:12:08"}]},{"id":"53997","lat":44.3947849,"lon":7.56493392,"name":"NI012148","brand":"Api-Ip","address":"VIA S.P.N.3 AL KM.0,359 PER CASTELLETTO STURA SN 12100, CUNEO (CN) 44  12100, CUNEO, CN","prices":[{"type":"petrol","price":1.799,"self":true,"updatedAt":"21/06/2026 00:17:07"},{"type":"diesel","price":1.919,"self":true,"updatedAt":"21/06/2026 00:17:07"}]},{"id":"37781","lat":44.42972682740882,"lon":7.567491307854652,"name":"p.v. area miac","brand":"SACED","address":"VIA FRAZ. RONCHI - AREA MIAC  - VIA BRA 77 12100, CUNEO (CN) 77 12100, CUNEO, CN","prices":[{"type":"petrol","price":1.788,"self":true,"updatedAt":"19/06/2026 15:24:12"},{"type":"diesel","price":1.898,"self":true,"updatedAt":"19/06/2026 15:24:12"}]},{"id":"37990","lat":44.391067586722095,"lon":7.5703535824959545,"name":"Q8","brand":"Q8","address":"VIA SAVONA 50 12100, CUNEO, CN","prices":[{"type":"petrol","price":1.819,"self":true,"updatedAt":"18/06/2026 11:04:10"},{"type":"diesel","price":1.959,"self":true,"updatedAt":"18/06/2026 11:04:10"}]},{"id":"23863","lat":44.43178812930369,"lon":7.506279176914404,"name":"RED POWER","brand":"Pompe Bianche","address":"VIA DEL PASSATORE 222 12100, CUNEO, CN","prices":[{"type":"petrol","price":1.819,"self":true,"updatedAt":"20/06/2026 15:22:25"},{"type":"diesel","price":1.889,"self":true,"updatedAt":"20/06/2026 15:22:25"}]},{"id":"52669","lat":44.37464836499394,"lon":7.532462512489331,"name":"Reineri Valerio","brand":"Agip Eni","address":"FRANCIA 20 12100, CUNEO, CN","prices":[{"type":"petrol","price":1.844,"self":true,"updatedAt":"21/06/2026 00:42:07"},{"type":"diesel","price":1.944,"self":true,"updatedAt":"21/06/2026 00:42:07"}]},{"id":"48104","lat":44.387051000123,"lon":7.559351000123,"name":"S.A.L.C.A. CUNEO BSG","brand":"Api-Ip","address":"VIA BISALTA 34 12100, CUNEO, CN","prices":[{"type":"petrol","price":1.839,"self":true,"updatedAt":"19/06/2026 14:48:48"},{"type":"diesel","price":1.949,"self":true,"updatedAt":"19/06/2026 14:48:48"}]},{"id":"62354","lat":44.4149816,"lon":7.5499968,"name":"S.A.L.C.A. SRL MADONNA DELL'OLMO","brand":"Api-Ip","address":"Via Valle Po 42  12100, CUNEO, CN","prices":[{"type":"petrol","price":1.799,"self":true,"updatedAt":"19/06/2026 08:03:59"},{"type":"diesel","price":1.909,"self":true,"updatedAt":"19/06/2026 08:03:59"}]},{"id":"62059","lat":44.3689636,"lon":7.5355662,"name":"SAR SERVIZI SAS DI YMERLLARI RAMIZ","brand":"Esso","address":"Corso Francia 48/B 12100, CUNEO, CN","prices":[{"type":"petrol","price":1.799,"self":true,"updatedAt":"20/06/2026 06:22:31"},{"type":"diesel","price":1.889,"self":true,"updatedAt":"20/06/2026 06:22:31"}]},{"id":"55774","lat":44.4002302,"lon":7.54090055,"name":"SOCOGAS RETE  CUNEO OLMO PV 210310","brand":"Q8","address":"VIA S.S.20 AL KM.74+463 VIA TORINO  19 12100, CUNEO, CN","prices":[{"type":"petrol","price":1.799,"self":true,"updatedAt":"21/06/2026 00:14:43"},{"type":"diesel","price":1.899,"self":true,"updatedAt":"21/06/2026 00:14:43"},{"type":"lpg","price":0.759,"self":false,"updatedAt":"21/06/2026 00:14:43"}]},{"id":"61242","lat":44.3944411,"lon":7.54815478,"name":"SOCOGAS RETE CUNEO BELLAVISTA PV 210088","brand":"Socogas","address":"Discesa Bellavista  12100, CUNEO, CN","prices":[{"type":"petrol","price":1.839,"self":true,"updatedAt":"20/06/2026 23:22:07"},{"type":"diesel","price":1.939,"self":true,"updatedAt":"20/06/2026 23:22:07"},{"type":"lpg","price":0.769,"self":false,"updatedAt":"20/06/2026 23:22:07"}]},{"id":"51415","lat":44.398596,"lon":7.5370154,"name":"SOCOGAS RETE CUNEO RONCATA PV 210069","brand":"Socogas","address":"Via Roncata 108  12100, CUNEO, CN","prices":[{"type":"petrol","price":1.849,"self":true,"updatedAt":"21/06/2026 00:03:29"},{"type":"diesel","price":1.949,"self":true,"updatedAt":"21/06/2026 00:03:29"},{"type":"lpg","price":0.779,"self":false,"updatedAt":"21/06/2026 00:03:29"}]},{"id":"43871","lat":44.38068816889851,"lon":7.558678075432113,"name":"STAZIONE ESSO","brand":"Esso","address":"SP21 CUNEO BOVES 1+260 12100, CUNEO, CN","prices":[{"type":"petrol","price":1.906,"self":true,"updatedAt":"20/06/2026 11:33:56"},{"type":"diesel","price":2.016,"self":true,"updatedAt":"20/06/2026 11:33:56"}]},{"id":"37287","lat":44.45633646796895,"lon":7.663991153240204,"name":"faccia da bar","brand":"Api-Ip","address":"via circonvallazione 5 12040, MONTANERA, CN","prices":[{"type":"petrol","price":1.839,"self":true,"updatedAt":"19/06/2026 09:59:13"},{"type":"diesel","price":1.949,"self":true,"updatedAt":"19/06/2026 09:59:13"},{"type":"lpg","price":0.759,"self":false,"updatedAt":"19/06/2026 09:59:13"}]},{"id":"61046","lat":44.424556,"lon":7.722248,"name":"COSTANTIN MOROZZO","brand":"Costantin","address":"via mondovì 52 12040, MOROZZO, CN","prices":[{"type":"petrol","price":1.929,"self":true,"updatedAt":"19/06/2026 21:30:57"},{"type":"diesel","price":1.969,"self":true,"updatedAt":"19/06/2026 21:30:57"}]},{"id":"43177","lat":44.329751535415596,"lon":7.624272305782711,"name":"IP di Isoardi Roberto","brand":"Api-Ip","address":"VIA LORENZO AMBROSINO 13 12016, PEVERAGNO, CN","prices":[{"type":"petrol","price":1.859,"self":true,"updatedAt":"18/06/2026 19:43:34"},{"type":"diesel","price":1.979,"self":true,"updatedAt":"18/06/2026 19:43:34"}]},{"id":"63074","lat":44.330762160773986,"lon":7.611309759009601,"name":"Iperstaroil Peveragno","brand":"Pompe Bianche","address":"via San Giovanni  5 12016, PEVERAGNO, CN","prices":[{"type":"petrol","price":1.889,"self":true,"updatedAt":"20/06/2026 20:18:20"},{"type":"diesel","price":1.979,"self":true,"updatedAt":"20/06/2026 20:18:20"}]},{"id":"59695","lat":44.375908,"lon":7.700555,"name":"Pianfei","brand":"Interpetrol","address":"via Cuneo 75 12080, PIANFEI, CN","prices":[{"type":"petrol","price":1.779,"self":true,"updatedAt":"20/06/2026 20:17:14"},{"type":"diesel","price":1.889,"self":true,"updatedAt":"20/06/2026 20:17:14"}]},{"id":"21823","lat":44.29692892630826,"lon":7.509041606151641,"name":"Europam","brand":"Europam","address":"UMBERTO I 51 12017, ROBILANTE, CN","prices":[{"type":"petrol","price":1.867,"self":true,"updatedAt":"20/06/2026 12:15:29"},{"type":"diesel","price":1.977,"self":true,"updatedAt":"20/06/2026 12:15:29"}]},{"id":"48096","lat":44.32254913900652,"lon":7.745873236770649,"name":"S.A.L.C.A. ROCCAFORTE MONDOVI'","brand":"Api-Ip","address":"VIA DIVISIONE CUNEENSE 17 12088, ROCCAFORTE MONDOVÌ, CN","prices":[{"type":"petrol","price":1.839,"self":true,"updatedAt":"19/06/2026 14:47:01"},{"type":"diesel","price":1.949,"self":true,"updatedAt":"19/06/2026 14:47:01"}]},{"id":"36842","lat":44.4892593957523,"lon":7.542379796504974,"name":"Stazione di Servizio Esso","brand":"Esso","address":"Via Circonvallazione 44 12020, TARANTASCA, CN","prices":[{"type":"petrol","price":1.819,"self":true,"updatedAt":"20/06/2026 08:40:38"},{"type":"diesel","price":1.919,"self":true,"updatedAt":"20/06/2026 08:40:38"},{"type":"lpg","price":0.769,"self":false,"updatedAt":"20/06/2026 08:40:38"}]}]