[{"id":"57689","lat":44.7446178023325,"lon":8.145816379925952,"name":"Tamoil","brand":"Tamoil","address":"F.LLI VICARI 197 14054, CASTAGNOLE DELLE LANZE, AT","prices":[{"type":"petrol","price":1.789,"self":true,"updatedAt":"22/06/2026 23:24:16"},{"type":"diesel","price":1.889,"self":true,"updatedAt":"22/06/2026 14:08:28"}]},{"id":"14776","lat":44.64459988809262,"lon":8.245810099988603,"name":"STAZIONE SERVIZIO KEROPETROL","brand":"KEROPETROL","address":"LOCALITA' CASE NUOVE  14050, CESSOLE, AT","prices":[{"type":"petrol","price":1.909,"self":true,"updatedAt":"20/06/2026 07:45:59"},{"type":"diesel","price":2.029,"self":true,"updatedAt":"20/06/2026 07:45:59"}]},{"id":"61271","lat":44.700165,"lon":8.040336,"name":"10241 ALBA","brand":"Agip Eni","address":"Corso M. Coppino 54  12051, ALBA, CN","prices":[{"type":"petrol","price":1.829,"self":true,"updatedAt":"23/06/2026 00:21:49"},{"type":"diesel","price":1.919,"self":true,"updatedAt":"23/06/2026 00:21:49"}]},{"id":"24806","lat":44.693686652957126,"lon":8.023799999999937,"name":"ALBA - EUROPA","brand":"Api-Ip","address":"CORSO EUROPA Angolo VIA PIO V  12051, ALBA, CN","prices":[{"type":"petrol","price":1.829,"self":true,"updatedAt":"22/06/2026 17:01:58"},{"type":"diesel","price":1.919,"self":true,"updatedAt":"22/06/2026 17:01:58"}]},{"id":"30621","lat":44.71632477768202,"lon":8.04368658895487,"name":"ALBA - VACCHERIA","brand":"Api-Ip","address":"SS 231 KM. 28,120  12051, ALBA, CN","prices":[{"type":"petrol","price":1.779,"self":true,"updatedAt":"22/06/2026 09:02:34"},{"type":"diesel","price":1.899,"self":true,"updatedAt":"22/06/2026 09:02:34"}]},{"id":"61823","lat":44.69479594087929,"lon":8.031726793439447,"name":"Alba Piazza Re - Economy srl","brand":"Api-Ip","address":"Piazza Cristo Re 15 12051, ALBA, CN","prices":[{"type":"petrol","price":1.819,"self":true,"updatedAt":"19/06/2026 13:12:02"},{"type":"diesel","price":1.929,"self":true,"updatedAt":"19/06/2026 13:12:02"}]},{"id":"50816","lat":44.721849492698475,"lon":8.037247516532883,"name":"CONAD SELF 24h","brand":"CONAD","address":"CORSO ASTI SNC 12051, ALBA (CN) 13/1 12051, ALBA, CN","prices":[{"type":"petrol","price":1.758,"self":true,"updatedAt":"22/06/2026 12:46:45"},{"type":"diesel","price":1.878,"self":true,"updatedAt":"22/06/2026 12:46:45"},{"type":"lpg","price":0.718,"self":false,"updatedAt":"22/06/2026 12:46:45"}]},{"id":"50307","lat":44.714999314709914,"lon":8.041754949954763,"name":"Economy - Alba","brand":"Api-Ip","address":"231 di Santa Vittoria, Km. 28,230, cuneo - 12051, ALBA, CN","prices":[{"type":"petrol","price":1.799,"self":true,"updatedAt":"22/06/2026 09:26:25"},{"type":"diesel","price":1.919,"self":true,"updatedAt":"22/06/2026 09:26:25"}]},{"id":"59885","lat":44.68729521549808,"lon":8.01036234462738,"name":"Erretre Alba","brand":"Pompe Bianche","address":"Corso Europa 87  12051, ALBA, CN","prices":[{"type":"petrol","price":1.799,"self":true,"updatedAt":"22/06/2026 10:14:27"},{"type":"diesel","price":1.919,"self":true,"updatedAt":"22/06/2026 07:55:24"},{"type":"methane","price":1.699,"self":false,"updatedAt":"22/06/2026 07:55:24"},{"type":"lpg","price":0.765,"self":false,"updatedAt":"22/06/2026 07:55:24"}]},{"id":"61339","lat":44.70192,"lon":8.02905,"name":"IMPIANTO 53507","brand":"Agip Eni","address":"PIERA CILLARIO 1 12051, ALBA, CN","prices":[{"type":"petrol","price":1.829,"self":true,"updatedAt":"23/06/2026 00:22:32"},{"type":"diesel","price":1.919,"self":true,"updatedAt":"23/06/2026 00:22:32"}]},{"id":"62949","lat":44.695060086649306,"lon":8.014591477298163,"name":"IMPIANTO Q8  3D ENERGY SRL","brand":"Q8","address":"Via Ognissanti 52  12051, ALBA, CN","prices":[{"type":"petrol","price":1.809,"self":true,"updatedAt":"22/06/2026 23:41:19"},{"type":"diesel","price":1.939,"self":true,"updatedAt":"22/06/2026 23:41:19"}]},{"id":"57586","lat":44.7130676,"lon":8.0219525,"name":"LORA CARBURANTI SNC","brand":"Q8","address":"Corso Canale 26/B  12051, ALBA, CN","prices":[{"type":"petrol","price":1.789,"self":true,"updatedAt":"20/06/2026 08:58:19"},{"type":"diesel","price":1.929,"self":true,"updatedAt":"20/06/2026 08:58:19"}]},{"id":"4759","lat":44.6957015,"lon":8.021420299999999,"name":"Staz. di servizio IP - Gierre snc","brand":"Api-Ip","address":"Via Ognissanti 13 12051, ALBA, CN","prices":[{"type":"petrol","price":1.844,"self":true,"updatedAt":"22/06/2026 14:55:35"},{"type":"diesel","price":1.934,"self":true,"updatedAt":"22/06/2026 14:55:35"},{"type":"lpg","price":0.775,"self":false,"updatedAt":"22/06/2026 14:55:35"}]},{"id":"39471","lat":44.70264654006256,"lon":8.032732017730268,"name":"STAZIONE DI SERVIZIO ESSO","brand":"Esso","address":"PIAZZA GARIBALDI 5 12051, ALBA, CN","prices":[{"type":"petrol","price":1.829,"self":true,"updatedAt":"23/06/2026 07:43:03"},{"type":"diesel","price":1.929,"self":true,"updatedAt":"23/06/2026 07:43:03"}]},{"id":"62684","lat":44.69189429314715,"lon":8.023399915899638,"name":"TAMOIL ORGIANA","brand":"Tamoil","address":"Corso Piave 70  12051, ALBA, CN","prices":[{"type":"petrol","price":1.819,"self":true,"updatedAt":"22/06/2026 14:02:08"},{"type":"diesel","price":1.899,"self":true,"updatedAt":"22/06/2026 14:02:08"}]},{"id":"39366","lat":44.70979620650219,"lon":8.026525229215622,"name":"TOTALERG DI FRAU MARIO","brand":"Api-Ip","address":"CORSO ASTI  1 12051, ALBA, CN","prices":[{"type":"petrol","price":1.769,"self":true,"updatedAt":"22/06/2026 19:43:05"},{"type":"diesel","price":1.889,"self":true,"updatedAt":"22/06/2026 19:43:05"}]},{"id":"19710","lat":44.70251145626948,"lon":8.064023840208506,"name":"Kerotris - Barbaresco","brand":"Kerotris","address":"STRADA PERTINACE 27 12050, BARBARESCO, CN","prices":[{"type":"petrol","price":1.858,"self":true,"updatedAt":"20/06/2026 10:33:21"},{"type":"diesel","price":1.958,"self":true,"updatedAt":"20/06/2026 10:33:21"}]},{"id":"15510","lat":44.634497383563485,"lon":8.111162334680557,"name":"IP","brand":"Api-Ip","address":"S.P.429 SAVONA-ALBA KM 72+725, LOCALITA' MANERA 2/A 12050, BENEVELLO, CN","prices":[{"type":"petrol","price":1.839,"self":true,"updatedAt":"19/06/2026 08:33:45"},{"type":"diesel","price":1.939,"self":true,"updatedAt":"19/06/2026 08:33:45"}]},{"id":"26393","lat":44.61177539346822,"lon":8.147213100614408,"name":"distributore","brand":"Pompe Bianche","address":"loc. campetto- str. provinciale 1 12050, BOSIA, CN","prices":[{"type":"petrol","price":1.859,"self":true,"updatedAt":"23/06/2026 07:15:07"},{"type":"diesel","price":1.979,"self":true,"updatedAt":"23/06/2026 07:15:07"}]},{"id":"38756","lat":44.528794268773474,"lon":8.050009980797768,"name":"8956","brand":"Tamoil","address":"CIRCONVALLAZIONE PROVINCIALE S/N 12060, BOSSOLASCO, CN","prices":[{"type":"petrol","price":1.859,"self":true,"updatedAt":"22/06/2026 12:26:21"},{"type":"diesel","price":1.959,"self":true,"updatedAt":"22/06/2026 23:46:01"}]},{"id":"47451","lat":44.743862693420226,"lon":8.058531788566054,"name":"A&B CARBURANTI S.N.C.","brand":"Api-Ip","address":"231 di Santa Vittoria, Km. km.23+200, Santa Vittoria - 12050, CASTAGNITO, CN","prices":[{"type":"petrol","price":1.809,"self":true,"updatedAt":"19/06/2026 14:58:08"},{"type":"diesel","price":1.919,"self":true,"updatedAt":"19/06/2026 14:58:08"},{"type":"lpg","price":0.759,"self":false,"updatedAt":"19/06/2026 14:58:08"}]},{"id":"32174","lat":44.5778752326311,"lon":8.196327381946276,"name":"DISCAR CORTEMILIA","brand":"DIS-CAR","address":"VIA PIAZZA SAVONA SN 12074, CORTEMILIA (CN) SN 12074, CORTEMILIA, CN","prices":[{"type":"petrol","price":1.899,"self":true,"updatedAt":"22/06/2026 23:22:37"},{"type":"diesel","price":1.979,"self":true,"updatedAt":"22/06/2026 23:22:37"}]},{"id":"25012","lat":44.57297915825567,"lon":8.20094458758831,"name":"DISTRIBUTORE HELP CORTEMILIA","brand":"Pompe Bianche","address":"CORSO DIVISIONI ALPINE 193 12074, CORTEMILIA, CN","prices":[{"type":"petrol","price":1.899,"self":true,"updatedAt":"22/06/2026 12:06:43"},{"type":"diesel","price":1.949,"self":true,"updatedAt":"22/06/2026 12:06:45"},{"type":"lpg","price":0.828,"self":false,"updatedAt":"22/06/2026 13:56:40"}]},{"id":"42053","lat":44.58405666374605,"lon":8.191838328241715,"name":"ITALIANA PETROLI","brand":"Api-Ip","address":"29 del Colle di Cadibona, Km. 89+950, CUNEO 48 12074, CORTEMILIA, CN","prices":[{"type":"petrol","price":1.989,"self":false,"updatedAt":"19/06/2026 16:29:53"},{"type":"diesel","price":2.059,"self":false,"updatedAt":"19/06/2026 16:29:53"}]},{"id":"11552","lat":44.651825695591164,"lon":8.052379041910172,"name":"DIANO D'ALBA-SS. 29 KM. 65+805","brand":"Q8","address":"SS. 29 KM. 65+805 S/N 12055, DIANO D'ALBA, CN","prices":[{"type":"petrol","price":1.869,"self":true,"updatedAt":"23/06/2026 07:12:21"},{"type":"diesel","price":1.989,"self":true,"updatedAt":"23/06/2026 07:12:21"}]},{"id":"58812","lat":44.67393271544781,"lon":8.039803504943848,"name":"Stazione IP  Barbabar","brand":"Api-Ip","address":"Corso Cortemilia 4 12055, DIANO D'ALBA, CN","prices":[{"type":"petrol","price":1.849,"self":true,"updatedAt":"22/06/2026 20:28:54"},{"type":"diesel","price":1.939,"self":true,"updatedAt":"22/06/2026 20:28:54"}]},{"id":"20992","lat":44.5454271631702,"lon":8.105630949139595,"name":"p.v. FEISOGLIO","brand":"SACED","address":"VIA VIA FIRENZE -S.P. 31 KM 0 + 536 31 12050, FEISOGLIO (CN) 31 12050, FEISOGLIO, CN","prices":[{"type":"petrol","price":1.868,"self":true,"updatedAt":"22/06/2026 16:40:48"},{"type":"diesel","price":1.968,"self":true,"updatedAt":"22/06/2026 16:40:48"}]},{"id":"11557","lat":44.73253680756105,"lon":8.048505890703154,"name":"GUARENE-CORSO ASTI 82","brand":"Q8","address":"CORSO ASTI 82 12050, GUARENE, CN","prices":[{"type":"petrol","price":1.768,"self":true,"updatedAt":"23/06/2026 01:38:24"},{"type":"diesel","price":1.888,"self":true,"updatedAt":"23/06/2026 01:38:24"}]},{"id":"38136","lat":44.544647226942764,"lon":8.139118999242783,"name":"P.V. LEVICE","brand":"SACED","address":"VIA LOC. S. BERNARDO PROVINCIALE 439 - KM.9+714 S/N 12070, LEVICE (CN)  12070, LEVICE, CN","prices":[{"type":"petrol","price":1.868,"self":true,"updatedAt":"22/06/2026 16:41:09"},{"type":"diesel","price":1.968,"self":true,"updatedAt":"22/06/2026 16:41:09"}]},{"id":"39501","lat":44.686863056617895,"lon":8.148646205663681,"name":"IP","brand":"Api-Ip","address":"Via Circonvallazione 31 12056, MANGO, CN","prices":[{"type":"petrol","price":1.979,"self":true,"updatedAt":"20/06/2026 10:33:00"},{"type":"diesel","price":2.069,"self":true,"updatedAt":"20/06/2026 10:33:00"}]},{"id":"28714","lat":44.7254085851457,"lon":8.120461746032674,"name":"EUROPAM NEIVE","brand":"Europam","address":"CORSO SCAGLIOLA 72 12057, NEIVE, CN","prices":[{"type":"petrol","price":1.787,"self":true,"updatedAt":"22/06/2026 11:05:26"},{"type":"diesel","price":1.887,"self":true,"updatedAt":"22/06/2026 11:05:26"}]},{"id":"60325","lat":44.61374954947976,"lon":8.067503886434547,"name":"ERRETRE RODELLO","brand":"Pompe Bianche","address":"Via S. Rocco  12050, RODELLO, CN","prices":[{"type":"petrol","price":1.799,"self":true,"updatedAt":"22/06/2026 08:25:24"},{"type":"diesel","price":1.899,"self":true,"updatedAt":"22/06/2026 08:25:24"}]},{"id":"17335","lat":44.714510404137776,"lon":8.236463069915771,"name":"eni","brand":"Agip Eni","address":"VIA STAZIONE  12058, SANTO STEFANO BELBO, CN","prices":[{"type":"petrol","price":1.824,"self":true,"updatedAt":"22/06/2026 23:43:31"},{"type":"diesel","price":1.914,"self":true,"updatedAt":"22/06/2026 23:43:31"}]},{"id":"18666","lat":44.55738291348972,"lon":8.059901225236116,"name":"TRAVERSA","brand":"Pompe Bianche","address":"VIA PROVINCIALE A 9   12050, SERRAVALLE LANGHE, CN","prices":[{"type":"petrol","price":1.978,"self":true,"updatedAt":"16/06/2026 19:19:05"},{"type":"diesel","price":1.998,"self":true,"updatedAt":"16/06/2026 19:19:05"}]}]