[{"id":"59345","lat":44.66951598889439,"lon":11.603200475903312,"name":"MONDONUOVO CARBURANTI S.R.L.","brand":"Pompe Bianche","address":"SAVENA VECCHIA 314/1 40052, BARICELLA, BO","prices":[{"type":"petrol","price":1.845,"self":true,"updatedAt":"24/06/2026 07:28:18"},{"type":"diesel","price":1.975,"self":true,"updatedAt":"24/06/2026 07:28:18"}]},{"id":"21429","lat":44.513375031093986,"lon":11.516006737947464,"name":"BUDRIO SERVICE","brand":"Agip Eni","address":"VIA ZENZALINO SUD KM 1600  40054, BUDRIO, BO","prices":[{"type":"petrol","price":1.829,"self":true,"updatedAt":"29/06/2026 08:06:37"},{"type":"diesel","price":1.899,"self":true,"updatedAt":"29/06/2026 08:06:37"},{"type":"methane","price":1.439,"self":false,"updatedAt":"29/06/2026 08:06:37"}]},{"id":"34318","lat":44.54685510760665,"lon":11.536551788449287,"name":"EUGAS BUDRIO","brand":"Eugas","address":"FALCONE E BORSELLINO 7/9 40054, BUDRIO, BO","prices":[{"type":"petrol","price":1.825,"self":true,"updatedAt":"30/06/2026 12:41:40"},{"type":"diesel","price":1.899,"self":true,"updatedAt":"30/06/2026 12:41:41"},{"type":"lpg","price":0.759,"self":false,"updatedAt":"30/06/2026 12:41:41"}]},{"id":"44519","lat":44.536885000123,"lon":11.541934000123,"name":"Impianto Q8 3216","brand":"Q8","address":"VIA MARTIRI ANTIFASCISTI 105 40054, BUDRIO, BO","prices":[{"type":"petrol","price":1.819,"self":true,"updatedAt":"30/06/2026 10:13:55"},{"type":"diesel","price":1.919,"self":true,"updatedAt":"30/06/2026 10:13:55"}]},{"id":"49562","lat":44.50014259774788,"lon":11.501809672678801,"name":"IP BRIO STOP 1","brand":"Api-Ip","address":"VIA SAN VITALE 5 40054, BUDRIO, BO","prices":[{"type":"petrol","price":1.774,"self":true,"updatedAt":"30/06/2026 18:46:11"},{"type":"diesel","price":1.864,"self":true,"updatedAt":"30/06/2026 18:46:11"}]},{"id":"40621","lat":44.536755220299256,"lon":11.5431480171967,"name":"REL","brand":"Pompe Bianche","address":"Via Zenzalino Nord 2 40054, BUDRIO, BO","prices":[{"type":"petrol","price":1.777,"self":true,"updatedAt":"01/07/2026 00:06:24"},{"type":"diesel","price":1.857,"self":true,"updatedAt":"01/07/2026 00:06:24"}]},{"id":"60370","lat":44.58761577397489,"lon":11.5647508153421,"name":"RETITALIA BUDRIO","brand":"Retitalia","address":"Via Riccardina Mezzolara 103  40054, BUDRIO, BO","prices":[{"type":"petrol","price":1.749,"self":true,"updatedAt":"30/06/2026 23:31:20"},{"type":"diesel","price":1.849,"self":true,"updatedAt":"30/06/2026 23:31:20"}]},{"id":"62286","lat":44.53759980047617,"lon":11.545737365283486,"name":"Sprint Gas Budrio","brand":"Q8","address":"Via Zenzalino Nord 10  40054, BUDRIO, BO","prices":[{"type":"petrol","price":1.789,"self":true,"updatedAt":"26/06/2026 08:31:18"},{"type":"diesel","price":1.879,"self":true,"updatedAt":"26/06/2026 08:31:18"},{"type":"lpg","price":0.739,"self":false,"updatedAt":"26/06/2026 08:31:18"}]},{"id":"62707","lat":44.7220232,"lon":11.5411354,"name":"TAMOIL 8978","brand":"Tamoil","address":"Via Nazionale 414a  40051, MALALBERGO, BO","prices":[{"type":"petrol","price":1.789,"self":true,"updatedAt":"01/07/2026 00:26:18"},{"type":"diesel","price":1.849,"self":true,"updatedAt":"01/07/2026 00:26:18"},{"type":"lpg","price":0.749,"self":false,"updatedAt":"01/07/2026 07:02:13"}]},{"id":"53899","lat":44.61598234279997,"lon":11.659898076057441,"name":"Coop Molinella Reno Energia","brand":"COOP","address":"DEGLI ALPINI 1 40062, MOLINELLA, BO","prices":[{"type":"petrol","price":1.759,"self":true,"updatedAt":"29/06/2026 15:08:56"},{"type":"diesel","price":1.859,"self":true,"updatedAt":"29/06/2026 15:08:56"},{"type":"methane","price":1.519,"self":false,"updatedAt":"29/06/2026 15:08:56"},{"type":"lpg","price":0.729,"self":false,"updatedAt":"29/06/2026 15:08:56"}]},{"id":"56592","lat":44.61285,"lon":11.63758,"name":"DISTRIBUTORE COSTANTIN MOLINELLA","brand":"Costantin","address":"CANALE 5 40062, MOLINELLA, BO","prices":[{"type":"petrol","price":1.849,"self":true,"updatedAt":"30/06/2026 16:20:11"},{"type":"diesel","price":1.899,"self":true,"updatedAt":"30/06/2026 16:20:11"},{"type":"methane","price":1.529,"self":false,"updatedAt":"30/06/2026 16:20:11"},{"type":"lpg","price":0.769,"self":false,"updatedAt":"30/06/2026 16:20:11"}]},{"id":"10163","lat":44.61720679379565,"lon":11.661336809262139,"name":"ENI di ONGARO MAURO & C","brand":"Agip Eni","address":"PROVINCIALE SUPERIORE 34 40062, MOLINELLA, BO","prices":[{"type":"petrol","price":1.829,"self":true,"updatedAt":"01/07/2026 00:34:42"},{"type":"diesel","price":1.889,"self":true,"updatedAt":"01/07/2026 00:34:42"}]},{"id":"33393","lat":44.61571266545912,"lon":11.652347445487976,"name":"F.lli Bruni di Bruni Tiberio e C. Snc","brand":"Esso","address":"Via Provinciale Superiore 85 40062, MOLINELLA, BO","prices":[{"type":"petrol","price":1.799,"self":true,"updatedAt":"30/06/2026 08:47:38"},{"type":"diesel","price":1.899,"self":true,"updatedAt":"30/06/2026 08:47:38"},{"type":"lpg","price":0.749,"self":false,"updatedAt":"30/06/2026 08:47:38"}]},{"id":"12994","lat":44.6314275052369,"lon":11.67128273558194,"name":"metanolapalazzina","brand":"Pompe Bianche","address":"via Provinciale Inferiore n. 61 -  SP 6 zenzalino 61 40062, MOLINELLA, BO","prices":[{"type":"methane","price":1.513,"self":false,"updatedAt":"26/06/2026 11:54:04"}]},{"id":"61092","lat":44.617586408682314,"lon":11.663990914821625,"name":"MOLIFUEL","brand":"Pompe Bianche","address":"PROVINCIALE SUPERIORE 16 40062, MOLINELLA, BO","prices":[{"type":"petrol","price":1.809,"self":true,"updatedAt":"30/06/2026 20:15:41"},{"type":"diesel","price":1.884,"self":true,"updatedAt":"30/06/2026 20:15:41"}]},{"id":"39224","lat":44.63174330060783,"lon":11.671614423394203,"name":"TOTALERG","brand":"Api-Ip","address":"via provinciale inferiore 65 40062, MOLINELLA, BO","prices":[{"type":"petrol","price":1.769,"self":true,"updatedAt":"30/06/2026 23:23:06"},{"type":"diesel","price":1.889,"self":true,"updatedAt":"30/06/2026 23:23:06"}]},{"id":"59073","lat":44.6647615,"lon":11.6407521,"name":"Ip Argenta","brand":"Agip Eni","address":"Via Imperiale 4, ARGENTA, FE","prices":[{"type":"petrol","price":1.799,"self":true,"updatedAt":"01/07/2026 05:26:48"},{"type":"diesel","price":1.899,"self":true,"updatedAt":"01/07/2026 05:26:48"},{"type":"methane","price":1.359,"self":false,"updatedAt":"18/09/2025 11:00:05"},{"type":"lpg","price":0.829,"self":false,"updatedAt":"01/07/2026 05:26:48"}]},{"id":"20753","lat":44.72962328674932,"lon":11.629776656627655,"name":"Distributore IP di San Bartolomeo","brand":"Api-Ip","address":"VIA MASI 367 44040, FERRARA, FE","prices":[{"type":"petrol","price":1.799,"self":true,"updatedAt":"26/06/2026 20:08:39"},{"type":"diesel","price":1.899,"self":true,"updatedAt":"26/06/2026 20:08:39"}]},{"id":"43830","lat":44.74152651470346,"lon":11.570126962654172,"name":"MONTALBANO","brand":"Pompe Bianche","address":"VIA BOLOGNA 1451 44124, FERRARA, FE","prices":[{"type":"methane","price":1.399,"self":true,"updatedAt":"28/06/2026 09:16:02"}]},{"id":"51557","lat":44.74720857025546,"lon":11.683270262565605,"name":"SOCOGAS RETE FERRARA PV 210487","brand":"Agip Eni","address":"16 Adriatica, Km. 89, VIA PASTORELLA 3 LOC. MONESTIROLO - 41121, FERRARA, FE","prices":[{"type":"petrol","price":1.808,"self":true,"updatedAt":"30/06/2026 00:18:23"},{"type":"diesel","price":1.884,"self":true,"updatedAt":"30/06/2026 00:18:23"},{"type":"lpg","price":0.719,"self":false,"updatedAt":"30/06/2026 18:32:03"}]},{"id":"56392","lat":44.728719866256455,"lon":11.708522330713688,"name":"ESSO VOGHIERA","brand":"Esso","address":"S.S. 16 - ADRIATICA KM 565 SNC 44019, VOGHIERA, FE","prices":[{"type":"petrol","price":1.779,"self":true,"updatedAt":"30/06/2026 16:39:03"},{"type":"diesel","price":1.839,"self":true,"updatedAt":"30/06/2026 16:39:03"},{"type":"methane","price":1.329,"self":false,"updatedAt":"01/07/2026 07:06:06"},{"type":"lpg","price":0.709,"self":false,"updatedAt":"30/06/2026 19:42:03"}]}]