[{"id":"60323","lat":45.149239,"lon":10.643923,"name":"COSTANTIN CASTELLUCCHIO","brand":"Costantin","address":"via roma 46 46014, CASTELLUCCHIO, MN","prices":[{"type":"petrol","price":1.799,"self":true,"updatedAt":"20/06/2026 05:55:58"},{"type":"diesel","price":1.899,"self":true,"updatedAt":"20/06/2026 05:55:58"}]},{"id":"17590","lat":45.15384330936973,"lon":10.65441146492958,"name":"Tamoil","brand":"Tamoil","address":"Statale 10 Padana Inferiore, Km. 278+110, dir. via roma - 46014, CASTELLUCCHIO, MN","prices":[{"type":"petrol","price":1.819,"self":true,"updatedAt":"21/06/2026 00:41:39"},{"type":"diesel","price":1.929,"self":true,"updatedAt":"21/06/2026 00:41:39"}]},{"id":"38876","lat":45.05064158901937,"lon":10.550310239195824,"name":"8965","brand":"Tamoil","address":"DELLA LIBERTA' - 46010, COMMESSAGGIO, MN","prices":[{"type":"petrol","price":1.799,"self":true,"updatedAt":"20/06/2026 15:18:02"},{"type":"diesel","price":1.899,"self":true,"updatedAt":"20/06/2026 15:18:02"}]},{"id":"47885","lat":45.098411786695635,"lon":10.699004364418014,"name":"2640","brand":"Tamoil","address":"TORRE OGLIO 4 46010, CURTATONE, MN","prices":[{"type":"petrol","price":1.789,"self":true,"updatedAt":"21/06/2026 00:02:48"},{"type":"diesel","price":1.879,"self":true,"updatedAt":"21/06/2026 00:02:48"},{"type":"lpg","price":0.729,"self":false,"updatedAt":"21/06/2026 00:43:33"}]},{"id":"17156","lat":45.12856866249881,"lon":10.709426254034042,"name":"eni","brand":"Agip Eni","address":"VIA ROMA 117 46010, CURTATONE, MN","prices":[{"type":"petrol","price":1.824,"self":true,"updatedAt":"21/06/2026 00:41:53"},{"type":"diesel","price":1.914,"self":true,"updatedAt":"21/06/2026 00:41:53"},{"type":"lpg","price":0.726,"self":false,"updatedAt":"20/06/2026 23:57:52"}]},{"id":"51348","lat":45.13582621838956,"lon":10.72626974826697,"name":"Hormuz Carburanti SAS. (ENI-12107)","brand":"Agip Eni","address":"Strada Statale, Km. Ss 420 km, 4,149 - 46010, CURTATONE, MN","prices":[{"type":"petrol","price":1.825,"self":true,"updatedAt":"21/06/2026 00:51:03"},{"type":"diesel","price":1.915,"self":true,"updatedAt":"21/06/2026 00:51:03"}]},{"id":"25784","lat":45.15226841736679,"lon":10.724211260676384,"name":"IL GIGANTE SELF 24 /H CURTATONE","brand":"Pompe Bianche","address":"VIA GENERALE DE LAUGIER SNC 46010, CURTATONE, MN","prices":[{"type":"petrol","price":1.739,"self":true,"updatedAt":"19/06/2026 17:03:12"},{"type":"diesel","price":1.829,"self":true,"updatedAt":"19/06/2026 17:03:12"}]},{"id":"60990","lat":45.153156,"lon":10.7196381,"name":"ip","brand":"Itala Petroli","address":"LEOPOLDO PILLA 41 46010, CURTATONE, MN","prices":[{"type":"petrol","price":1.809,"self":true,"updatedAt":"20/06/2026 23:53:21"},{"type":"diesel","price":1.929,"self":true,"updatedAt":"20/06/2026 23:53:21"},{"type":"methane","price":1.429,"self":false,"updatedAt":"20/06/2026 23:53:21"},{"type":"lpg","price":0.756,"self":false,"updatedAt":"20/06/2026 23:53:21"}]},{"id":"55646","lat":45.2060243,"lon":10.5913053,"name":"ELP STREDAVI SNC","brand":"Pompe Bianche","address":"MARCONI 1 46040, GAZOLDO DEGLI IPPOLITI, MN","prices":[{"type":"petrol","price":1.779,"self":false,"updatedAt":"19/06/2026 18:01:08"},{"type":"diesel","price":1.889,"self":false,"updatedAt":"19/06/2026 18:01:08"},{"type":"lpg","price":0.805,"self":false,"updatedAt":"19/06/2026 18:01:08"}]},{"id":"47041","lat":45.20114353996768,"lon":10.583658814430237,"name":"KEROPETROL SPA GAZOLDO DEGLI IPPOLITI","brand":"KEROPETROL","address":"VIA VIA MARCONI CM 46040, GAZOLDO DEGLI IPPOLITI (MN) 29 46040, GAZOLDO DEGLI IPPOLITI, MN","prices":[{"type":"petrol","price":1.799,"self":true,"updatedAt":"19/06/2026 17:03:20"},{"type":"diesel","price":1.899,"self":true,"updatedAt":"19/06/2026 17:03:20"}]},{"id":"32881","lat":45.08258047528598,"lon":10.566768944263458,"name":"KEROPETROL SPA BELFORTE","brand":"KEROPETROL","address":"VIA S.P. 58 KM. 2+948 C.M. 46010, GAZZUOLO (MN) SNC 46010, GAZZUOLO, MN","prices":[{"type":"petrol","price":1.799,"self":true,"updatedAt":"19/06/2026 11:29:22"},{"type":"diesel","price":1.899,"self":true,"updatedAt":"19/06/2026 11:29:22"},{"type":"lpg","price":0.769,"self":false,"updatedAt":"19/06/2026 11:29:22"}]},{"id":"25067","lat":45.246183091488255,"lon":10.689799999999991,"name":"GOITO - MARSILETTI","brand":"Api-Ip","address":"Statale 236 Goitese, Km. KM. 11,687, dir. Mantova - 46044, GOITO, MN","prices":[{"type":"petrol","price":1.819,"self":true,"updatedAt":"20/06/2026 09:03:48"},{"type":"diesel","price":1.919,"self":true,"updatedAt":"20/06/2026 09:03:48"},{"type":"lpg","price":0.769,"self":false,"updatedAt":"20/06/2026 09:03:48"}]},{"id":"49903","lat":45.134069598150504,"lon":10.604055542327862,"name":"1290","brand":"Tamoil","address":"N.10 - KM. 273+515 SNC 46010, MARCARIA, MN","prices":[{"type":"petrol","price":1.789,"self":true,"updatedAt":"20/06/2026 14:48:03"},{"type":"diesel","price":1.899,"self":true,"updatedAt":"20/06/2026 14:48:03"}]},{"id":"13794","lat":45.079340724899026,"lon":10.595759600400925,"name":"Esso Pieropan Paolo","brand":"Esso","address":"MONTANARA NORD 5 46010, MARCARIA, MN","prices":[{"type":"petrol","price":1.809,"self":true,"updatedAt":"19/06/2026 08:08:35"},{"type":"diesel","price":1.899,"self":true,"updatedAt":"19/06/2026 08:08:35"}]},{"id":"61672","lat":45.12296,"lon":10.53805,"name":"Singh Amandeep","brand":"Api-Ip","address":"Via Francesco Crispi 143  46010, MARCARIA, MN","prices":[{"type":"petrol","price":1.829,"self":true,"updatedAt":"18/06/2026 08:53:48"},{"type":"diesel","price":1.949,"self":true,"updatedAt":"18/06/2026 08:53:48"}]},{"id":"52403","lat":45.23143383922358,"lon":10.717768669128413,"name":"B-PETROL - MARMIROLO","brand":"bpetrol","address":"STRADA GOITESE 91 46045, MARMIROLO, MN","prices":[{"type":"petrol","price":1.799,"self":true,"updatedAt":"20/06/2026 23:42:10"},{"type":"lpg","price":0.769,"self":false,"updatedAt":"20/06/2026 23:42:10"}]},{"id":"18331","lat":45.03498381820133,"lon":10.744653874204914,"name":"IP GHULAM,MOTTEGGIANA","brand":"Api-Ip","address":"STRADA NAZIONALE CISA 16 46020, MOTTEGGIANA, MN","prices":[{"type":"petrol","price":1.789,"self":true,"updatedAt":"19/06/2026 15:21:06"},{"type":"diesel","price":1.899,"self":true,"updatedAt":"19/06/2026 15:21:06"},{"type":"methane","price":1.699,"self":false,"updatedAt":"15/06/2026 16:33:06"},{"type":"lpg","price":0.719,"self":false,"updatedAt":"18/06/2026 12:18:06"}]},{"id":"53378","lat":45.223474,"lon":10.532091,"name":"6912","brand":"Tamoil","address":"7 KM13+200 STRADA SAN CASSIANO C.M. 46040, PIUBEGA, MN","prices":[{"type":"petrol","price":1.859,"self":true,"updatedAt":"20/06/2026 13:30:24"},{"type":"diesel","price":1.949,"self":true,"updatedAt":"20/06/2026 13:30:24"}]},{"id":"56657","lat":45.19788807083106,"lon":10.627264011798857,"name":"B-PETROL RODIGO","brand":"bpetrol","address":"Strada Francesca Est 36 46040, RODIGO, MN","prices":[{"type":"petrol","price":1.789,"self":true,"updatedAt":"21/06/2026 00:30:36"}]},{"id":"15376","lat":45.16908645302354,"lon":10.676700621843338,"name":"STAZIONE DI SERVIZIO ENI","brand":"Agip Eni","address":"FRANCESCA EST 166 46040, RODIGO, MN","prices":[{"type":"petrol","price":1.825,"self":true,"updatedAt":"20/06/2026 18:28:10"},{"type":"diesel","price":1.914,"self":true,"updatedAt":"21/06/2026 00:29:27"},{"type":"lpg","price":0.726,"self":false,"updatedAt":"21/06/2026 00:29:27"}]},{"id":"54606","lat":45.19322762531165,"lon":10.63699722290039,"name":"TAMOIL","brand":"Tamoil","address":"STRADA FRANCESCA EST 77 46040, RODIGO, MN","prices":[{"type":"petrol","price":1.899,"self":true,"updatedAt":"11/06/2026 17:23:18"},{"type":"diesel","price":1.969,"self":true,"updatedAt":"11/06/2026 17:23:18"}]}]