[{"id":"50322","lat":45.247464536847865,"lon":10.181394517421722,"name":"Alboino","brand":"KEROPETROL","address":"VIA UMBERTO I 48 25020, SENIGA, BS","prices":[{"type":"petrol","price":1.906,"self":true,"updatedAt":"30/06/2026 07:54:07"},{"type":"diesel","price":2.047,"self":true,"updatedAt":"30/06/2026 07:54:07"}]},{"id":"57738","lat":45.181907,"lon":10.001801,"name":"TAMOIL CASTELVERDE","brand":"Tamoil","address":"S.P. N. 498 KM 64+982 L.D. SN 26022, CASTELVERDE, CR","prices":[{"type":"petrol","price":1.769,"self":true,"updatedAt":"01/07/2026 07:07:45"},{"type":"diesel","price":1.839,"self":true,"updatedAt":"01/07/2026 07:07:45"},{"type":"methane","price":1.299,"self":false,"updatedAt":"01/07/2026 07:07:45"},{"type":"lpg","price":0.679,"self":false,"updatedAt":"01/07/2026 07:07:45"}]},{"id":"26058","lat":45.16870498086315,"lon":10.196217335581991,"name":"AGIP DISTRIBUTORE CICOGNOLO di Aiftinca Ana Daniela","brand":"Agip Eni","address":"VIA CARDUCCI 40 26030, CICOGNOLO, CR","prices":[{"type":"petrol","price":1.825,"self":true,"updatedAt":"01/07/2026 00:32:51"},{"type":"diesel","price":1.884,"self":true,"updatedAt":"01/07/2026 00:32:51"}]},{"id":"42117","lat":45.1478848663494,"lon":10.003729404299179,"name":"1913","brand":"Tamoil","address":"CASTELLEONE 45 26100, CREMONA, CR","prices":[{"type":"petrol","price":1.779,"self":true,"updatedAt":"30/06/2026 14:56:04"},{"type":"diesel","price":1.839,"self":true,"updatedAt":"30/06/2026 23:16:36"}]},{"id":"32229","lat":45.12981502468253,"lon":10.03648079931736,"name":"2532","brand":"Tamoil","address":"NOVATI 40 26100, CREMONA, CR","prices":[{"type":"petrol","price":1.769,"self":true,"updatedAt":"30/06/2026 12:50:39"},{"type":"diesel","price":1.839,"self":true,"updatedAt":"30/06/2026 12:14:07"}]},{"id":"47826","lat":45.14897278334105,"lon":10.04896134110452,"name":"4872","brand":"Tamoil","address":"PERSICO 63 26100, CREMONA, CR","prices":[{"type":"petrol","price":1.779,"self":true,"updatedAt":"01/07/2026 00:01:36"},{"type":"diesel","price":1.859,"self":true,"updatedAt":"01/07/2026 00:01:36"}]},{"id":"52152","lat":45.14962857382964,"lon":10.027975512897482,"name":"8040","brand":"Tamoil","address":"ROSARIO 27 26100, CREMONA, CR","prices":[{"type":"petrol","price":1.779,"self":true,"updatedAt":"01/07/2026 00:23:13"},{"type":"diesel","price":1.859,"self":true,"updatedAt":"01/07/2026 00:23:13"}]},{"id":"37392","lat":45.142398342843165,"lon":10.004483386874199,"name":"AM STATION SERVICE DI ALLOISIO MARCO ANGELO","brand":"Agip Eni","address":"VIA MILANO 3/D 26100, CREMONA, CR","prices":[{"type":"petrol","price":1.804,"self":true,"updatedAt":"01/07/2026 00:31:38"},{"type":"diesel","price":1.884,"self":true,"updatedAt":"01/07/2026 00:31:38"}]},{"id":"48147","lat":45.1499692207313,"lon":10.010285069940563,"name":"CR- v. Bergamo","brand":"Esso","address":"VIA BERGAMO 91 26100, CREMONA, CR","prices":[{"type":"petrol","price":1.889,"self":true,"updatedAt":"10/06/2026 07:25:34"},{"type":"diesel","price":1.989,"self":true,"updatedAt":"10/06/2026 07:25:34"}]},{"id":"15908","lat":45.129145183028555,"lon":10.021960162839832,"name":"CREMONA","brand":"Api-Ip","address":"VIA GIORDANO 81 26100, CREMONA, CR","prices":[{"type":"petrol","price":1.808,"self":true,"updatedAt":"30/06/2026 19:01:26"},{"type":"diesel","price":1.868,"self":true,"updatedAt":"30/06/2026 19:01:26"}]},{"id":"24706","lat":45.122265933991116,"lon":10.077938309192632,"name":"CREMONA - VIA GIUSEPPINA","brand":"Api-Ip","address":"VIA GIUSEPPINA  26100, CREMONA, CR","prices":[{"type":"petrol","price":1.768,"self":true,"updatedAt":"30/06/2026 09:03:54"},{"type":"diesel","price":1.858,"self":true,"updatedAt":"30/06/2026 09:03:54"},{"type":"lpg","price":0.658,"self":false,"updatedAt":"30/06/2026 09:03:54"}]},{"id":"29398","lat":45.13803169660678,"lon":10.040083676576614,"name":"CREMONA - VIA MANTOVA","brand":"Api-Ip","address":"VIA MANTOVA  26100, CREMONA, CR","prices":[{"type":"petrol","price":1.768,"self":true,"updatedAt":"30/06/2026 09:04:08"},{"type":"diesel","price":1.828,"self":true,"updatedAt":"30/06/2026 19:01:32"}]},{"id":"22118","lat":45.13986939909906,"lon":10.070155262947083,"name":"CREMONA SUD","brand":"Api-Ip","address":"Autostrada A21 PIACENZA-BRESCIA,  Km. 194,5, dir. SUD - 26100, CREMONA, CR","prices":[{"type":"petrol","price":1.949,"self":true,"updatedAt":"28/06/2026 19:25:37"},{"type":"diesel","price":2.019,"self":true,"updatedAt":"28/06/2026 19:25:37"},{"type":"lpg","price":0.929,"self":false,"updatedAt":"28/06/2026 19:25:37"}]},{"id":"60650","lat":45.1150712,"lon":10.0579183,"name":"CREMONA SUD","brand":"Tamoil","address":"Autostrada A21 PIACENZA-BRESCIA, dir. SUD, CREMONA, CR","prices":[{"type":"petrol","price":1.859,"self":true,"updatedAt":"30/06/2026 23:50:15"},{"type":"diesel","price":1.929,"self":true,"updatedAt":"30/06/2026 23:50:15"},{"type":"lpg","price":0.829,"self":false,"updatedAt":"30/06/2026 22:04:06"}]},{"id":"11567","lat":45.142343783856475,"lon":10.059146355819735,"name":"CREMONA-VIA MANTOVA 66/A","brand":"Q8","address":"VIA MANTOVA 66/A 26100, CREMONA, CR","prices":[{"type":"petrol","price":1.768,"self":true,"updatedAt":"27/06/2026 07:41:14"},{"type":"diesel","price":1.858,"self":true,"updatedAt":"27/06/2026 07:41:14"}]},{"id":"52143","lat":45.146385362173824,"lon":10.010520719875421,"name":"ECO SPEED","brand":"Agip Eni","address":"VIA BERGAMO  47 26100, CREMONA, CR","prices":[{"type":"petrol","price":1.809,"self":true,"updatedAt":"30/06/2026 23:12:10"},{"type":"diesel","price":1.884,"self":true,"updatedAt":"30/06/2026 23:12:10"}]},{"id":"44163","lat":45.13786559096359,"lon":10.044394824571569,"name":"Eni - Cremona","brand":"Agip Eni","address":"VIA MANTOVA 141/B 26100, CREMONA, CR","prices":[{"type":"petrol","price":1.814,"self":true,"updatedAt":"30/06/2026 23:26:00"},{"type":"diesel","price":1.889,"self":true,"updatedAt":"30/06/2026 23:26:00"}]},{"id":"31572","lat":45.13155784497961,"lon":10.042660819435131,"name":"Eni - Cremona","brand":"Agip Eni","address":"Via Giuseppina 23 26100, CREMONA, CR","prices":[{"type":"petrol","price":1.809,"self":true,"updatedAt":"01/07/2026 00:22:30"},{"type":"diesel","price":1.889,"self":true,"updatedAt":"01/07/2026 00:22:30"}]},{"id":"63108","lat":45.1499902,"lon":10.0102909,"name":"ESSO - CREMONA BERGAMO","brand":"Esso","address":"Via Bergamo 91  26100, CREMONA, CR","prices":[{"type":"petrol","price":1.779,"self":true,"updatedAt":"24/06/2026 22:00:57"},{"type":"diesel","price":1.849,"self":true,"updatedAt":"01/07/2026 06:50:45"}]},{"id":"62531","lat":45.1300226,"lon":10.0472266,"name":"GR CARBURANTI  SAS 1106 TAMOIL","brand":"Tamoil","address":"Via Giuseppina 25L 26100, CREMONA, CR","prices":[{"type":"petrol","price":1.789,"self":true,"updatedAt":"30/06/2026 18:24:10"},{"type":"diesel","price":1.859,"self":true,"updatedAt":"30/06/2026 23:55:28"}]},{"id":"55910","lat":45.14126581315901,"lon":10.034709777770985,"name":"IP FULL SERVICE di SINGH NAVJOT","brand":"Api-Ip","address":"PERSICO 20/B 26100, CREMONA, CR","prices":[{"type":"petrol","price":1.788,"self":true,"updatedAt":"29/06/2026 10:44:02"},{"type":"diesel","price":1.878,"self":true,"updatedAt":"29/06/2026 10:44:02"}]},{"id":"8855","lat":45.13060152301502,"lon":10.045538789632928,"name":"Italianapetroli","brand":"Api-Ip","address":"VIA GIUSEPPINA 21/I 26100, CREMONA, CR","prices":[{"type":"petrol","price":1.899,"self":false,"updatedAt":"01/07/2026 07:51:25"},{"type":"diesel","price":1.999,"self":false,"updatedAt":"01/07/2026 07:51:25"}]},{"id":"26327","lat":45.13502082415295,"lon":10.058653950691223,"name":"Keropetrol","brand":"KEROPETROL","address":"VIA POSTUMIA 138 26100, CREMONA, CR","prices":[{"type":"methane","price":1.649,"self":false,"updatedAt":"26/06/2026 08:14:25"},{"type":"lpg","price":0.689,"self":false,"updatedAt":"26/06/2026 08:14:25"}]},{"id":"48075","lat":45.151264823831575,"lon":10.02268128108977,"name":"KEROPETROL CR SEDE","brand":"KEROPETROL","address":"VIA VIA BOSCHETTO 12 26100, CREMONA (CR) 12 26100, CREMONA, CR","prices":[{"type":"petrol","price":1.849,"self":false,"updatedAt":"30/06/2026 16:10:35"},{"type":"diesel","price":1.899,"self":false,"updatedAt":"30/06/2026 16:10:35"}]},{"id":"40646","lat":45.12640188342971,"lon":10.056567192077637,"name":"KEROPETROL SPA VIA GIUSEPPINA","brand":"KEROPETROL","address":"VIA VIA GIUSEPPINA 161 26100, CREMONA (CR) 161 26100, CREMONA, CR","prices":[{"type":"petrol","price":1.819,"self":true,"updatedAt":"30/06/2026 17:05:11"},{"type":"diesel","price":1.879,"self":true,"updatedAt":"30/06/2026 17:05:11"}]},{"id":"43421","lat":45.1423268,"lon":10.0608032,"name":"KEROPETROL SPA VIA MANTOVA","brand":"KEROPETROL","address":"Via Mantova 145  26100, CREMONA, CR","prices":[{"type":"petrol","price":1.779,"self":true,"updatedAt":"29/06/2026 16:12:33"},{"type":"diesel","price":1.859,"self":true,"updatedAt":"29/06/2026 16:12:33"},{"type":"lpg","price":0.719,"self":false,"updatedAt":"29/06/2026 16:12:34"}]},{"id":"45734","lat":45.13465121570869,"lon":10.01307658895496,"name":"KEROPETROL SPA VIA MASSAROTTI","brand":"KEROPETROL","address":"VIA VIA MASSAROTTI 23 26100, CREMONA (CR) 23 26100, CREMONA, CR","prices":[{"type":"petrol","price":1.799,"self":true,"updatedAt":"29/06/2026 10:24:35"},{"type":"diesel","price":1.889,"self":true,"updatedAt":"29/06/2026 10:24:36"}]},{"id":"27842","lat":45.1529838,"lon":10.0381888,"name":"PV 2030","brand":"Agip Eni","address":"BRESCIA 219 26100, CREMONA, CR","prices":[{"type":"petrol","price":1.789,"self":true,"updatedAt":"30/06/2026 23:28:20"},{"type":"diesel","price":1.824,"self":true,"updatedAt":"30/06/2026 23:28:20"}]},{"id":"53944","lat":45.12755,"lon":10.03129,"name":"Stazione IP Via Bosco","brand":"Api-Ip","address":"BOSCO 2 26100, CREMONA, CR","prices":[{"type":"petrol","price":1.778,"self":true,"updatedAt":"30/06/2026 18:20:23"},{"type":"diesel","price":1.838,"self":true,"updatedAt":"30/06/2026 18:20:23"},{"type":"lpg","price":0.779,"self":false,"updatedAt":"30/06/2026 18:20:23"}]},{"id":"56045","lat":45.1426892515194,"lon":10.0517029613365,"name":"TAMOIL CREMONA VIA ZAIST, 97","brand":"Tamoil","address":"ZAIST 97 26100, CREMONA, CR","prices":[{"type":"petrol","price":1.768,"self":true,"updatedAt":"01/07/2026 07:31:27"},{"type":"diesel","price":1.858,"self":true,"updatedAt":"01/07/2026 07:31:28"}]},{"id":"60546","lat":45.207162,"lon":10.231301,"name":"BIG SERVICE","brand":"Pompe Bianche","address":"LOCALITA' BASSONE 11/B 26030, GABBIONETA-BINANUOVA, CR","prices":[{"type":"petrol","price":1.799,"self":true,"updatedAt":"24/06/2026 08:01:39"},{"type":"diesel","price":1.879,"self":true,"updatedAt":"24/06/2026 08:01:39"}]},{"id":"15165","lat":45.151442056396974,"lon":10.09761486592106,"name":"43688","brand":"Shell","address":"VIA P.FERRARI 7 26030, GADESCO-PIEVE DELMONA, CR","prices":[{"type":"petrol","price":1.879,"self":true,"updatedAt":"08/06/2026 09:01:27"},{"type":"diesel","price":2.019,"self":true,"updatedAt":"08/06/2026 09:01:27"},{"type":"lpg","price":0.759,"self":false,"updatedAt":"08/06/2026 09:01:27"}]},{"id":"24150","lat":45.15448490554476,"lon":10.100436061620712,"name":"IPER STATION GADESCO PIEVE DELMONA","brand":"Iper Station","address":"Loc.San Marino  26030, GADESCO-PIEVE DELMONA, CR","prices":[{"type":"petrol","price":1.765,"self":true,"updatedAt":"30/06/2026 00:21:21"},{"type":"diesel","price":1.835,"self":true,"updatedAt":"30/06/2026 00:21:21"}]},{"id":"43976","lat":45.17443190825663,"lon":10.088436542327827,"name":"RETITALIA","brand":"Tamoil","address":"VIA OSTIANO SNC 26030, GADESCO-PIEVE DELMONA, CR","prices":[{"type":"petrol","price":1.929,"self":true,"updatedAt":"16/05/2026 20:54:48"},{"type":"diesel","price":2.049,"self":true,"updatedAt":"16/05/2026 20:54:48"},{"type":"lpg","price":0.799,"self":false,"updatedAt":"16/05/2026 20:54:48"}]},{"id":"63260","lat":45.151385,"lon":10.097611,"name":"SHELL - GADESCO-PIEVE DELMONA VIA FERRARI","brand":"Shell","address":"VIA Ferrari 5 26030, GADESCO-PIEVE DELMONA, CR","prices":[{"type":"petrol","price":1.769,"self":true,"updatedAt":"01/07/2026 07:32:44"},{"type":"diesel","price":1.839,"self":true,"updatedAt":"01/07/2026 07:32:44"},{"type":"lpg","price":0.699,"self":false,"updatedAt":"01/07/2026 07:32:44"}]},{"id":"54643","lat":45.11761,"lon":10.1155,"name":"ESSO","brand":"Tamoil","address":"GIUSEPPINA  S.P. 87 KM. 6.975 . 26030, MALAGNINO, CR","prices":[{"type":"petrol","price":1.829,"self":true,"updatedAt":"25/06/2026 15:32:27"},{"type":"diesel","price":1.899,"self":true,"updatedAt":"25/06/2026 15:32:27"},{"type":"lpg","price":0.699,"self":false,"updatedAt":"25/06/2026 15:32:27"}]},{"id":"47302","lat":45.2190828,"lon":10.2460766,"name":"8273","brand":"Tamoil","address":"PONTE OGLIO - 26032, OSTIANO, CR","prices":[{"type":"petrol","price":1.799,"self":true,"updatedAt":"30/06/2026 23:35:09"},{"type":"diesel","price":1.879,"self":true,"updatedAt":"30/06/2026 23:35:09"}]},{"id":"56044","lat":45.1828423472845,"lon":10.0481637360951,"name":"TAMOIL PERSICO DOSIMO VIA BRESCIA (SP 45BIS KM 5+260)","brand":"Tamoil","address":"S.P. 45 BIS KM 5+260 SN 26043, PERSICO DOSIMO, CR","prices":[{"type":"petrol","price":1.779,"self":true,"updatedAt":"01/07/2026 07:34:15"},{"type":"diesel","price":1.829,"self":true,"updatedAt":"01/07/2026 07:34:15"}]},{"id":"15911","lat":45.058747179446264,"lon":10.190098285675049,"name":"KEROPETROL S.DANIELE PO","brand":"KEROPETROL","address":"VIA S.P.    33 KM 21+440 0 26046, SAN DANIELE PO (CR) SNC 26046, SAN DANIELE PO, CR","prices":[{"type":"petrol","price":1.799,"self":true,"updatedAt":"24/06/2026 15:08:52"},{"type":"diesel","price":1.859,"self":true,"updatedAt":"24/06/2026 15:08:52"}]},{"id":"12256","lat":45.10503322443688,"lon":10.182285010814667,"name":"Pirotti Giuseppina","brand":"Pompe Bianche","address":"Via Giuseppina, 26048 - -, SOSPIRO, CR","prices":[{"type":"petrol","price":1.805,"self":true,"updatedAt":"26/06/2026 08:59:28"},{"type":"diesel","price":1.835,"self":true,"updatedAt":"26/06/2026 08:59:28"}]},{"id":"51288","lat":45.07348898800486,"lon":10.08535962930614,"name":"Eredi Antonioli S.a.s.","brand":"Pompe Bianche","address":"VIALE RIMEMBRANZE 23 26049, STAGNO LOMBARDO, CR","prices":[{"type":"petrol","price":1.76,"self":false,"updatedAt":"29/06/2026 08:48:05"},{"type":"diesel","price":1.86,"self":false,"updatedAt":"29/06/2026 08:48:05"}]},{"id":"36490","lat":45.165007603026645,"lon":10.170772969722748,"name":"KEROPETROL SPA VESCOVATO","brand":"KEROPETROL","address":"VIA VIALE VITTORIO VENETO 48 26039, VESCOVATO (CR) 48 26039, VESCOVATO, CR","prices":[{"type":"petrol","price":1.809,"self":true,"updatedAt":"26/06/2026 16:02:29"},{"type":"diesel","price":1.889,"self":true,"updatedAt":"26/06/2026 16:02:29"}]},{"id":"57206","lat":45.16258500000001,"lon":10.153451399999986,"name":"STAZIONE DI SERVIZIO IP DI ADAM SRL","brand":"Api-Ip","address":"PADANA INFERIORE 9 26039, VESCOVATO, CR","prices":[{"type":"petrol","price":1.809,"self":true,"updatedAt":"30/06/2026 23:23:43"},{"type":"diesel","price":1.929,"self":true,"updatedAt":"30/06/2026 23:23:43"},{"type":"lpg","price":0.769,"self":false,"updatedAt":"30/06/2026 23:23:43"}]},{"id":"31718","lat":45.015023641625646,"lon":10.022076666355133,"name":"KEROPETROL SPA VILLANOVA","brand":"KEROPETROL","address":"VIA S.P. 588 KM 12+870 SN 29010, VILLANOVA SULL'ARDA (PC)  29010, VILLANOVA SULL'ARDA, PC","prices":[{"type":"petrol","price":1.799,"self":true,"updatedAt":"29/06/2026 16:45:39"},{"type":"diesel","price":1.859,"self":true,"updatedAt":"29/06/2026 16:45:39"}]}]