[{"id":"6389","lat":45.113941699341055,"lon":7.390994232540834,"name":"ALMESE S.P. ALMESE-COL DEL LYS KM 3","brand":"Q8","address":"S.P. ALMESE-COL DEL LYS KM 3 SNC 10040, ALMESE, TO","prices":[{"type":"petrol","price":1.755,"self":true,"updatedAt":"20/06/2026 01:38:15"},{"type":"diesel","price":1.885,"self":true,"updatedAt":"20/06/2026 01:38:15"}]},{"id":"59381","lat":45.1147466,"lon":7.390122499999999,"name":"Enistation Almese","brand":"Agip Eni","address":"Via Circonvallazione 82  10072, ALMESE, TO","prices":[{"type":"petrol","price":1.844,"self":true,"updatedAt":"21/06/2026 00:47:25"},{"type":"diesel","price":1.944,"self":true,"updatedAt":"21/06/2026 00:47:25"}]},{"id":"44444","lat":45.086783348277656,"lon":7.408416330024693,"name":"CONAD SUPERSTORE AVIGLIANA","brand":"CONAD","address":"VIA F. E G. FALCONE 103 10051, AVIGLIANA, TO","prices":[{"type":"petrol","price":1.755,"self":true,"updatedAt":"20/06/2026 08:28:54"},{"type":"diesel","price":1.885,"self":true,"updatedAt":"20/06/2026 08:28:54"},{"type":"methane","price":1.599,"self":true,"updatedAt":"20/06/2026 08:28:54"}]},{"id":"56789","lat":45.07568791268255,"lon":7.392734778113663,"name":"eni 51267","brand":"Agip Eni","address":"via torino 15 10051, AVIGLIANA, TO","prices":[{"type":"petrol","price":1.849,"self":true,"updatedAt":"21/06/2026 00:46:11"},{"type":"diesel","price":1.949,"self":true,"updatedAt":"21/06/2026 00:46:11"}]},{"id":"9505","lat":45.07548426985645,"lon":7.394983957672139,"name":"TAMOIL","brand":"Tamoil","address":"CORSO LAGHI 222 10051, AVIGLIANA, TO","prices":[{"type":"petrol","price":1.769,"self":true,"updatedAt":"20/06/2026 23:41:49"},{"type":"diesel","price":1.899,"self":true,"updatedAt":"20/06/2026 23:41:49"}]},{"id":"55902","lat":45.018744938770375,"lon":7.481237870756541,"name":"DISCAR BRUINO","brand":"DIS-CAR","address":"Via Orbassano 79  10090, BRUINO, TO","prices":[{"type":"petrol","price":1.799,"self":true,"updatedAt":"21/06/2026 00:23:36"},{"type":"diesel","price":1.899,"self":true,"updatedAt":"21/06/2026 00:23:36"}]},{"id":"32022","lat":45.06680947197759,"lon":7.434045597553222,"name":"BUTTIGLIERA A - SP.RIVOLI/AVIGLIANA","brand":"Api-Ip","address":"SP.RIVOLI/AVIGLIANA KM.6+930  10090, BUTTIGLIERA ALTA, TO","prices":[{"type":"petrol","price":1.779,"self":true,"updatedAt":"20/06/2026 09:02:53"},{"type":"diesel","price":1.909,"self":true,"updatedAt":"20/06/2026 09:02:53"}]},{"id":"11859","lat":45.08358484928733,"lon":7.43193218650822,"name":"BUTTIGLIERA ALTA-FZ. FERRIERE C.SO TORINO","brand":"Q8","address":"FZ. FERRIERE C.SO TORINO S/N 10090, BUTTIGLIERA ALTA, TO","prices":[{"type":"petrol","price":1.765,"self":true,"updatedAt":"20/06/2026 08:10:59"},{"type":"diesel","price":1.895,"self":true,"updatedAt":"20/06/2026 08:10:59"}]},{"id":"44380","lat":45.107418540639756,"lon":7.498976959940592,"name":"8013","brand":"Tamoil","address":"S.S. 24 KM. 17+300 SNC 10040, CASELETTE, TO","prices":[{"type":"petrol","price":1.769,"self":true,"updatedAt":"20/06/2026 23:18:04"},{"type":"diesel","price":1.889,"self":true,"updatedAt":"20/06/2026 23:18:04"}]},{"id":"18604","lat":45.10496279997306,"lon":7.33611524105072,"name":"SOCOGAS Chiusa San Michele","brand":"Q8","address":"Statale 25 del Moncenisio, Km. 29+065, dir. Torino - 10050, CHIUSA DI SAN MICHELE, TO","prices":[{"type":"petrol","price":1.899,"self":false,"updatedAt":"17/06/2026 15:06:01"},{"type":"diesel","price":1.999,"self":false,"updatedAt":"17/06/2026 15:06:01"},{"type":"lpg","price":0.779,"self":false,"updatedAt":"17/06/2026 15:06:01"}]},{"id":"47636","lat":45.04994850128628,"lon":7.304648989514537,"name":"2279","brand":"Tamoil","address":"MATTEOTTI 127 10050, COAZZE, TO","prices":[{"type":"petrol","price":1.759,"self":true,"updatedAt":"20/06/2026 23:41:40"},{"type":"diesel","price":1.889,"self":true,"updatedAt":"20/06/2026 23:41:40"}]},{"id":"58612","lat":45.04142,"lon":7.362632,"name":"53508 GIAVENO","brand":"Agip Eni","address":"S.P.TORINO/GIAVENO  S.N., GIAVENO, TO","prices":[{"type":"petrol","price":1.829,"self":true,"updatedAt":"20/06/2026 23:26:19"},{"type":"diesel","price":1.919,"self":true,"updatedAt":"20/06/2026 23:26:19"}]},{"id":"7280","lat":45.0489628735002,"lon":7.36367292702198,"name":"GIAVENO - SP 190 VIA AVIGLIANA","brand":"Q8","address":"ST.DA PROV.LE 190-VIA AVIGLIANA SN 10094, GIAVENO, TO","prices":[{"type":"petrol","price":1.799,"self":true,"updatedAt":"20/06/2026 08:11:03"},{"type":"diesel","price":1.899,"self":true,"updatedAt":"20/06/2026 08:11:03"},{"type":"lpg","price":0.749,"self":false,"updatedAt":"20/06/2026 08:11:03"}]},{"id":"11871","lat":45.0409198497899,"lon":7.358782390213037,"name":"GIAVENO-VIA TORINO 41","brand":"Q8","address":"VIA TORINO 41 10094, GIAVENO, TO","prices":[{"type":"petrol","price":1.779,"self":true,"updatedAt":"20/06/2026 01:38:28"},{"type":"diesel","price":1.879,"self":true,"updatedAt":"20/06/2026 01:38:28"}]},{"id":"63302","lat":45.0511997,"lon":7.4270527,"name":"REANO","brand":"Kerotris","address":"Via Roma 6  10090, REANO, TO","prices":[{"type":"petrol","price":1.859,"self":true,"updatedAt":"17/06/2026 10:24:39"},{"type":"diesel","price":1.969,"self":true,"updatedAt":"17/06/2026 10:24:39"}]},{"id":"11866","lat":45.015821768345866,"lon":7.4924931190490724,"name":"RIVALTA DI TORINO-SDA PLE ORBASSANO-BRUINO KM18","brand":"Q8","address":"SDA PLE ORBASSANO-BRUINO KM18 S/N  10040, RIVALTA DI TORINO, TO","prices":[{"type":"petrol","price":1.799,"self":true,"updatedAt":"20/06/2026 08:11:11"},{"type":"diesel","price":1.939,"self":true,"updatedAt":"20/06/2026 08:11:11"}]},{"id":"30893","lat":45.086147283637565,"lon":7.483043968677521,"name":"CATANIA ANTONINO","brand":"Socogas","address":"CORSO SUSA 400 10098, RIVOLI, TO","prices":[{"type":"lpg","price":0.769,"self":false,"updatedAt":"17/06/2026 21:00:21"}]},{"id":"42857","lat":45.08164003271217,"lon":7.498030601188702,"name":"RIVOLI STRADA DEL FORNAS","brand":"Q8","address":"STRADA DEL FORNAS  10098, RIVOLI, TO","prices":[{"type":"petrol","price":1.755,"self":true,"updatedAt":"20/06/2026 01:38:31"},{"type":"diesel","price":1.885,"self":true,"updatedAt":"20/06/2026 01:38:31"},{"type":"methane","price":1.599,"self":false,"updatedAt":"20/06/2026 01:38:31"}]},{"id":"11868","lat":45.08322840777434,"lon":7.4988570846558105,"name":"RIVOLI-VIA SUSA 299 IPER","brand":"Q8","address":"VIA SUSA  IPER 299, RIVOLI, TO","prices":[{"type":"petrol","price":1.755,"self":true,"updatedAt":"20/06/2026 01:38:30"},{"type":"diesel","price":1.885,"self":true,"updatedAt":"20/06/2026 01:38:30"}]},{"id":"8005","lat":45.08425206810673,"lon":7.468675359802205,"name":"ferroni s.a.s","brand":"Esso","address":"VIA S.S.25  KM 18+360 SNC 10090, ROSTA (TO)  10090, ROSTA, TO","prices":[{"type":"petrol","price":1.819,"self":true,"updatedAt":"19/06/2026 08:03:42"},{"type":"diesel","price":1.939,"self":true,"updatedAt":"19/06/2026 08:03:42"}]},{"id":"42563","lat":45.135087675359564,"lon":7.385594438156545,"name":"TAMOIL \"ENERGY STORE\"","brand":"Tamoil","address":"VIA ROMA 68 10040, RUBIANA, TO","prices":[{"type":"petrol","price":1.769,"self":true,"updatedAt":"20/06/2026 23:39:38"},{"type":"diesel","price":1.899,"self":true,"updatedAt":"20/06/2026 23:39:38"}]},{"id":"37697","lat":45.026809222179836,"lon":7.451518289744854,"name":"AC by acla","brand":"Pompe Bianche","address":"Statale 589 dei Laghi di Avigliana, Km. 21+890, dir. Trana - 10090, SANGANO, TO","prices":[{"type":"petrol","price":2.019,"self":false,"updatedAt":"20/06/2026 23:29:26"},{"type":"diesel","price":2.119,"self":false,"updatedAt":"20/06/2026 23:29:26"}]},{"id":"6395","lat":45.093830001540255,"lon":7.37498927116394,"name":"SANT'AMBROGIO DI TORINO S.S. 25 KM 25+600","brand":"Q8","address":"S.S. 25 KM 25+600 SNC 10057, SANT'AMBROGIO DI TORINO, TO","prices":[{"type":"petrol","price":1.755,"self":true,"updatedAt":"20/06/2026 01:38:22"},{"type":"diesel","price":1.885,"self":true,"updatedAt":"20/06/2026 01:38:22"}]},{"id":"4338","lat":45.107619936339134,"lon":7.282916307449341,"name":"C.B. S.N.C. Di Bosco Pier Guido e C.","brand":"Agip Eni","address":"Statale 25 del Moncenisio, Km. 33+240, dir. Susa - 10050, SANT'ANTONINO DI SUSA, TO","prices":[{"type":"petrol","price":1.819,"self":true,"updatedAt":"21/06/2026 06:44:06"},{"type":"diesel","price":1.914,"self":true,"updatedAt":"21/06/2026 06:44:05"}]},{"id":"49425","lat":45.10791627079242,"lon":7.278998505798925,"name":"Sant'antonino","brand":"Esso","address":"S.S.25KM 33 + 520 SNC 10050, SANT'ANTONINO DI SUSA, TO","prices":[{"type":"petrol","price":1.849,"self":true,"updatedAt":"19/06/2026 07:01:36"},{"type":"diesel","price":1.969,"self":true,"updatedAt":"19/06/2026 07:01:36"}]},{"id":"40045","lat":45.13203174257948,"lon":7.488698735833168,"name":"Val della Torre Torino","brand":"Api-Ip","address":"VIA ALPIGNANO 130 10040, VAL DELLA TORRE, TO","prices":[{"type":"petrol","price":1.799,"self":true,"updatedAt":"20/06/2026 09:10:43"},{"type":"diesel","price":1.919,"self":true,"updatedAt":"20/06/2026 09:10:43"},{"type":"lpg","price":0.779,"self":false,"updatedAt":"20/06/2026 09:10:43"}]},{"id":"5583","lat":45.11146116853868,"lon":7.250790148973465,"name":"MONDO S.N.C.","brand":"Api-Ip","address":"VIA NAZIONALE MONCENISIO 25 35 10050, VILLAR FOCCHIARDO, TO","prices":[{"type":"petrol","price":1.804,"self":true,"updatedAt":"19/06/2026 12:17:47"},{"type":"diesel","price":1.974,"self":true,"updatedAt":"19/06/2026 12:17:47"}]},{"id":"32751","lat":45.047971597346454,"lon":7.489583194255829,"name":"STAZIONE DI SERVIZIO SOCOGAS DI PANI VIRGILIO","brand":"Socogas","address":"VIA RIVOLI 71 10090, VILLARBASSE, TO","prices":[{"type":"petrol","price":1.909,"self":true,"updatedAt":"15/06/2026 12:38:53"},{"type":"diesel","price":1.999,"self":true,"updatedAt":"15/06/2026 12:38:53"}]},{"id":"60374","lat":45.23894016276122,"lon":7.380975961985739,"name":"RETITALIA VIU'","brand":"Retitalia","address":"S.P. VIù 14+001 10156, VIÙ, TO","prices":[{"type":"petrol","price":1.777,"self":true,"updatedAt":"20/06/2026 17:04:12"},{"type":"diesel","price":1.897,"self":true,"updatedAt":"20/06/2026 17:04:12"}]}]