[{"id":"53812","lat":45.4433,"lon":12.3315,"name":"ESSO","brand":"Esso","address":"Viale Brigata Treviso 3  31100, TREVISO, TV","prices":[{"type":"petrol","price":1.779,"self":true,"updatedAt":"25/06/2026 01:05:14"},{"type":"diesel","price":1.869,"self":true,"updatedAt":"25/06/2026 01:05:14"}]},{"id":"57631","lat":45.445481,"lon":12.477722,"name":"CAVALLINO TREPORTI - VIA FAUSTA 400","brand":"Q8","address":"Via Fausta 400 30013, CAVALLINO-TREPORTI, VE","prices":[{"type":"petrol","price":1.769,"self":true,"updatedAt":"24/06/2026 07:49:35"},{"type":"diesel","price":1.879,"self":true,"updatedAt":"24/06/2026 07:49:35"}]},{"id":"43894","lat":45.45665387947507,"lon":12.474130641410284,"name":"ENZO STEFANO SAS","brand":"Agip Eni","address":"VIA FAUSTA 186/C 30013, CAVALLINO-TREPORTI, VE","prices":[{"type":"petrol","price":1.83,"self":true,"updatedAt":"25/06/2026 00:27:51"},{"type":"diesel","price":1.919,"self":true,"updatedAt":"25/06/2026 00:27:51"},{"type":"lpg","price":0.85,"self":false,"updatedAt":"25/06/2026 00:27:51"}]},{"id":"55964","lat":45.48493597336379,"lon":12.27347195148468,"name":"01482 ESSO VENEZIA","brand":"Esso","address":"Via Martiri della Libertà 400 30173, VENEZIA, VE","prices":[{"type":"petrol","price":1.779,"self":true,"updatedAt":"25/06/2026 00:37:48"},{"type":"diesel","price":1.869,"self":true,"updatedAt":"25/06/2026 00:37:48"}]},{"id":"59892","lat":45.479477,"lon":12.27063,"name":"3743 MESTRE","brand":"Agip Eni","address":"VIA ORLANDA - MESTRE  6 6  30173, VENEZIA, VE","prices":[{"type":"petrol","price":1.809,"self":true,"updatedAt":"25/06/2026 01:12:11"},{"type":"diesel","price":1.909,"self":true,"updatedAt":"25/06/2026 01:12:11"}]},{"id":"57127","lat":45.4870035,"lon":12.295911,"name":"Beyfin","brand":"Beyfin","address":"Via Orlanda 40 30173, VENEZIA, VE","prices":[{"type":"petrol","price":1.849,"self":true,"updatedAt":"24/06/2026 07:48:08"},{"type":"diesel","price":1.969,"self":true,"updatedAt":"24/06/2026 07:48:08"},{"type":"lpg","price":0.849,"self":false,"updatedAt":"24/06/2026 07:48:08"}]},{"id":"16235","lat":45.4869374,"lon":12.4162692,"name":"DISTRIBUTORE LAGUNA NORD S.A.S","brand":"Api-Ip","address":"Via San Mauro 545 30142, VENEZIA, VE","prices":[{"type":"petrol","price":2.087,"self":false,"updatedAt":"17/06/2026 19:06:47"},{"type":"diesel","price":2.256,"self":false,"updatedAt":"17/06/2026 19:06:47"}]},{"id":"52505","lat":45.26372581523431,"lon":12.300744238906987,"name":"ENI","brand":"Agip Eni","address":"VIA BUSETTI 1 30126, VENEZIA, VE","prices":[{"type":"petrol","price":1.823,"self":true,"updatedAt":"25/06/2026 00:56:13"},{"type":"diesel","price":1.909,"self":true,"updatedAt":"25/06/2026 00:56:13"}]},{"id":"31659","lat":45.441442312090324,"lon":12.315643653273582,"name":"eni iclera scc 13723","brand":"Agip Eni","address":"Statale 11 Padana Superiore, Km. 426, dir. Padova  30175, VENEZIA, VE","prices":[{"type":"petrol","price":1.854,"self":true,"updatedAt":"25/06/2026 00:56:32"},{"type":"diesel","price":1.959,"self":true,"updatedAt":"25/06/2026 00:56:32"}]},{"id":"26981","lat":45.41834401057597,"lon":12.257879935204983,"name":"Fra.Ro.Ma (Nautico)","brand":"Pompe Bianche","address":"VIA MORANZANI 92 30176, VENEZIA, VE","prices":[{"type":"petrol","price":1.999,"self":true,"updatedAt":"20/06/2026 07:21:59"},{"type":"diesel","price":1.488,"self":true,"updatedAt":"20/06/2026 07:21:59"}]},{"id":"62302","lat":45.4872548,"lon":12.2977439,"name":"ip","brand":"Itala Petroli","address":"Via Orlanda 12 30173, VENEZIA, VE","prices":[{"type":"petrol","price":1.759,"self":true,"updatedAt":"23/06/2026 10:22:22"},{"type":"diesel","price":1.839,"self":true,"updatedAt":"23/06/2026 10:22:22"}]},{"id":"59913","lat":45.4832143,"lon":12.2548596,"name":"IP - via Forte Marghera","brand":"Api-Ip","address":"V. Forte Marghera 8 30175, VENEZIA, VE","prices":[{"type":"petrol","price":1.769,"self":false,"updatedAt":"24/06/2026 21:17:50"},{"type":"diesel","price":1.849,"self":false,"updatedAt":"24/06/2026 21:17:50"}]},{"id":"49938","lat":45.41992274370922,"lon":12.375304698944092,"name":"Lido Energia","brand":"Api-Ip","address":"RIVIERA SAN NICOLO' S.N.C. 30126, VENEZIA, VE","prices":[{"type":"petrol","price":2.062,"self":true,"updatedAt":"24/06/2026 07:21:26"},{"type":"diesel","price":2.246,"self":true,"updatedAt":"24/06/2026 07:21:26"}]},{"id":"49937","lat":45.41816955580655,"lon":12.369902729988098,"name":"Lido Energia","brand":"Api-Ip","address":"RIVIERA S.M. ELISABETTA 15 30126, VENEZIA, VE","prices":[{"type":"petrol","price":1.952,"self":true,"updatedAt":"24/06/2026 07:20:48"},{"type":"diesel","price":2.032,"self":true,"updatedAt":"24/06/2026 07:20:48"}]},{"id":"58833","lat":45.474811215401424,"lon":12.268629507647724,"name":"MESTRE LOC. SAN GIULIANO","brand":"Api-Ip","address":"Via Orlanda 2  30173, VENEZIA, VE","prices":[{"type":"petrol","price":1.749,"self":true,"updatedAt":"24/06/2026 09:07:50"},{"type":"diesel","price":1.829,"self":true,"updatedAt":"24/06/2026 13:03:58"},{"type":"lpg","price":0.819,"self":false,"updatedAt":"24/06/2026 09:07:50"}]},{"id":"56191","lat":45.4808145449566,"lon":12.2723172605037,"name":"SHELL VENEZIA - MESTRE VIA ORLANDA, 6","brand":"Shell","address":"ORLANDA -LOC. SAN GIULIANO 6/E 30173, VENEZIA, VE","prices":[{"type":"petrol","price":1.749,"self":true,"updatedAt":"25/06/2026 07:38:10"},{"type":"diesel","price":1.829,"self":true,"updatedAt":"25/06/2026 07:38:10"}]},{"id":"21531","lat":45.40043442281949,"lon":12.360578468719496,"name":"STAZIONE ENI di Bertola Carla","brand":"Agip Eni","address":"VIA SANDRO GALLO 161/L, 30126 161/L 30126, VENEZIA, VE","prices":[{"type":"petrol","price":1.829,"self":true,"updatedAt":"24/06/2026 23:56:33"},{"type":"diesel","price":1.919,"self":true,"updatedAt":"24/06/2026 23:56:33"}]},{"id":"28688","lat":45.458743454852126,"lon":12.408436849290752,"name":"SUPERMERCATO VIGNOTTO","brand":"Api-Ip","address":"VIA DE LE MOTTE 106 30141, VENEZIA, VE","prices":[{"type":"petrol","price":2.239,"self":false,"updatedAt":"22/06/2026 08:36:12"},{"type":"diesel","price":2.34,"self":false,"updatedAt":"22/06/2026 08:36:12"}]},{"id":"37740","lat":45.44778929272681,"lon":12.3205521229238,"name":"TOTALERG BRUSSA MARCO","brand":"Api-Ip","address":"SESTIERE CANNAREGGIO - SACCA SAN GIROLAMO  30124, VENEZIA, VE","prices":[{"type":"petrol","price":2.209,"self":true,"updatedAt":"24/06/2026 08:46:08"},{"type":"diesel","price":2.309,"self":true,"updatedAt":"24/06/2026 08:46:08"}]},{"id":"45911","lat":45.48727826202622,"lon":12.254393438028728,"name":"VENEZIA - LOC. MESTRE VIALE SAN MARCO 108","brand":"Q8","address":"VIALE SAN MARCO 108 30173, VENEZIA, VE","prices":[{"type":"petrol","price":1.739,"self":true,"updatedAt":"24/06/2026 01:40:58"},{"type":"diesel","price":1.799,"self":true,"updatedAt":"24/06/2026 01:40:58"}]},{"id":"32531","lat":45.489330085470094,"lon":12.301783906745868,"name":"VENEZIA - MESTRE CAMPALTO","brand":"Api-Ip","address":"S.S. 14 KM. 5,878  30030, VENEZIA, VE","prices":[{"type":"petrol","price":1.769,"self":true,"updatedAt":"24/06/2026 09:07:44"},{"type":"diesel","price":1.849,"self":true,"updatedAt":"24/06/2026 13:03:55"}]},{"id":"16725","lat":45.445038395441614,"lon":12.336953803896904,"name":"VULCANO STEFANIA IMPIANTO CARBURANTI","brand":"Api-Ip","address":"CANNAREGIO - FRONTE CIVICO 5012/A 30131, VENEZIA, VE","prices":[{"type":"petrol","price":2.209,"self":true,"updatedAt":"24/06/2026 08:47:09"},{"type":"diesel","price":2.309,"self":true,"updatedAt":"24/06/2026 08:47:09"}]},{"id":"56865","lat":45.443394,"lon":12.331578,"name":"Agip Eni","brand":"Agip Eni","address":"VIALE VENEZIA 11/A 36022, CASSOLA, VI","prices":[{"type":"petrol","price":1.824,"self":true,"updatedAt":"25/06/2026 01:02:15"},{"type":"diesel","price":1.914,"self":true,"updatedAt":"25/06/2026 01:02:15"}]}]