[{"id":"56851","lat":45.4642035,"lon":9.189982,"name":"STAZIONE DI SERVIZIO IP DI SINGH HARJIT","brand":"Itala Petroli","address":"Via Orzinuovi 127  25125, BRESCIA, BS","prices":[{"type":"petrol","price":1.839,"self":true,"updatedAt":"26/06/2026 14:43:41"},{"type":"diesel","price":1.939,"self":true,"updatedAt":"26/06/2026 14:43:41"},{"type":"lpg","price":0.739,"self":false,"updatedAt":"26/06/2026 14:43:41"}]},{"id":"61308","lat":45.3443584,"lon":9.1652096,"name":"CASSANO ALL'IONIO SS 534 KM 15 LOC. STOMBI","brand":"Q8","address":"SS. 534 Km 15 Loc. Stombi  snc, CASSANO ALL'IONIO, CS","prices":[{"type":"petrol","price":1.829,"self":true,"updatedAt":"26/06/2026 16:38:28"},{"type":"diesel","price":1.885,"self":true,"updatedAt":"26/06/2026 16:38:28"}]},{"id":"60692","lat":45.4710024,"lon":9.0869686,"name":"PETROL ELITE SRL","brand":"Pompe Bianche","address":"Corso Achille Spatuzzi snc 03047, SAN GIORGIO A LIRI, FR","prices":[{"type":"petrol","price":1.779,"self":true,"updatedAt":"26/06/2026 07:35:12"},{"type":"diesel","price":1.869,"self":true,"updatedAt":"26/06/2026 07:35:12"}]},{"id":"56357","lat":45.4642035,"lon":9.189982,"name":"Borgo Fornari","brand":"Q8","address":"Via Trento e Trieste s.n.  16019, RONCO SCRIVIA, GE","prices":[{"type":"petrol","price":1.819,"self":true,"updatedAt":"26/06/2026 08:41:59"},{"type":"diesel","price":1.859,"self":true,"updatedAt":"26/06/2026 08:41:59"}]},{"id":"61627","lat":45.4212006,"lon":9.23377,"name":"LENTATE SUL SEVESO - VIA BELLINI 8 - FRAZ. CANNAGO","brand":"Q8","address":"VIA BELLINI 8 - FRAZ.CANNAGO, LENTATE SUL SEVESO, MB","prices":[{"type":"petrol","price":1.799,"self":true,"updatedAt":"27/06/2026 07:40:57"},{"type":"diesel","price":1.919,"self":true,"updatedAt":"27/06/2026 07:40:57"}]},{"id":"61148","lat":45.4688768,"lon":9.2012544,"name":"ARLUNO VIA PER TURBIGO 71","brand":"Q8","address":"VIA PER TURBIGO  71, ARLUNO, MI","prices":[{"type":"petrol","price":1.789,"self":true,"updatedAt":"24/06/2026 07:49:01"},{"type":"diesel","price":1.889,"self":true,"updatedAt":"24/06/2026 07:49:01"}]},{"id":"59978","lat":45.40243,"lon":9.15579,"name":"ASSAGO","brand":"Pompe Bianche","address":"VIA VALLEAMBROSIA  42 20090, ASSAGO, MI","prices":[{"type":"petrol","price":1.839,"self":true,"updatedAt":"26/06/2026 18:54:11"},{"type":"diesel","price":1.889,"self":true,"updatedAt":"26/06/2026 18:54:11"}]},{"id":"3503","lat":45.40091753316316,"lon":9.12240854232789,"name":"ASSAGO OVEST","brand":"Q8","address":"Autostrada A50 TANG.LE OVEST DI MILANO,  Km. 18.723, dir. Ovest 20094, ASSAGO, MI","prices":[{"type":"petrol","price":1.879,"self":true,"updatedAt":"26/06/2026 10:38:13"},{"type":"diesel","price":1.979,"self":true,"updatedAt":"26/06/2026 10:38:13"},{"type":"methane","price":1.699,"self":false,"updatedAt":"26/06/2026 10:38:13"},{"type":"lpg","price":0.899,"self":false,"updatedAt":"26/06/2026 10:38:13"}]},{"id":"35453","lat":45.40764743259112,"lon":9.127376228570938,"name":"Gf Gomme di Caso Giuseppe","brand":"Esso","address":"VIA VERDI  1 20090, ASSAGO, MI","prices":[{"type":"petrol","price":1.806,"self":true,"updatedAt":"26/06/2026 08:59:51"},{"type":"diesel","price":1.896,"self":true,"updatedAt":"26/06/2026 08:59:51"}]},{"id":"20036","lat":45.47633252022859,"lon":9.004018641802986,"name":"BAREGGIO V.LE GIOVANNI XXIII","brand":"Q8","address":"V.LE GIOVANNI XXIII  20010, BAREGGIO, MI","prices":[{"type":"petrol","price":1.799,"self":true,"updatedAt":"26/06/2026 01:39:37"},{"type":"diesel","price":1.879,"self":true,"updatedAt":"26/06/2026 01:39:37"}]},{"id":"5395","lat":45.336304,"lon":9.107922,"name":"2468 BINASCO","brand":"Agip Eni","address":"s.s. dei Giovi 35  20082, BINASCO, MI","prices":[{"type":"petrol","price":1.809,"self":true,"updatedAt":"27/06/2026 00:33:02"},{"type":"diesel","price":1.889,"self":true,"updatedAt":"27/06/2026 07:36:32"}]},{"id":"36882","lat":45.32593130984735,"lon":9.103082120418549,"name":"Maffione Roberto","brand":"Esso","address":"Statale 35 dei Giovi, Km. 106.4, dir. Milano - 20082, BINASCO, MI","prices":[{"type":"petrol","price":1.836,"self":true,"updatedAt":"26/06/2026 07:51:48"},{"type":"diesel","price":1.946,"self":true,"updatedAt":"26/06/2026 07:51:48"}]},{"id":"14825","lat":45.328116896621324,"lon":9.103008359670639,"name":"TAMOIL Galli e Gandini snc","brand":"Tamoil","address":"Statale 35 dei Giovi, Km. 103.5, dir. pavia - 20082, BINASCO, MI","prices":[{"type":"petrol","price":1.799,"self":true,"updatedAt":"27/06/2026 00:26:32"},{"type":"diesel","price":1.899,"self":true,"updatedAt":"27/06/2026 00:26:32"}]},{"id":"50598","lat":45.423370319274255,"lon":9.112099677988772,"name":"12165 – Buccinasco","brand":"Agip Eni","address":"Via dei Mille, BUCCINASCO, MI","prices":[{"type":"petrol","price":1.819,"self":true,"updatedAt":"27/06/2026 00:15:41"},{"type":"diesel","price":1.889,"self":true,"updatedAt":"27/06/2026 07:38:45"}]},{"id":"6446","lat":45.42506003957641,"lon":9.111736337434422,"name":"BUCCINASCO VIA DEI MILLE ANG.VIA PALERMO","brand":"Q8","address":"VIA DEI MILLE ANG.VIA PALERMO SNC 20094, BUCCINASCO, MI","prices":[{"type":"petrol","price":1.839,"self":true,"updatedAt":"27/06/2026 01:39:46"},{"type":"diesel","price":1.919,"self":true,"updatedAt":"27/06/2026 01:39:46"}]},{"id":"61053","lat":45.415529825163084,"lon":9.119879469327712,"name":"IP BUCCINASCO NI003443","brand":"Api-Ip","address":"Via Piemonte 22  20090, BUCCINASCO, MI","prices":[{"type":"petrol","price":1.86,"self":true,"updatedAt":"27/06/2026 00:03:04"},{"type":"diesel","price":1.949,"self":true,"updatedAt":"27/06/2026 00:03:04"}]},{"id":"58874","lat":45.42402,"lon":9.11718,"name":"KEROPETROL SPA BUCCINASCO","brand":"KEROPETROL","address":"Viale Lombardia 29  20090, BUCCINASCO, MI","prices":[{"type":"petrol","price":1.839,"self":true,"updatedAt":"24/06/2026 16:37:19"},{"type":"diesel","price":1.939,"self":true,"updatedAt":"24/06/2026 16:37:19"}]},{"id":"46709","lat":45.42677413759954,"lon":9.125681348661374,"name":"PITSTOP","brand":"Api-Ip","address":"VIA DELLA COSTITUZIONE SNC 20090, BUCCINASCO, MI","prices":[{"type":"petrol","price":1.819,"self":true,"updatedAt":"25/06/2026 12:29:09"},{"type":"diesel","price":1.939,"self":true,"updatedAt":"25/06/2026 12:29:09"}]},{"id":"40102","lat":45.4155438573614,"lon":9.119849490780325,"name":"totalerg","brand":"Api-Ip","address":"via piemonte  22 20090, BUCCINASCO, MI","prices":[{"type":"petrol","price":1.86,"self":true,"updatedAt":"19/06/2026 17:14:08"},{"type":"diesel","price":1.949,"self":true,"updatedAt":"19/06/2026 17:14:08"}]},{"id":"61149","lat":45.4688768,"lon":9.2012544,"name":"BUSTO GAROLFO SP 109","brand":"Q8","address":"SP 109, BUSTO GAROLFO, MI","prices":[{"type":"petrol","price":1.779,"self":true,"updatedAt":"26/06/2026 07:44:17"},{"type":"diesel","price":1.849,"self":true,"updatedAt":"26/06/2026 07:44:17"},{"type":"lpg","price":0.699,"self":false,"updatedAt":"26/06/2026 07:44:17"}]},{"id":"35527","lat":45.33501724587982,"lon":9.245054434457415,"name":"X3CNG Italia srl - Carpiano","brand":"Pompe Bianche","address":"SP 40, km 11 + 500  20080, CARPIANO, MI","prices":[{"type":"methane","price":1.599,"self":false,"updatedAt":"26/06/2026 22:00:16"}]},{"id":"56024","lat":45.4426486223408,"lon":9.09855991601944,"name":"AGIP /ENI","brand":"Agip Eni","address":"DELLA REPUBBLICA 29 20090, CESANO BOSCONE, MI","prices":[{"type":"petrol","price":1.809,"self":true,"updatedAt":"27/06/2026 00:34:49"},{"type":"diesel","price":1.899,"self":true,"updatedAt":"27/06/2026 07:48:18"}]},{"id":"22889","lat":45.442177417026116,"lon":9.101775101852354,"name":"CESANO BOSCONE - ISONZO","brand":"Api-Ip","address":"VIA ISONZO  20090, CESANO BOSCONE, MI","prices":[{"type":"petrol","price":1.759,"self":true,"updatedAt":"26/06/2026 19:04:06"},{"type":"diesel","price":1.839,"self":true,"updatedAt":"26/06/2026 19:04:06"}]},{"id":"6441","lat":45.441693573646596,"lon":9.097773485319522,"name":"CESANO BOSCONE VIA MILANO 30","brand":"Q8","address":"VIA MILANO 30 20029, CESANO BOSCONE, MI","prices":[{"type":"petrol","price":1.744,"self":true,"updatedAt":"27/06/2026 01:39:37"},{"type":"diesel","price":1.869,"self":true,"updatedAt":"27/06/2026 01:39:37"}]},{"id":"7966","lat":45.45087613011354,"lon":9.084234233868415,"name":"ITALIANA PETROLI SPA","brand":"Api-Ip","address":"via pasubio 52 20090, CESANO BOSCONE, MI","prices":[{"type":"petrol","price":1.918,"self":false,"updatedAt":"26/06/2026 06:17:01"},{"type":"diesel","price":2.188,"self":false,"updatedAt":"26/06/2026 06:17:01"}]},{"id":"61346","lat":45.4478922,"lon":9.0874557,"name":"pv 44002","brand":"Retitalia","address":"Via Pasubio 5, CESANO BOSCONE, MI","prices":[{"type":"petrol","price":1.769,"self":true,"updatedAt":"26/06/2026 23:58:30"},{"type":"diesel","price":1.879,"self":true,"updatedAt":"26/06/2026 23:58:30"}]},{"id":"62701","lat":45.4437382,"lon":9.00074404,"name":"7278","brand":"Tamoil","address":"SP. 114 KM., CISLIANO, MI","prices":[{"type":"petrol","price":1.779,"self":true,"updatedAt":"26/06/2026 11:58:45"},{"type":"diesel","price":1.879,"self":true,"updatedAt":"26/06/2026 11:58:45"}]},{"id":"59393","lat":45.492827461199916,"lon":9.028449605238743,"name":"105117 CORNAREDO","brand":"Esso","address":"GIUSEPPE GARIBALDI 176 20007, CORNAREDO, MI","prices":[{"type":"petrol","price":1.819,"self":true,"updatedAt":"26/06/2026 07:42:40"},{"type":"diesel","price":1.899,"self":true,"updatedAt":"26/06/2026 07:42:40"}]},{"id":"49789","lat":45.49735782137639,"lon":9.026622191118351,"name":"57560 – Cornaredo","brand":"Agip Eni","address":"GARIBALDI / BRERA  20010, CORNAREDO, MI","prices":[{"type":"petrol","price":1.824,"self":true,"updatedAt":"27/06/2026 00:27:58"},{"type":"diesel","price":1.889,"self":true,"updatedAt":"27/06/2026 07:57:11"}]},{"id":"62591","lat":45.4781244,"lon":9.0341257,"name":"CORNAREDO VIA MERENDI SNC","brand":"Q8","address":"Via Merendi SNC 20007, CORNAREDO, MI","prices":[{"type":"petrol","price":1.814,"self":true,"updatedAt":"23/06/2026 07:12:58"},{"type":"diesel","price":1.914,"self":true,"updatedAt":"23/06/2026 07:12:58"}]},{"id":"59596","lat":45.49931127036905,"lon":9.02058823699953,"name":"IP","brand":"Api-Ip","address":"viale repubblica  135 20007, CORNAREDO, MI","prices":[{"type":"petrol","price":1.839,"self":true,"updatedAt":"25/06/2026 16:28:01"},{"type":"diesel","price":1.909,"self":true,"updatedAt":"25/06/2026 16:28:01"}]},{"id":"60680","lat":45.44227788699044,"lon":9.114360809326172,"name":"CORSICO","brand":"Api-Ip","address":"Via Sebastiano Caboto 39  20094, CORSICO, MI","prices":[{"type":"petrol","price":1.769,"self":true,"updatedAt":"26/06/2026 11:05:29"},{"type":"diesel","price":1.879,"self":true,"updatedAt":"26/06/2026 11:05:29"}]},{"id":"52010","lat":45.427667845830236,"lon":9.096809774637222,"name":"Eni","brand":"Agip Eni","address":"STRADA PROV. 59 KM 6+ 500 VIGEVANESE  20094, CORSICO, MI","prices":[{"type":"petrol","price":1.809,"self":true,"updatedAt":"27/06/2026 00:32:03"},{"type":"diesel","price":1.909,"self":true,"updatedAt":"27/06/2026 00:32:03"}]},{"id":"14630","lat":45.429669364959146,"lon":9.07955914735794,"name":"ENI","brand":"Agip Eni","address":"DELLE INDUSTRIE 8 20094, CORSICO, MI","prices":[{"type":"petrol","price":1.819,"self":true,"updatedAt":"27/06/2026 00:44:52"},{"type":"diesel","price":1.909,"self":true,"updatedAt":"27/06/2026 00:44:52"}]},{"id":"51616","lat":45.42940728250129,"lon":9.080855393913513,"name":"ENI CHIAPPERINI DOMENICO","brand":"Agip Eni","address":"VIALE DELL'INDUSTRIA 11 20094, CORSICO, MI","prices":[{"type":"petrol","price":1.819,"self":true,"updatedAt":"27/06/2026 00:44:32"},{"type":"diesel","price":1.909,"self":true,"updatedAt":"27/06/2026 07:04:06"}]},{"id":"63107","lat":45.4355,"lon":9.097349999999999,"name":"ESSO - CORSICO","brand":"Esso","address":"PROV.LE VIGEVANESE 43  20094, CORSICO, MI","prices":[{"type":"petrol","price":1.759,"self":true,"updatedAt":"24/06/2026 08:50:53"},{"type":"diesel","price":1.859,"self":true,"updatedAt":"24/06/2026 08:50:53"}]},{"id":"49646","lat":45.42748549649036,"lon":9.107805170091412,"name":"esso corsico","brand":"Esso","address":"STRADA PROVINCIALE NUOVA VIGEVANESE  43 20094, CORSICO, MI","prices":[{"type":"petrol","price":1.899,"self":true,"updatedAt":"09/06/2026 07:37:49"},{"type":"diesel","price":1.999,"self":true,"updatedAt":"09/06/2026 07:37:49"}]},{"id":"57240","lat":45.427458001748384,"lon":9.107828630814833,"name":"GARAGE TORETTO DI DANI AHMED","brand":"Esso","address":"DELLA RESISTENZA 17 20094, CORSICO, MI","prices":[{"type":"petrol","price":1.859,"self":true,"updatedAt":"25/06/2026 12:15:15"},{"type":"diesel","price":1.999,"self":true,"updatedAt":"25/06/2026 12:15:15"}]},{"id":"9555","lat":45.43753338858258,"lon":9.091576784849167,"name":"stazione servizio Q8","brand":"Q8","address":"VIA BENVENUTO CELLINI 17 20094, CORSICO, MI","prices":[{"type":"petrol","price":1.849,"self":true,"updatedAt":"26/06/2026 07:39:43"},{"type":"diesel","price":1.969,"self":true,"updatedAt":"26/06/2026 07:39:43"}]},{"id":"31149","lat":45.44143818013955,"lon":9.043217510857176,"name":"ENI PERRONE LUCA","brand":"Agip Eni","address":"EUROPA 45 20047, CUSAGO, MI","prices":[{"type":"petrol","price":1.829,"self":true,"updatedAt":"27/06/2026 00:37:52"},{"type":"diesel","price":1.909,"self":true,"updatedAt":"26/06/2026 22:10:02"}]},{"id":"38249","lat":45.4398930783233,"lon":9.043574631214142,"name":"KEROPETROL SPA CUSAGO GPL","brand":"KEROPETROL","address":"VIA VIA RITA LEVI MONTALCINI ANG. VIALE EUROPA 1 20090, CUSAGO (MI) 1 20047, CUSAGO, MI","prices":[{"type":"lpg","price":0.789,"self":false,"updatedAt":"22/06/2026 09:02:18"}]},{"id":"36486","lat":45.40547037767837,"lon":9.014215841889381,"name":"2412 Gaggiano","brand":"Agip Eni","address":"Via Nuova Vigevanese Km9  20083, GAGGIANO, MI","prices":[{"type":"petrol","price":1.819,"self":true,"updatedAt":"27/06/2026 00:23:20"},{"type":"diesel","price":1.889,"self":true,"updatedAt":"27/06/2026 07:44:13"}]},{"id":"57310","lat":45.386031276101996,"lon":9.027917841622823,"name":"IP","brand":"Itala Petroli","address":"S.P. 38 KM 2,3 SNC 20083, GAGGIANO, MI","prices":[{"type":"petrol","price":1.769,"self":true,"updatedAt":"26/06/2026 08:28:20"},{"type":"diesel","price":1.869,"self":true,"updatedAt":"26/06/2026 08:28:20"}]},{"id":"8529","lat":45.327743448159964,"lon":9.13102000951767,"name":"ENI","brand":"Agip Eni","address":"S. P. 40 KM. 2+140  20084, LACCHIARELLA, MI","prices":[{"type":"petrol","price":1.805,"self":true,"updatedAt":"27/06/2026 00:10:03"},{"type":"diesel","price":1.904,"self":true,"updatedAt":"26/06/2026 18:28:10"}]},{"id":"22415","lat":45.32249812774933,"lon":9.18689712882042,"name":"LACCHIARELLA","brand":"Agip Eni","address":"VIA CASCINA  NUOVA  - LOC.VILLAMAGGIORE  20084, LACCHIARELLA, MI","prices":[{"type":"petrol","price":1.804,"self":true,"updatedAt":"26/06/2026 09:30:32"},{"type":"diesel","price":1.894,"self":true,"updatedAt":"26/06/2026 15:50:49"},{"type":"methane","price":1.599,"self":false,"updatedAt":"25/06/2026 09:30:31"},{"type":"lpg","price":0.712,"self":false,"updatedAt":"25/06/2026 09:33:53"}]},{"id":"25864","lat":45.32787359987159,"lon":9.147142915344261,"name":"LACCHIARELLA","brand":"Api-Ip","address":"SP BINASCO/MELEGNANO  20084, LACCHIARELLA, MI","prices":[{"type":"petrol","price":1.799,"self":true,"updatedAt":"26/06/2026 09:11:54"},{"type":"diesel","price":1.899,"self":true,"updatedAt":"26/06/2026 09:11:54"}]},{"id":"30532","lat":45.32782008418855,"lon":9.139428734779358,"name":"Stazione di Servizio di Blondy sas","brand":"Esso","address":"strada Provinciale 40 20084, LACCHIARELLA, MI","prices":[{"type":"petrol","price":1.806,"self":true,"updatedAt":"24/06/2026 07:44:23"},{"type":"diesel","price":1.906,"self":true,"updatedAt":"24/06/2026 07:44:23"}]},{"id":"58181","lat":45.357258,"lon":9.23371,"name":"12418  LOCATE DI TRIULZI","brand":"Agip Eni","address":"S.S. 412 - KM 5+0,75  SNC, LOCATE DI TRIULZI, MI","prices":[{"type":"petrol","price":1.829,"self":true,"updatedAt":"27/06/2026 00:29:27"},{"type":"diesel","price":1.889,"self":true,"updatedAt":"27/06/2026 07:59:57"}]},{"id":"54046","lat":45.35651,"lon":9.2329,"name":"EGI-2GO Triulzi","brand":"Esso","address":"SS 412 KM 5+083 20085, LOCATE DI TRIULZI, MI","prices":[{"type":"petrol","price":1.909,"self":true,"updatedAt":"10/06/2026 18:05:07"},{"type":"diesel","price":2.029,"self":true,"updatedAt":"10/06/2026 18:05:07"},{"type":"lpg","price":0.779,"self":false,"updatedAt":"10/06/2026 18:05:07"}]},{"id":"63121","lat":45.3564494158714,"lon":9.233059825082707,"name":"ESSO - LOCATE DI TRIULZI","brand":"Esso","address":"SPexSS412 della Val Tidone  20085, LOCATE DI TRIULZI, MI","prices":[{"type":"petrol","price":1.779,"self":true,"updatedAt":"25/06/2026 09:20:50"},{"type":"diesel","price":1.869,"self":true,"updatedAt":"25/06/2026 09:20:50"},{"type":"lpg","price":0.759,"self":false,"updatedAt":"25/06/2026 09:20:50"}]},{"id":"61151","lat":45.46887679999998,"lon":9.202971013769522,"name":"MAGENTA CORSO EUROPA","brand":"Q8","address":"Corso Europa  20122, MAGENTA, MI","prices":[{"type":"petrol","price":1.789,"self":true,"updatedAt":"25/06/2026 08:09:06"},{"type":"diesel","price":1.889,"self":true,"updatedAt":"25/06/2026 08:09:06"},{"type":"lpg","price":0.799,"self":false,"updatedAt":"25/06/2026 08:09:06"}]},{"id":"37031","lat":45.4995522401146,"lon":9.239910761376905,"name":"ESSO Davide Agazzi","brand":"Esso","address":"Via Palmanova 85 20132, MILANO, MI","prices":[{"type":"petrol","price":1.759,"self":true,"updatedAt":"26/06/2026 11:43:51"},{"type":"diesel","price":1.859,"self":true,"updatedAt":"26/06/2026 11:43:51"}]},{"id":"58460","lat":45.491888115553095,"lon":9.15558077117005,"name":"105069 MI - VLE CERTOSA","brand":"Esso","address":"CERTOSA 2 20149, MILANO, MI","prices":[{"type":"petrol","price":1.899,"self":true,"updatedAt":"09/06/2026 15:53:46"},{"type":"diesel","price":2.04,"self":true,"updatedAt":"09/06/2026 15:53:46"}]},{"id":"62614","lat":45.46731913607559,"lon":9.137496886434002,"name":"106212 MI V REMBRANDT","brand":"Esso","address":"REMBRANDT 13 20147, MILANO, MI","prices":[{"type":"petrol","price":1.799,"self":true,"updatedAt":"26/06/2026 09:06:43"},{"type":"diesel","price":1.899,"self":true,"updatedAt":"26/06/2026 09:06:43"}]},{"id":"56869","lat":45.46786392739129,"lon":9.1418407,"name":"106221 MILANO - VELASQUEZ","brand":"Esso","address":"VELASQUEZ DIEGO 30 20148, MILANO, MI","prices":[{"type":"petrol","price":1.899,"self":true,"updatedAt":"09/06/2026 06:35:37"},{"type":"diesel","price":1.999,"self":true,"updatedAt":"09/06/2026 06:35:37"}]},{"id":"58458","lat":45.44745007081275,"lon":9.170412180068453,"name":"106222 MI - VLE LIGURIA","brand":"Esso","address":"LIGURIA 12 20143, MILANO, MI","prices":[{"type":"petrol","price":1.889,"self":true,"updatedAt":"09/06/2026 07:37:10"},{"type":"diesel","price":1.999,"self":true,"updatedAt":"09/06/2026 07:37:10"}]},{"id":"56673","lat":45.46306065958484,"lon":9.113184677512486,"name":"106224 MI FORZE ARMATE","brand":"Esso","address":"DELLE FORZE ARMATE 226 20152, MILANO, MI","prices":[{"type":"petrol","price":1.899,"self":true,"updatedAt":"09/06/2026 08:01:21"},{"type":"diesel","price":1.999,"self":true,"updatedAt":"09/06/2026 08:01:21"}]},{"id":"57319","lat":45.486275,"lon":9.229569,"name":"12327 MILANO PORPORA","brand":"Agip Eni","address":"Via N. A. Porpora 133  20131, MILANO, MI","prices":[{"type":"petrol","price":1.799,"self":true,"updatedAt":"27/06/2026 00:33:41"},{"type":"diesel","price":1.879,"self":true,"updatedAt":"27/06/2026 07:50:23"}]},{"id":"58579","lat":45.498016,"lon":9.191784,"name":"2222 MILANO","brand":"Agip Eni","address":"Via Gioacchino Murat 14  20159, MILANO, MI","prices":[{"type":"petrol","price":1.799,"self":true,"updatedAt":"27/06/2026 00:36:39"},{"type":"diesel","price":1.879,"self":true,"updatedAt":"27/06/2026 07:46:27"}]},{"id":"35560","lat":45.435904471365184,"lon":9.231637716293335,"name":"2227","brand":"Tamoil","address":"via Cassinis  20139, MILANO, MI","prices":[{"type":"petrol","price":1.739,"self":true,"updatedAt":"27/06/2026 00:22:38"},{"type":"diesel","price":1.819,"self":true,"updatedAt":"27/06/2026 00:22:38"}]},{"id":"26124","lat":45.426572655581325,"lon":9.202767759561539,"name":"2227 MILANO RIPAMONTI","brand":"Agip Eni","address":"VIA RIPAMONTI GIUSEPPE 270 20141, MILANO, MI","prices":[{"type":"petrol","price":1.784,"self":true,"updatedAt":"26/06/2026 23:46:48"},{"type":"diesel","price":1.819,"self":true,"updatedAt":"27/06/2026 06:06:20"}]},{"id":"38980","lat":45.46010315272357,"lon":9.099088982208968,"name":"2373 Forze Armate","brand":"Agip Eni","address":"Via Forze Armate 322 20100, MILANO, MI","prices":[{"type":"petrol","price":1.799,"self":true,"updatedAt":"27/06/2026 00:11:01"},{"type":"diesel","price":1.879,"self":true,"updatedAt":"27/06/2026 07:59:54"}]},{"id":"33859","lat":45.49462245388579,"lon":9.124250047885198,"name":"2391","brand":"Tamoil","address":"URUGUAY 4 20151, MILANO, MI","prices":[{"type":"petrol","price":1.769,"self":true,"updatedAt":"26/06/2026 23:19:07"},{"type":"diesel","price":1.849,"self":true,"updatedAt":"26/06/2026 23:19:07"}]},{"id":"42071","lat":45.483209917219774,"lon":9.159289379629286,"name":"2906","brand":"Tamoil","address":"ARONA 14 20149, MILANO, MI","prices":[{"type":"petrol","price":1.829,"self":true,"updatedAt":"27/06/2026 00:36:27"}]},{"id":"50472","lat":45.46385121778768,"lon":9.157091482149573,"name":"2910","brand":"Tamoil","address":"ELBA 20/22 20144, MILANO, MI","prices":[{"type":"petrol","price":1.959,"self":true,"updatedAt":"27/06/2026 00:43:23"}]},{"id":"61580","lat":45.48812,"lon":9.196477,"name":"52106 MILANO","brand":"Agip Eni","address":"VIA GALVANI  34, MILANO, MI","prices":[{"type":"petrol","price":1.799,"self":true,"updatedAt":"27/06/2026 00:26:09"},{"type":"diesel","price":1.879,"self":true,"updatedAt":"27/06/2026 07:54:12"}]},{"id":"44949","lat":45.44527996387759,"lon":9.120575503794953,"name":"56132 Lorenteggio","brand":"Agip Eni","address":"via Lorenteggio 258 20146, MILANO, MI","prices":[{"type":"petrol","price":1.799,"self":true,"updatedAt":"27/06/2026 00:33:21"},{"type":"diesel","price":1.879,"self":true,"updatedAt":"27/06/2026 07:48:35"}]},{"id":"59871","lat":45.45732,"lon":9.170947,"name":"56232 MILANO","brand":"Agip Eni","address":"VIALE PAPINIANO  54, MILANO, MI","prices":[{"type":"petrol","price":1.819,"self":true,"updatedAt":"27/06/2026 00:26:44"},{"type":"diesel","price":1.879,"self":true,"updatedAt":"27/06/2026 07:50:40"}]},{"id":"58933","lat":45.45248,"lon":9.248271,"name":"56936 MILANO","brand":"Agip Eni","address":"Via Mecenate 78  20138, MILANO, MI","prices":[{"type":"petrol","price":1.799,"self":true,"updatedAt":"26/06/2026 00:04:37"},{"type":"diesel","price":1.879,"self":true,"updatedAt":"27/06/2026 07:50:21"}]},{"id":"39230","lat":45.490452747240305,"lon":9.206961362032757,"name":"6116","brand":"Tamoil","address":"LUNIGIANA 1 20121, MILANO, MI","prices":[{"type":"petrol","price":1.769,"self":true,"updatedAt":"26/06/2026 13:40:10"},{"type":"diesel","price":1.889,"self":true,"updatedAt":"26/06/2026 23:50:18"}]},{"id":"33860","lat":45.48929604349778,"lon":9.223775554850135,"name":"8051","brand":"Tamoil","address":"DURANTE 0 20131, MILANO, MI","prices":[{"type":"petrol","price":1.779,"self":true,"updatedAt":"27/06/2026 00:17:16"},{"type":"diesel","price":1.859,"self":true,"updatedAt":"27/06/2026 00:17:16"}]},{"id":"34486","lat":45.47316727709888,"lon":9.199446514248848,"name":"8052","brand":"Tamoil","address":"PALESTRO 16 20121, MILANO, MI","prices":[{"type":"petrol","price":1.949,"self":true,"updatedAt":"27/06/2026 00:42:04"}]},{"id":"32685","lat":45.46025389751213,"lon":9.095978106943448,"name":"8056","brand":"Tamoil","address":"DELLE FORZE ARMATE 353 20152, MILANO, MI","prices":[{"type":"petrol","price":1.779,"self":true,"updatedAt":"27/06/2026 00:14:42"}]},{"id":"57161","lat":45.4775122,"lon":9.21150103,"name":"8133","brand":"Tamoil","address":"Via G.B. Morgagni snc 20129, MILANO, MI","prices":[{"type":"petrol","price":1.949,"self":true,"updatedAt":"26/06/2026 23:23:36"}]},{"id":"47183","lat":45.47795827726888,"lon":9.223964594897586,"name":"8212","brand":"Tamoil","address":"ROMAGNA 0 20133, MILANO, MI","prices":[{"type":"petrol","price":1.949,"self":true,"updatedAt":"26/06/2026 23:18:08"},{"type":"diesel","price":2.129,"self":true,"updatedAt":"27/06/2026 00:41:53"}]},{"id":"51884","lat":45.49523063971136,"lon":9.147980285700825,"name":"8276","brand":"Tamoil","address":"VARESINA 16 20155, MILANO, MI","prices":[{"type":"petrol","price":1.739,"self":true,"updatedAt":"26/06/2026 12:00:30"},{"type":"diesel","price":1.899,"self":true,"updatedAt":"26/06/2026 23:20:31"}]},{"id":"41747","lat":45.47351559322374,"lon":9.228963976306773,"name":"8484","brand":"Tamoil","address":"BOTTICELLI 23 20133, MILANO, MI","prices":[{"type":"petrol","price":1.799,"self":true,"updatedAt":"26/06/2026 23:21:40"}]},{"id":"39229","lat":45.48899688784542,"lon":9.210427477955818,"name":"8499","brand":"Tamoil","address":"BRIANZA 32 20127, MILANO, MI","prices":[{"type":"petrol","price":1.949,"self":true,"updatedAt":"27/06/2026 00:43:59"},{"type":"diesel","price":1.999,"self":true,"updatedAt":"27/06/2026 00:43:59"}]},{"id":"43307","lat":45.461189653928066,"lon":9.163037999717517,"name":"8500","brand":"Tamoil","address":"AQUILEJA 6 20144, MILANO, MI","prices":[{"type":"petrol","price":1.949,"self":true,"updatedAt":"26/06/2026 12:01:20"}]},{"id":"53903","lat":45.49532,"lon":9.22863,"name":"AHMED KHALED","brand":"Api-Ip","address":"PADOVA 93 20127, MILANO, MI","prices":[{"type":"petrol","price":1.799,"self":true,"updatedAt":"23/06/2026 17:53:31"},{"type":"diesel","price":1.899,"self":true,"updatedAt":"23/06/2026 17:53:31"}]},{"id":"25196","lat":45.443521330949515,"lon":9.172314840475451,"name":"Albertini Davide","brand":"Agip Eni","address":"SERAFINO BELFANTI 7 20143, MILANO, MI","prices":[{"type":"petrol","price":1.799,"self":true,"updatedAt":"26/06/2026 23:17:38"},{"type":"diesel","price":1.899,"self":true,"updatedAt":"26/06/2026 23:17:38"}]},{"id":"48003","lat":45.43747179997314,"lon":9.191922058283826,"name":"Antonini","brand":"Esso","address":"VIA ANTONINI GIACOMO 31 20141, MILANO, MI","prices":[{"type":"petrol","price":1.879,"self":true,"updatedAt":"09/06/2026 12:58:56"},{"type":"diesel","price":2.039,"self":true,"updatedAt":"09/06/2026 12:58:56"}]},{"id":"9455","lat":45.480722585938246,"lon":9.143325932339053,"name":"Autoservice Lotto srl","brand":"Agip Eni","address":"PIAZZALE LOTTO LORENZO 14 20148, MILANO, MI","prices":[{"type":"petrol","price":1.799,"self":true,"updatedAt":"26/06/2026 23:47:19"},{"type":"diesel","price":1.899,"self":true,"updatedAt":"26/06/2026 17:34:01"}]},{"id":"55520","lat":45.4776425,"lon":9.2190195,"name":"Autosilo Noe S.r.L","brand":"KEROPETROL","address":"NOE' ENRICO 10 20133, MILANO, MI","prices":[{"type":"petrol","price":1.907,"self":true,"updatedAt":"19/06/2026 10:33:42"},{"type":"diesel","price":2.034,"self":true,"updatedAt":"19/06/2026 10:33:42"}]},{"id":"60049","lat":45.48089230000001,"lon":9.0985158,"name":"BEYFIN SPA","brand":"Beyfin","address":"Via Novara 290 20153, MILANO, MI","prices":[{"type":"lpg","price":0.759,"self":false,"updatedAt":"26/06/2026 23:33:20"}]},{"id":"14653","lat":45.438391529127045,"lon":9.15306679140167,"name":"CALI MARCO","brand":"Agip Eni","address":"VIA SANTA RITA DA CASCIA 64 20143, MILANO, MI","prices":[{"type":"petrol","price":1.799,"self":true,"updatedAt":"27/06/2026 00:10:01"},{"type":"diesel","price":1.909,"self":true,"updatedAt":"27/06/2026 00:10:01"}]},{"id":"62578","lat":45.421129,"lon":9.158784,"name":"CANTALUPA EST","brand":"Api-Ip","address":"Autostrada A7 MILANO-SERRAVALLE,  Km. 133, dir. Serravalle 20142, MILANO, MI","prices":[{"type":"petrol","price":1.799,"self":true,"updatedAt":"26/06/2026 17:01:38"},{"type":"diesel","price":1.899,"self":true,"updatedAt":"26/06/2026 17:01:38"},{"type":"lpg","price":0.734,"self":false,"updatedAt":"26/06/2026 09:03:53"}]},{"id":"7744","lat":45.419169304938904,"lon":9.155162572860718,"name":"CANTALUPA OVEST","brand":"Q8","address":"Autostrada A7 MILANO-SERRAVALLE, Km. 1, dir. Genova - 20142, MILANO, MI","prices":[{"type":"petrol","price":1.879,"self":true,"updatedAt":"25/06/2026 14:02:06"},{"type":"diesel","price":1.979,"self":true,"updatedAt":"25/06/2026 14:02:06"},{"type":"lpg","price":0.899,"self":false,"updatedAt":"25/06/2026 14:02:06"}]},{"id":"13674","lat":45.46135052116656,"lon":9.207011958022463,"name":"CARSETTI DANIELE","brand":"KEROPETROL","address":"PIAZZA CINQUE GIORNATE 6 20129, MILANO, MI","prices":[{"type":"petrol","price":2.145,"self":true,"updatedAt":"26/06/2026 09:28:56"},{"type":"diesel","price":2.229,"self":true,"updatedAt":"26/06/2026 09:28:56"}]},{"id":"19309","lat":45.4809998968155,"lon":9.215075829696616,"name":"Chiosco Piazzale Bacone","brand":"Api-Ip","address":"PIAZZALE FRANCESCO BACONE 9 20129, MILANO, MI","prices":[{"type":"petrol","price":1.819,"self":true,"updatedAt":"26/06/2026 06:13:23"},{"type":"diesel","price":1.919,"self":true,"updatedAt":"26/06/2026 06:13:23"}]},{"id":"58027","lat":45.4983748255244,"lon":9.16736090906778,"name":"COIL MILANO VIA BODIO","brand":"COIL","address":"Viale L. Bodio 94  20158, MILANO, MI","prices":[{"type":"petrol","price":1.755,"self":true,"updatedAt":"26/06/2026 00:23:36"}]},{"id":"48256","lat":45.46743806112899,"lon":9.22551964885327,"name":"CPP-MI-ONGARO","brand":"Pompe Bianche","address":"VIA DALL'ONGARO FRANCESCO 31/A 20133, MILANO, MI","prices":[{"type":"petrol","price":1.829,"self":true,"updatedAt":"26/06/2026 23:15:04"},{"type":"diesel","price":1.919,"self":true,"updatedAt":"26/06/2026 23:15:04"}]},{"id":"61188","lat":45.45477475899825,"lon":9.132370596572862,"name":"CPP-MILANO.PRIMATICCIO","brand":"Api-Ip","address":"PRIMATICCIO FRANCESCO 101 20147, MILANO, MI","prices":[{"type":"petrol","price":1.789,"self":true,"updatedAt":"26/06/2026 23:33:10"},{"type":"diesel","price":1.899,"self":true,"updatedAt":"26/06/2026 23:33:10"}]},{"id":"24574","lat":45.49700334513586,"lon":9.183774902313644,"name":"DI BIASE MARIO","brand":"Agip Eni","address":"Via Valtellina 69 20159, MILANO, MI","prices":[{"type":"petrol","price":1.819,"self":true,"updatedAt":"27/06/2026 00:44:21"},{"type":"diesel","price":1.899,"self":true,"updatedAt":"27/06/2026 00:44:21"}]},{"id":"11045","lat":45.480331119218796,"lon":9.165475233060988,"name":"Distributore Eni di Beltrami Alessandro","brand":"Agip Eni","address":"CORSO SEMPIONE 35 20145, MILANO, MI","prices":[{"type":"petrol","price":1.859,"self":true,"updatedAt":"26/06/2026 23:22:33"},{"type":"diesel","price":1.954,"self":true,"updatedAt":"26/06/2026 18:56:22"}]},{"id":"51617","lat":45.49135848302495,"lon":9.225633588623609,"name":"EGI-2GO MI LEONCAVALLO","brand":"Esso","address":"VIA LEONCAVALLO RUGGERO 25 20131, MILANO, MI","prices":[{"type":"petrol","price":1.759,"self":true,"updatedAt":"27/06/2026 07:21:49"},{"type":"diesel","price":1.839,"self":true,"updatedAt":"27/06/2026 07:21:49"}]},{"id":"10843","lat":45.43895358051159,"lon":9.126183986663818,"name":"ENI","brand":"Agip Eni","address":"VIA LODOVICO IL MORO 187 20142, MILANO, MI","prices":[{"type":"petrol","price":1.799,"self":true,"updatedAt":"27/06/2026 00:44:31"},{"type":"diesel","price":1.899,"self":true,"updatedAt":"27/06/2026 00:44:31"}]},{"id":"33261","lat":45.43743628505193,"lon":9.192886745368924,"name":"ENI","brand":"Agip Eni","address":"G. Antonini 35 20141, MILANO, MI","prices":[{"type":"petrol","price":1.799,"self":true,"updatedAt":"26/06/2026 23:27:51"},{"type":"diesel","price":1.899,"self":true,"updatedAt":"26/06/2026 16:32:09"}]},{"id":"16409","lat":45.454618855751555,"lon":9.152678782803378,"name":"eni","brand":"Agip Eni","address":"viale misurata 56 20146, MILANO, MI","prices":[{"type":"petrol","price":1.809,"self":true,"updatedAt":"27/06/2026 00:26:16"},{"type":"diesel","price":1.899,"self":true,"updatedAt":"27/06/2026 05:52:13"}]},{"id":"29785","lat":45.43586208587777,"lon":9.201027005910873,"name":"eni","brand":"Agip Eni","address":"VIA GIUSEPPE RIPAMONTI 159 20141, MILANO, MI","prices":[{"type":"petrol","price":1.799,"self":true,"updatedAt":"26/06/2026 23:47:03"},{"type":"diesel","price":1.899,"self":true,"updatedAt":"26/06/2026 18:52:24"}]},{"id":"52167","lat":45.46325188444417,"lon":9.133735637959262,"name":"eni","brand":"Agip Eni","address":"VIA DELLE FORZE ARMATE 34 20147, MILANO, MI","prices":[{"type":"petrol","price":1.809,"self":true,"updatedAt":"26/06/2026 23:53:12"},{"type":"diesel","price":1.894,"self":true,"updatedAt":"26/06/2026 19:26:11"}]},{"id":"42445","lat":45.48025486800432,"lon":9.101179093122482,"name":"ENI 2194","brand":"Agip Eni","address":"VIA NOVARA 286 20153, MILANO, MI","prices":[{"type":"petrol","price":1.819,"self":true,"updatedAt":"26/06/2026 23:40:02"},{"type":"diesel","price":1.899,"self":true,"updatedAt":"26/06/2026 19:14:17"},{"type":"methane","price":1.561,"self":false,"updatedAt":"26/06/2026 23:40:02"}]},{"id":"51477","lat":45.45635631479666,"lon":9.131961457672103,"name":"ENI 55946 PRIMATICCIO","brand":"Agip Eni","address":"VIA PRIMATICCIO 150 20146, MILANO, MI","prices":[{"type":"petrol","price":1.784,"self":true,"updatedAt":"26/06/2026 23:32:50"},{"type":"diesel","price":1.839,"self":true,"updatedAt":"26/06/2026 20:02:08"}]},{"id":"13013","lat":45.44686414740791,"lon":9.201176578419336,"name":"eni agip","brand":"Agip Eni","address":"PIAZZA TRENTO 38 20135, MILANO, MI","prices":[{"type":"petrol","price":1.799,"self":true,"updatedAt":"27/06/2026 00:35:29"},{"type":"diesel","price":1.909,"self":true,"updatedAt":"27/06/2026 00:35:29"}]},{"id":"57496","lat":45.49780832365627,"lon":9.166985750198364,"name":"Eni Bodio","brand":"Agip Eni","address":"BODIO 39/A 20158, MILANO, MI","prices":[{"type":"petrol","price":1.799,"self":true,"updatedAt":"26/06/2026 23:30:41"},{"type":"diesel","price":1.899,"self":true,"updatedAt":"26/06/2026 17:32:07"}]},{"id":"39911","lat":45.45662726916326,"lon":9.122362812025472,"name":"ENI CALI' MARCO INGANNI","brand":"Agip Eni","address":"VIA INGANNI ANGELO 99 20147, MILANO, MI","prices":[{"type":"petrol","price":1.809,"self":true,"updatedAt":"27/06/2026 00:35:59"},{"type":"diesel","price":1.899,"self":true,"updatedAt":"27/06/2026 00:35:59"}]},{"id":"26196","lat":45.44399107857339,"lon":9.223742569311526,"name":"eni mimmo","brand":"Agip Eni","address":"piazzale bologna 35 20139, MILANO, MI","prices":[{"type":"petrol","price":1.799,"self":true,"updatedAt":"27/06/2026 00:23:21"},{"type":"diesel","price":1.909,"self":true,"updatedAt":"27/06/2026 00:23:21"}]},{"id":"52499","lat":45.45131231049126,"lon":9.241202312031739,"name":"ENISTATION MANTOVANI STEFANO","brand":"Agip Eni","address":"VIA SALOMONE 61 20138, MILANO, MI","prices":[{"type":"petrol","price":1.799,"self":true,"updatedAt":"27/06/2026 00:26:35"},{"type":"diesel","price":1.899,"self":true,"updatedAt":"27/06/2026 00:26:35"}]},{"id":"57553","lat":45.496387,"lon":9.172852,"name":"ESSO","brand":"Esso","address":"JENNER EDOARDO 69 20159, MILANO, MI","prices":[{"type":"petrol","price":1.839,"self":true,"updatedAt":"26/06/2026 08:46:48"},{"type":"diesel","price":1.959,"self":true,"updatedAt":"26/06/2026 08:46:48"}]},{"id":"16284","lat":45.43611954106764,"lon":9.233007924536878,"name":"Esso","brand":"Esso","address":"VIA CASSINIS GIOVANNI BATTISTA 31 20139, MILANO, MI","prices":[{"type":"petrol","price":1.769,"self":true,"updatedAt":"26/06/2026 11:11:26"},{"type":"diesel","price":1.859,"self":true,"updatedAt":"26/06/2026 11:11:26"}]},{"id":"38996","lat":45.44529611804138,"lon":9.162408196295132,"name":"Esso","brand":"Esso","address":"Viale Cassala 33 20143, MILANO, MI","prices":[{"type":"petrol","price":1.789,"self":true,"updatedAt":"23/06/2026 08:22:35"},{"type":"diesel","price":1.879,"self":true,"updatedAt":"23/06/2026 08:22:35"}]},{"id":"62072","lat":45.459952,"lon":9.1127052,"name":"ESSO","brand":"Esso","address":"DELLE FORZE ARMATE 189 20152, MILANO, MI","prices":[{"type":"petrol","price":1.789,"self":true,"updatedAt":"26/06/2026 07:34:09"},{"type":"diesel","price":1.889,"self":true,"updatedAt":"26/06/2026 07:34:09"}]},{"id":"60615","lat":45.425717586169625,"lon":9.202956285640726,"name":"ESSO","brand":"Esso","address":"GIUSEPPE RIPAMONTI 286 20141, MILANO, MI","prices":[{"type":"petrol","price":1.789,"self":true,"updatedAt":"24/06/2026 17:36:47"},{"type":"diesel","price":1.889,"self":true,"updatedAt":"24/06/2026 17:36:47"}]},{"id":"63130","lat":45.437467,"lon":9.1919253,"name":"ESSO - MILANO ANTONINI","brand":"Esso","address":"Via Giacomo Antonini 29  20141, MILANO, MI","prices":[{"type":"petrol","price":1.789,"self":true,"updatedAt":"24/06/2026 12:30:45"},{"type":"diesel","price":1.869,"self":true,"updatedAt":"24/06/2026 12:30:45"}]},{"id":"63126","lat":45.48881979999999,"lon":9.1549246,"name":"ESSO - MILANO CERTOSA","brand":"Esso","address":"Viale Certosa 2  20155, MILANO, MI","prices":[{"type":"petrol","price":1.769,"self":true,"updatedAt":"25/06/2026 22:01:11"},{"type":"diesel","price":1.869,"self":true,"updatedAt":"25/06/2026 22:01:11"}]},{"id":"63134","lat":45.46080968792967,"lon":9.110626331650762,"name":"ESSO - MILANO FORZE ARMATE","brand":"Esso","address":"Via delle Forze Armate  20152, MILANO, MI","prices":[{"type":"petrol","price":1.789,"self":true,"updatedAt":"23/06/2026 08:41:24"},{"type":"diesel","price":1.889,"self":true,"updatedAt":"23/06/2026 08:41:24"}]},{"id":"62335","lat":45.48693814506385,"lon":9.19872771772787,"name":"ESSO - MILANO GALVANI","brand":"Esso","address":"Via Luigi Galvani 18  20124, MILANO, MI","prices":[{"type":"petrol","price":1.769,"self":true,"updatedAt":"25/06/2026 08:11:06"},{"type":"diesel","price":1.869,"self":true,"updatedAt":"25/06/2026 08:11:06"}]},{"id":"63133","lat":45.44371284270457,"lon":9.168736540579083,"name":"ESSO - MILANO LIGURIA","brand":"Esso","address":"Viale Liguria 12  20143, MILANO, MI","prices":[{"type":"petrol","price":1.789,"self":true,"updatedAt":"23/06/2026 11:00:46"},{"type":"diesel","price":1.879,"self":true,"updatedAt":"23/06/2026 11:00:46"}]},{"id":"63131","lat":45.44383008599655,"lon":9.116092619337559,"name":"ESSO - MILANO LORENTEGGO","brand":"Esso","address":"Via Lorenteggio 278  20152, MILANO, MI","prices":[{"type":"petrol","price":1.779,"self":true,"updatedAt":"25/06/2026 22:01:15"},{"type":"diesel","price":1.879,"self":true,"updatedAt":"23/06/2026 22:01:13"}]},{"id":"63132","lat":45.4676409,"lon":9.141847499999999,"name":"ESSO - MILANO P.LE. VELASQUEZ","brand":"Esso","address":"Piazzale Diego Velasquez 30  20148, MILANO, MI","prices":[{"type":"petrol","price":1.789,"self":true,"updatedAt":"23/06/2026 22:01:15"},{"type":"diesel","price":1.889,"self":true,"updatedAt":"23/06/2026 22:01:15"}]},{"id":"62143","lat":45.48633285824654,"lon":9.244296117480106,"name":"ESSO - MILANO ROMBON","brand":"Esso","address":"Via Rombon 50  20134, MILANO, MI","prices":[{"type":"petrol","price":1.789,"self":true,"updatedAt":"26/06/2026 08:50:47"},{"type":"diesel","price":1.869,"self":true,"updatedAt":"26/06/2026 08:50:47"}]},{"id":"12348","lat":45.4668634802216,"lon":9.166152693286449,"name":"galli agnese","brand":"KEROPETROL","address":"VIA ENRICO TOTI 2 20123, MILANO, MI","prices":[{"type":"petrol","price":2.135,"self":true,"updatedAt":"24/06/2026 16:49:20"},{"type":"diesel","price":2.242,"self":true,"updatedAt":"24/06/2026 16:49:20"}]},{"id":"44528","lat":45.450762000123,"lon":9.226208000123,"name":"garage del turchino","brand":"Api-Ip","address":"VIA MONTE CIMONE 9 20137, MILANO, MI","prices":[{"type":"petrol","price":1.819,"self":false,"updatedAt":"26/06/2026 17:09:39"},{"type":"diesel","price":1.919,"self":false,"updatedAt":"26/06/2026 17:09:39"}]},{"id":"28709","lat":45.47100158386513,"lon":9.199553826276997,"name":"GIARRUSSO-VIA MARINA","brand":"KEROPETROL","address":"VIA MARINA SNC 20121, MILANO, MI","prices":[{"type":"petrol","price":1.999,"self":true,"updatedAt":"20/06/2026 09:33:43"},{"type":"diesel","price":2.199,"self":true,"updatedAt":"20/06/2026 09:33:43"}]},{"id":"56658","lat":45.491855,"lon":9.162077,"name":"GNP MILANO","brand":"GNP","address":"CARACCIOLO 67 20155, MILANO, MI","prices":[{"type":"petrol","price":1.817,"self":true,"updatedAt":"26/06/2026 11:44:08"},{"type":"diesel","price":1.937,"self":true,"updatedAt":"26/06/2026 11:44:08"}]},{"id":"46920","lat":45.44339571090068,"lon":9.11859018898349,"name":"GPL METANO","brand":"Pompe Bianche","address":"VIA LORENTEGGIO 0263 20152, MILANO, MI","prices":[{"type":"methane","price":1.679,"self":false,"updatedAt":"22/06/2026 14:44:17"},{"type":"lpg","price":0.789,"self":false,"updatedAt":"22/06/2026 14:44:17"}]},{"id":"12804","lat":45.43076618915102,"lon":9.177996218204498,"name":"GRIFO","brand":"Pompe Bianche","address":"PIAZZA ABBIATEGRASSO 7 20142, MILANO, MI","prices":[{"type":"petrol","price":1.769,"self":true,"updatedAt":"26/06/2026 07:47:36"},{"type":"diesel","price":1.859,"self":true,"updatedAt":"26/06/2026 07:47:36"}]},{"id":"51454","lat":45.4661988417483,"lon":9.226785811163149,"name":"IP","brand":"Api-Ip","address":"DALL'ONGARO 12/14 20133, MILANO, MI","prices":[{"type":"petrol","price":1.829,"self":true,"updatedAt":"26/06/2026 07:38:03"},{"type":"diesel","price":1.919,"self":true,"updatedAt":"26/06/2026 07:38:03"}]},{"id":"56142","lat":45.4713,"lon":9.1919,"name":"IP","brand":"Api-Ip","address":"Via Giuseppe Ripamonti 567 20142, MILANO, MI","prices":[{"type":"petrol","price":1.829,"self":true,"updatedAt":"20/06/2026 19:26:04"},{"type":"diesel","price":1.919,"self":true,"updatedAt":"20/06/2026 19:26:03"}]},{"id":"56141","lat":45.4713,"lon":9.1919,"name":"IP","brand":"Api-Ip","address":"Via Giuseppe Ripamonti 567 20142, MILANO, MI","prices":[{"type":"petrol","price":1.819,"self":true,"updatedAt":"20/06/2026 19:25:34"},{"type":"diesel","price":1.919,"self":true,"updatedAt":"20/06/2026 19:25:34"}]},{"id":"35098","lat":45.490856190876734,"lon":9.237339422106743,"name":"IP","brand":"Api-Ip","address":"Piazza Udine 2 20132, MILANO, MI","prices":[{"type":"petrol","price":1.789,"self":true,"updatedAt":"26/06/2026 16:13:04"},{"type":"diesel","price":1.889,"self":true,"updatedAt":"26/06/2026 16:13:04"}]},{"id":"62010","lat":45.49737,"lon":9.14542,"name":"IP ACCURSIO","brand":"Api-Ip","address":"ACCURSIO FRANCESCO 4 20155, MILANO, MI","prices":[{"type":"petrol","price":1.819,"self":true,"updatedAt":"23/06/2026 17:23:21"},{"type":"diesel","price":1.919,"self":true,"updatedAt":"23/06/2026 17:23:21"}]},{"id":"17894","lat":45.4644384579492,"lon":9.199945403805714,"name":"IP API","brand":"Api-Ip","address":"VIA VISCONTI DI MODRONE 12 20122, MILANO, MI","prices":[{"type":"petrol","price":1.819,"self":true,"updatedAt":"26/06/2026 09:16:31"},{"type":"diesel","price":1.949,"self":true,"updatedAt":"26/06/2026 09:16:31"}]},{"id":"52529","lat":45.44920754498186,"lon":9.18585579198226,"name":"ip esposito giovanni","brand":"Api-Ip","address":"via castelbarco 3 20136, MILANO, MI","prices":[{"type":"petrol","price":1.789,"self":false,"updatedAt":"24/06/2026 11:59:57"},{"type":"diesel","price":1.889,"self":false,"updatedAt":"24/06/2026 11:59:57"}]},{"id":"48957","lat":45.48545304043279,"lon":9.130037800853707,"name":"IP SANT'ELIA","brand":"Api-Ip","address":"VIA ANTONIO SANT'ELIA  3/P 20148, MILANO, MI","prices":[{"type":"petrol","price":1.829,"self":true,"updatedAt":"24/06/2026 09:02:20"},{"type":"diesel","price":1.919,"self":true,"updatedAt":"24/06/2026 09:02:20"}]},{"id":"60793","lat":45.49697733174472,"lon":9.169085919857025,"name":"italiana petroli","brand":"Api-Ip","address":"MURATORI LODOVICO 38 20135, MILANO, MI","prices":[{"type":"petrol","price":1.959,"self":true,"updatedAt":"08/06/2026 14:21:09"},{"type":"diesel","price":2.039,"self":true,"updatedAt":"08/06/2026 14:21:09"}]},{"id":"52605","lat":45.3541888,"lon":9.207808,"name":"ITALIANA PETROLI SPA","brand":"Api-Ip","address":"VAL D'INTELVI 30 20142, MILANO, MI","prices":[{"type":"petrol","price":1.806,"self":false,"updatedAt":"26/06/2026 18:59:56"},{"type":"diesel","price":1.906,"self":false,"updatedAt":"26/06/2026 18:59:56"}]},{"id":"22258","lat":45.45689333051627,"lon":9.241093457850184,"name":"KEROPETROL","brand":"KEROPETROL","address":"piazza ovidio 1 20138, MILANO, MI","prices":[{"type":"petrol","price":1.819,"self":true,"updatedAt":"23/06/2026 18:38:31"},{"type":"diesel","price":1.919,"self":true,"updatedAt":"23/06/2026 18:38:32"}]},{"id":"54249","lat":45.483465,"lon":9.159966,"name":"KEROPETROL SPA - VIA ARONA","brand":"KEROPETROL","address":"ARONA, ANG. VIA CORLEONE SNC 20149, MILANO, MI","prices":[{"type":"petrol","price":1.819,"self":true,"updatedAt":"26/06/2026 14:34:02"},{"type":"diesel","price":1.919,"self":true,"updatedAt":"26/06/2026 14:34:02"}]},{"id":"44021","lat":45.48972019590044,"lon":9.169503304299155,"name":"KEROPETROL SPA PIAZZA PEREGO","brand":"KEROPETROL","address":"VIA P.ZZA PEREGO/ANG. VIA STILICONE 8 20154, MILANO (MI) 8 20154, MILANO, MI","prices":[{"type":"petrol","price":1.849,"self":true,"updatedAt":"25/06/2026 15:22:26"},{"type":"diesel","price":1.939,"self":true,"updatedAt":"25/06/2026 15:22:26"}]},{"id":"61864","lat":45.468209503270344,"lon":9.211420983968829,"name":"KEROPETROL SPA PIAZZA RISORGIMENTO","brand":"KEROPETROL","address":"P.za Risorgimento 9  20129, MILANO, MI","prices":[{"type":"petrol","price":1.929,"self":true,"updatedAt":"24/06/2026 14:07:19"},{"type":"diesel","price":2.029,"self":true,"updatedAt":"24/06/2026 14:07:19"}]},{"id":"61058","lat":45.47507,"lon":9.18812,"name":"KEROPETROL SPA SAN MARCO","brand":"KEROPETROL","address":"Via S. Marco 13  20121, MILANO, MI","prices":[{"type":"petrol","price":2.099,"self":true,"updatedAt":"25/06/2026 15:23:37"},{"type":"diesel","price":2.259,"self":true,"updatedAt":"25/06/2026 15:23:37"}]},{"id":"46361","lat":45.39868276090064,"lon":9.209726750850677,"name":"KEROPETROL SPA VIA RIPAMONTI","brand":"KEROPETROL","address":"VIA VIA RIPAMONTI 606 20141, MILANO (MI) 606 20141, MILANO, MI","prices":[{"type":"petrol","price":1.799,"self":true,"updatedAt":"25/06/2026 15:11:37"},{"type":"diesel","price":1.879,"self":true,"updatedAt":"25/06/2026 15:11:37"},{"type":"lpg","price":0.759,"self":false,"updatedAt":"25/06/2026 15:11:37"}]},{"id":"49777","lat":45.462782847828784,"lon":9.151634541268766,"name":"KEROPETROL VIA SARDEGNA","brand":"KEROPETROL","address":"VIA VIA SARDEGNA 0 20146, MILANO (MI) 28 20146, MILANO, MI","prices":[{"type":"petrol","price":1.789,"self":true,"updatedAt":"26/06/2026 15:42:49"},{"type":"diesel","price":1.899,"self":true,"updatedAt":"26/06/2026 15:42:49"}]},{"id":"55798","lat":45.463935160150655,"lon":9.223823190826879,"name":"KEROPETROL VIALE CAMPANIA","brand":"KEROPETROL","address":"CAMPANIA ANG. VIA MARCON 00 20133, MILANO, MI","prices":[{"type":"petrol","price":1.899,"self":true,"updatedAt":"25/06/2026 15:16:31"},{"type":"diesel","price":1.999,"self":true,"updatedAt":"25/06/2026 15:16:31"}]},{"id":"48647","lat":45.44387658650403,"lon":9.116153860118853,"name":"lorenteggio","brand":"Esso","address":"VIA LORENTEGGIO 278 20147, MILANO, MI","prices":[{"type":"petrol","price":1.849,"self":true,"updatedAt":"09/06/2026 16:05:56"},{"type":"diesel","price":1.979,"self":true,"updatedAt":"09/06/2026 16:05:56"}]},{"id":"17685","lat":45.44043293453808,"lon":9.172881224536923,"name":"MI SPEZIA","brand":"Api-Ip","address":"VIA SPEZIA 31 20142, MILANO, MI","prices":[{"type":"petrol","price":1.779,"self":true,"updatedAt":"26/06/2026 19:02:48"},{"type":"diesel","price":1.869,"self":true,"updatedAt":"26/06/2026 19:02:48"}]},{"id":"62573","lat":45.4478847,"lon":9.2236756,"name":"Miglior Gas","brand":"Pompe Bianche","address":"Via Tertulliano 86A  20137, MILANO, MI","prices":[{"type":"lpg","price":0.789,"self":false,"updatedAt":"26/06/2026 06:50:18"}]},{"id":"29211","lat":45.465493608063404,"lon":9.235323545843471,"name":"MILANO - CARDINALE MEZZOFANTI","brand":"Api-Ip","address":"VIA CARDINALE MEZZOFANTI 38 20133, MILANO, MI","prices":[{"type":"petrol","price":1.799,"self":true,"updatedAt":"26/06/2026 09:03:49"},{"type":"diesel","price":1.899,"self":true,"updatedAt":"26/06/2026 19:01:18"}]},{"id":"30186","lat":45.43269030000002,"lon":9.173614140475479,"name":"MILANO - CHIESA ROSSA","brand":"Api-Ip","address":"VIA  CHIESA ROSSA 41 20142, MILANO, MI","prices":[{"type":"petrol","price":1.779,"self":true,"updatedAt":"26/06/2026 19:03:01"},{"type":"diesel","price":1.869,"self":true,"updatedAt":"26/06/2026 19:03:01"}]},{"id":"24274","lat":45.460543269966024,"lon":9.134208046627009,"name":"MILANO - LEGIONI ROMANE","brand":"Api-Ip","address":"VIALE LEGIONI ROMANE  20147, MILANO, MI","prices":[{"type":"petrol","price":1.769,"self":true,"updatedAt":"26/06/2026 19:01:12"},{"type":"diesel","price":1.879,"self":true,"updatedAt":"26/06/2026 19:01:12"}]},{"id":"61997","lat":45.4368907,"lon":9.2139628,"name":"Milano - Marco D'Agrate","brand":"Api-Ip","address":"MARCO D'AGRATE 30 20139, MILANO, MI","prices":[{"type":"petrol","price":1.759,"self":true,"updatedAt":"26/06/2026 09:12:14"},{"type":"diesel","price":1.849,"self":true,"updatedAt":"26/06/2026 09:12:14"}]},{"id":"29212","lat":45.47614733814495,"lon":9.111775101852459,"name":"MILANO - NOVARA 169","brand":"Api-Ip","address":"VIA NOVARA  169 20147, MILANO, MI","prices":[{"type":"petrol","price":1.789,"self":true,"updatedAt":"26/06/2026 09:10:23"},{"type":"diesel","price":1.869,"self":true,"updatedAt":"26/06/2026 19:03:22"}]},{"id":"59927","lat":45.408155080312554,"lon":9.208450274588786,"name":"Milano - Ripamonti","brand":"Beyfin","address":"GIUSEPPE RIPAMONTI 483 20141, MILANO, MI","prices":[{"type":"petrol","price":1.769,"self":true,"updatedAt":"27/06/2026 00:31:35"},{"type":"diesel","price":1.849,"self":true,"updatedAt":"27/06/2026 00:31:35"},{"type":"methane","price":1.599,"self":false,"updatedAt":"27/06/2026 00:08:15"},{"type":"lpg","price":0.739,"self":false,"updatedAt":"27/06/2026 00:08:15"}]},{"id":"62053","lat":45.4477982,"lon":9.1842094,"name":"Milano - Tabacchi","brand":"Api-Ip","address":"Via Odoardo Tabacchi 32p 20136, MILANO, MI","prices":[{"type":"petrol","price":1.779,"self":true,"updatedAt":"26/06/2026 19:03:52"},{"type":"diesel","price":1.889,"self":true,"updatedAt":"26/06/2026 09:11:52"}]},{"id":"30114","lat":45.46037001431894,"lon":9.109656087766325,"name":"MILANO - VIA FORZE ARMATE 241","brand":"Q8","address":"VIA FORZE ARMATE 241 20151, MILANO, MI","prices":[{"type":"petrol","price":1.779,"self":true,"updatedAt":"27/06/2026 01:39:45"},{"type":"diesel","price":1.859,"self":true,"updatedAt":"27/06/2026 01:39:45"}]},{"id":"7260","lat":45.48313980009453,"lon":9.088782372789069,"name":"MILANO - VIA NOVARA 391","brand":"Q8","address":"VIA NOVARA 391 20147, MILANO, MI","prices":[{"type":"petrol","price":1.799,"self":true,"updatedAt":"25/06/2026 08:09:29"},{"type":"diesel","price":1.899,"self":true,"updatedAt":"25/06/2026 08:09:29"},{"type":"lpg","price":0.719,"self":false,"updatedAt":"25/06/2026 08:09:29"}]},{"id":"30890","lat":45.43946312005717,"lon":9.15255239444275,"name":"MILANO - VIA S.RITA 41","brand":"Q8","address":"VIA S.RITA 41 20143, MILANO, MI","prices":[{"type":"petrol","price":1.799,"self":true,"updatedAt":"23/06/2026 07:13:08"},{"type":"diesel","price":1.899,"self":true,"updatedAt":"23/06/2026 07:13:08"},{"type":"methane","price":1.679,"self":false,"updatedAt":"23/06/2026 07:13:08"}]},{"id":"29917","lat":45.436733877746,"lon":9.164610728836124,"name":"MILANO - VIGILIO FAMAGOSTA","brand":"Api-Ip","address":"VIA SAN VIGILIO Ang. VIA FAMAGOSTA SNC 20142, MILANO, MI","prices":[{"type":"petrol","price":1.779,"self":true,"updatedAt":"26/06/2026 19:01:14"},{"type":"diesel","price":1.869,"self":true,"updatedAt":"26/06/2026 19:01:14"}]},{"id":"60186","lat":45.461207806308074,"lon":9.120208591613777,"name":"MILANO 1","brand":"STOM","address":"Via delle Forze Armate 41/a 20147, MILANO, MI","prices":[{"type":"petrol","price":1.779,"self":true,"updatedAt":"25/06/2026 11:30:16"},{"type":"diesel","price":1.879,"self":true,"updatedAt":"25/06/2026 11:30:16"}]},{"id":"15888","lat":45.45184021105817,"lon":9.193965948556524,"name":"MILANO BEATRICE","brand":"Api-Ip","address":"VIALE BEATRICE D'ESTE 34A 20122, MILANO, MI","prices":[{"type":"petrol","price":1.839,"self":true,"updatedAt":"27/06/2026 07:20:49"},{"type":"diesel","price":1.939,"self":true,"updatedAt":"27/06/2026 07:20:49"}]},{"id":"62664","lat":45.43744467091187,"lon":9.156445432510395,"name":"MILANO FAMAGOSTA","brand":"Api-Ip","address":"FAMAGOSTA 9 20142, MILANO, MI","prices":[{"type":"petrol","price":1.769,"self":true,"updatedAt":"26/06/2026 17:52:23"},{"type":"diesel","price":1.849,"self":true,"updatedAt":"26/06/2026 17:52:23"}]},{"id":"36483","lat":45.450219195039544,"lon":9.096267685319503,"name":"Milano Gozzoli","brand":"Api-Ip","address":"Via Gozzoli 140 20152, MILANO, MI","prices":[{"type":"petrol","price":1.759,"self":true,"updatedAt":"26/06/2026 19:03:36"},{"type":"diesel","price":1.839,"self":true,"updatedAt":"26/06/2026 19:03:36"}]},{"id":"28631","lat":45.497327778686305,"lon":9.179879799485207,"name":"Milano Jenner","brand":"Api-Ip","address":"Viale Jenner 34 20159, MILANO, MI","prices":[{"type":"petrol","price":1.779,"self":true,"updatedAt":"26/06/2026 09:17:29"},{"type":"diesel","price":1.899,"self":true,"updatedAt":"26/06/2026 09:17:29"}]},{"id":"6436","lat":45.44512776366376,"lon":9.119872403704903,"name":"MILANO LORENTEGGIO 260","brand":"Q8","address":"LORENTEGGIO 260 20157, MILANO, MI","prices":[{"type":"petrol","price":1.789,"self":true,"updatedAt":"25/06/2026 01:40:46"},{"type":"diesel","price":1.889,"self":true,"updatedAt":"25/06/2026 01:40:46"}]},{"id":"45207","lat":45.45678067793206,"lon":9.072222709655762,"name":"MILANO PERTINI OIL","brand":"Q8","address":"Via Sandro Pertini 331/11 20152, MILANO, MI","prices":[{"type":"petrol","price":1.829,"self":true,"updatedAt":"25/06/2026 07:47:00"},{"type":"diesel","price":1.929,"self":true,"updatedAt":"25/06/2026 07:47:00"}]},{"id":"15890","lat":45.477935609703955,"lon":9.19595092535019,"name":"MILANO REPUBBLICA","brand":"Api-Ip","address":"PIAZZA DELLA REPUBBLICA 5 20124, MILANO, MI","prices":[{"type":"petrol","price":1.839,"self":true,"updatedAt":"26/06/2026 17:12:42"},{"type":"diesel","price":1.939,"self":true,"updatedAt":"26/06/2026 17:12:42"}]},{"id":"24848","lat":45.44351480077189,"lon":9.174114105557237,"name":"MILANO V.LE LIGURIA 42","brand":"Q8","address":"V.LE LIGURIA 42 20124, MILANO, MI","prices":[{"type":"petrol","price":1.779,"self":true,"updatedAt":"25/06/2026 01:40:46"},{"type":"diesel","price":1.869,"self":true,"updatedAt":"25/06/2026 01:40:46"}]},{"id":"39036","lat":45.482792928406525,"lon":9.147986993193626,"name":"Milano Veniere","brand":"Api-Ip","address":"via Veniere ang. via Scarampo snc 20148, MILANO, MI","prices":[{"type":"petrol","price":1.769,"self":true,"updatedAt":"26/06/2026 19:03:29"},{"type":"diesel","price":1.879,"self":true,"updatedAt":"26/06/2026 19:03:29"}]},{"id":"23872","lat":45.4574490020773,"lon":9.094877768122842,"name":"MILANO VIA BAGAROTTI 14/A","brand":"Q8","address":"VIA BAGAROTTI 14/A 20152, MILANO, MI","prices":[{"type":"petrol","price":1.779,"self":true,"updatedAt":"27/06/2026 01:39:31"},{"type":"diesel","price":1.859,"self":true,"updatedAt":"27/06/2026 01:39:31"}]},{"id":"46368","lat":45.473125880165085,"lon":9.244904802464134,"name":"MILANO VIA BISTOLFI/TRENTACOSTE","brand":"Q8","address":"VIA BISTOLFI/TRENTACOSTE  20134, MILANO, MI","prices":[{"type":"petrol","price":1.789,"self":true,"updatedAt":"27/06/2026 07:41:03"},{"type":"diesel","price":1.869,"self":true,"updatedAt":"27/06/2026 07:41:04"}]},{"id":"6437","lat":45.45898088643508,"lon":9.100626387171928,"name":"MILANO VIA CIVIDALE DEL FRIULI 6","brand":"Q8","address":"VIA CIVIDALE DEL FRIULI 6 20152, MILANO, MI","prices":[{"type":"petrol","price":1.779,"self":true,"updatedAt":"27/06/2026 01:39:36"},{"type":"diesel","price":1.859,"self":true,"updatedAt":"27/06/2026 01:39:36"}]},{"id":"24021","lat":45.48597388961089,"lon":9.080338598811295,"name":"Milano Via Novara","brand":"Api-Ip","address":"Via Novara 451/1 20153, MILANO, MI","prices":[{"type":"petrol","price":1.789,"self":true,"updatedAt":"26/06/2026 09:13:34"},{"type":"diesel","price":1.869,"self":true,"updatedAt":"26/06/2026 19:04:51"}]},{"id":"33178","lat":45.39810060124752,"lon":9.210631751589972,"name":"MILANO VIA RIPAMONTI 591","brand":"Q8","address":"VIA RIPAMONTI 591 20141, MILANO, MI","prices":[{"type":"petrol","price":1.779,"self":true,"updatedAt":"27/06/2026 01:39:36"},{"type":"diesel","price":1.829,"self":true,"updatedAt":"27/06/2026 01:39:36"}]},{"id":"61307","lat":45.4881442,"lon":9.236904,"name":"MILANO VIA RONCHI 21","brand":"Q8","address":"VIA RONCHI  21, MILANO, MI","prices":[{"type":"petrol","price":1.789,"self":true,"updatedAt":"27/06/2026 07:41:00"},{"type":"diesel","price":1.869,"self":true,"updatedAt":"27/06/2026 07:41:00"}]},{"id":"8725","lat":45.47182559595421,"lon":9.11729386686477,"name":"MILANO VIA S.GIUSTO 66","brand":"Q8","address":"VIA S.GIUSTO 66 20153, MILANO, MI","prices":[{"type":"petrol","price":1.779,"self":true,"updatedAt":"26/06/2026 01:39:48"},{"type":"diesel","price":1.879,"self":true,"updatedAt":"26/06/2026 01:39:48"}]},{"id":"39995","lat":45.49567328894979,"lon":9.195260256528854,"name":"Milano Viale Marche","brand":"Api-Ip","address":"viale Marche 36 10092, MILANO, MI","prices":[{"type":"petrol","price":1.779,"self":true,"updatedAt":"26/06/2026 09:10:40"},{"type":"diesel","price":1.899,"self":true,"updatedAt":"26/06/2026 09:10:40"}]},{"id":"6427","lat":45.433941401332625,"lon":9.19196700740963,"name":"MILANO VIRGINIO FERRARI 16","brand":"Q8","address":"VIRGINIO FERRARI 16 20142, MILANO, MI","prices":[{"type":"petrol","price":1.779,"self":true,"updatedAt":"27/06/2026 01:39:29"},{"type":"diesel","price":1.829,"self":true,"updatedAt":"27/06/2026 01:39:29"}]},{"id":"11708","lat":45.445631990602784,"lon":9.161465889549277,"name":"MILANO-VIA CASSALA 31","brand":"Q8","address":"VIA CASSALA 31 20143, MILANO, MI","prices":[{"type":"petrol","price":1.779,"self":true,"updatedAt":"25/06/2026 01:40:52"},{"type":"diesel","price":1.869,"self":true,"updatedAt":"25/06/2026 01:40:52"}]},{"id":"11702","lat":45.49525381995993,"lon":9.113351720237688,"name":"MILANO-VIA CECHOV 44","brand":"Q8","address":"VIA CECHOV 44 20151, MILANO, MI","prices":[{"type":"petrol","price":1.789,"self":true,"updatedAt":"27/06/2026 01:39:40"},{"type":"diesel","price":1.849,"self":true,"updatedAt":"27/06/2026 01:39:40"}]},{"id":"11704","lat":45.48899555700437,"lon":9.140903440475427,"name":"MILANO-VIA DE GASPERI","brand":"Q8","address":"VIA DE GASPERI S/N 20151, MILANO, MI","prices":[{"type":"petrol","price":1.799,"self":true,"updatedAt":"20/06/2026 08:12:33"},{"type":"diesel","price":1.899,"self":true,"updatedAt":"20/06/2026 08:12:33"}]},{"id":"11696","lat":45.45600997352626,"lon":9.226450961971295,"name":"MILANO-VIA LOMBROSO ANG. MASPERO","brand":"Q8","address":"VIA LOMBROSO ANG. MASPERO S/N 20137, MILANO, MI","prices":[{"type":"petrol","price":1.779,"self":true,"updatedAt":"27/06/2026 07:41:01"},{"type":"diesel","price":1.899,"self":true,"updatedAt":"27/06/2026 07:41:01"}]},{"id":"11672","lat":45.44451291033063,"lon":9.11799119510647,"name":"MILANO-VIA LORENTEGGIO 268","brand":"Q8","address":"VIA LORENTEGGIO 268 20152, MILANO, MI","prices":[{"type":"petrol","price":1.799,"self":true,"updatedAt":"25/06/2026 08:09:26"},{"type":"diesel","price":1.899,"self":true,"updatedAt":"25/06/2026 08:09:26"}]},{"id":"11664","lat":45.47161880932868,"lon":9.121613818454762,"name":"MILANO-VIA NOVARA 82","brand":"Q8","address":"VIA NOVARA 82 20147, MILANO, MI","prices":[{"type":"petrol","price":1.799,"self":true,"updatedAt":"25/06/2026 08:09:23"},{"type":"diesel","price":1.899,"self":true,"updatedAt":"25/06/2026 08:09:23"}]},{"id":"11697","lat":45.48584734721061,"lon":9.239759008598298,"name":"MILANO-VIA ROMBON ANG. VIA PINI","brand":"Q8","address":"VIA ROMBON ANG. VIA PINI S/N 20134, MILANO, MI","prices":[{"type":"petrol","price":1.789,"self":true,"updatedAt":"27/06/2026 07:41:02"},{"type":"diesel","price":1.869,"self":true,"updatedAt":"27/06/2026 07:41:02"}]},{"id":"11674","lat":45.442200352188515,"lon":9.148052036762238,"name":"MILANO-VIA S.RITA DA CASCIA 2","brand":"Q8","address":"VIA S.RITA DA CASCIA 2 20143, MILANO, MI","prices":[{"type":"petrol","price":1.799,"self":true,"updatedAt":"23/06/2026 07:13:18"},{"type":"diesel","price":1.899,"self":true,"updatedAt":"23/06/2026 07:13:18"}]},{"id":"11698","lat":45.48375331904261,"lon":9.142816093254055,"name":"MILANO-VIA SERRA ANG. SALMOIRAGHI","brand":"Q8","address":"VIA SERRA ANG. SALMOIRAGHI S/N 20148, MILANO, MI","prices":[{"type":"petrol","price":1.779,"self":true,"updatedAt":"26/06/2026 01:39:50"},{"type":"diesel","price":1.869,"self":true,"updatedAt":"26/06/2026 01:39:50"}]},{"id":"11669","lat":45.46069782752843,"lon":9.148964373016383,"name":"MILANO-VIALE BEZZI 82","brand":"Q8","address":"VIALE BEZZI 82 20146, MILANO, MI","prices":[{"type":"petrol","price":1.789,"self":true,"updatedAt":"25/06/2026 08:09:24"},{"type":"diesel","price":1.879,"self":true,"updatedAt":"25/06/2026 08:09:24"}]},{"id":"11661","lat":45.445881182089956,"lon":9.159797725200633,"name":"MILANO-VIALE CASSALA 4/A","brand":"Q8","address":"VIALE CASSALA 4/A 20143, MILANO, MI","prices":[{"type":"petrol","price":1.789,"self":true,"updatedAt":"25/06/2026 08:09:23"},{"type":"diesel","price":1.879,"self":true,"updatedAt":"25/06/2026 08:09:23"}]},{"id":"11662","lat":45.496679318947564,"lon":9.191433527612617,"name":"MILANO-VIALE MARCHE 62","brand":"Q8","address":"VIALE MARCHE 62 20159, MILANO, MI","prices":[{"type":"petrol","price":1.799,"self":true,"updatedAt":"24/06/2026 07:49:11"},{"type":"diesel","price":1.919,"self":true,"updatedAt":"24/06/2026 07:49:11"}]},{"id":"54710","lat":45.446022,"lon":9.07492374,"name":"MUGGIANO EST","brand":"Tamoil","address":"Autostrada A50 TANG.LE OVEST DI MILANO, dir. EST, MILANO, MI","prices":[{"type":"petrol","price":1.879,"self":true,"updatedAt":"26/06/2026 23:38:19"},{"type":"diesel","price":1.979,"self":true,"updatedAt":"26/06/2026 23:38:19"}]},{"id":"37664","lat":45.44485416502995,"lon":9.073683768510818,"name":"MUGGIANO OVEST","brand":"Esso","address":"Autostrada A50 TANG.LE OVEST DI MILANO, Km. km 12, dir. lato ovest - 20152, MILANO, MI","prices":[{"type":"petrol","price":2.129,"self":true,"updatedAt":"22/06/2026 23:04:09"},{"type":"diesel","price":2.239,"self":true,"updatedAt":"22/06/2026 23:04:09"},{"type":"lpg","price":0.969,"self":false,"updatedAt":"22/06/2026 23:04:09"}]},{"id":"29436","lat":45.4821880049466,"lon":9.094179403179965,"name":"OMAR SNC DI FONTANA RACHELE & MORSHEDY KHALIL","brand":"Esso","address":"VIA NOVARA 342 20153, MILANO, MI","prices":[{"type":"petrol","price":1.799,"self":true,"updatedAt":"22/06/2026 08:50:12"},{"type":"diesel","price":1.919,"self":true,"updatedAt":"22/06/2026 08:50:12"},{"type":"lpg","price":0.779,"self":false,"updatedAt":"22/06/2026 08:50:12"}]},{"id":"51317","lat":45.4762906691333,"lon":9.131456999999989,"name":"PALATINO","brand":"Esso","address":"VIA PALATINO ang, VIA ROSPIGLIOSI 1 20148, MILANO, MI","prices":[{"type":"petrol","price":1.789,"self":true,"updatedAt":"26/06/2026 06:17:23"},{"type":"diesel","price":1.889,"self":true,"updatedAt":"26/06/2026 06:17:23"}]},{"id":"28932","lat":45.459256888823695,"lon":9.15067099577027,"name":"PIAZZA TRIPOLI/RONCAGLIA - MILANO","brand":"Q8","address":"PIAZZA TRIPOLI/RONCAGLIA  20146, MILANO, MI","prices":[{"type":"petrol","price":1.789,"self":true,"updatedAt":"25/06/2026 08:09:25"},{"type":"diesel","price":1.879,"self":true,"updatedAt":"25/06/2026 08:09:25"}]},{"id":"48718","lat":45.439431471974665,"lon":9.224744953372944,"name":"piazzale Corvetto","brand":"Esso","address":"PIAZZALE CORVETTO LUIGI EMANUELE 8 20139, MILANO, MI","prices":[{"type":"petrol","price":1.759,"self":true,"updatedAt":"26/06/2026 09:05:06"},{"type":"diesel","price":1.849,"self":true,"updatedAt":"26/06/2026 09:05:06"}]},{"id":"35092","lat":45.4347660147854,"lon":9.174308017196608,"name":"Q8","brand":"Q8","address":"VIA DELLA CHIESA ROSSA 15 20142, MILANO, MI","prices":[{"type":"petrol","price":1.849,"self":true,"updatedAt":"27/06/2026 01:15:14"},{"type":"diesel","price":1.949,"self":true,"updatedAt":"27/06/2026 01:15:14"}]},{"id":"52237","lat":45.4427833883736,"lon":9.156159536419123,"name":"Q8 S.T. SERVICE DI RADICE E CHIRILLO S.N.C.","brand":"Q8","address":"ETTORE PONTI 20 20143, MILANO, MI","prices":[{"type":"petrol","price":1.909,"self":true,"updatedAt":"26/06/2026 20:16:59"},{"type":"diesel","price":1.989,"self":true,"updatedAt":"26/06/2026 20:16:59"}]},{"id":"61903","lat":45.4599213,"lon":9.1913762,"name":"Retitalia","brand":"Retitalia","address":"PANTANO 4 20122, MILANO, MI","prices":[{"type":"petrol","price":1.799,"self":true,"updatedAt":"26/06/2026 09:16:50"},{"type":"diesel","price":1.919,"self":true,"updatedAt":"26/06/2026 09:16:50"}]},{"id":"37470","lat":45.44261926470932,"lon":9.15937565267086,"name":"ROMOLO S.N.C.","brand":"Pompe Bianche","address":"VIA ITALO SVEVO 2 20143, MILANO, MI","prices":[{"type":"lpg","price":0.799,"self":false,"updatedAt":"26/06/2026 19:05:00"}]},{"id":"61097","lat":45.446134561203685,"lon":9.148753998538982,"name":"RR CAR SERVICE","brand":"Itala Petroli","address":"LODOVICO IL MORO 201 20142, MILANO, MI","prices":[{"type":"petrol","price":1.819,"self":true,"updatedAt":"23/06/2026 20:23:01"},{"type":"diesel","price":1.939,"self":true,"updatedAt":"23/06/2026 20:23:01"}]},{"id":"57288","lat":45.461197,"lon":9.158772,"name":"Sant'Eusebio - Milano","brand":"KEROPETROL","address":"SANT'EUSEBIO 18 20144, MILANO, MI","prices":[{"type":"petrol","price":1.925,"self":true,"updatedAt":"26/06/2026 15:40:31"},{"type":"diesel","price":1.975,"self":true,"updatedAt":"26/06/2026 15:40:31"}]},{"id":"58450","lat":45.441386,"lon":9.0678548,"name":"Santa Rita","brand":"Api-Ip","address":"SANTA RITA DA CASCIA 19 20143, MILANO, MI","prices":[{"type":"petrol","price":1.839,"self":true,"updatedAt":"26/06/2026 19:21:37"},{"type":"diesel","price":1.949,"self":true,"updatedAt":"26/06/2026 19:21:37"}]},{"id":"45870","lat":45.493370000123,"lon":9.156136000123,"name":"SIMONA ANNA SOMMARUGA","brand":"Agip Eni","address":"VIA MONTE CENERI 10 20155, MILANO, MI","prices":[{"type":"petrol","price":1.799,"self":true,"updatedAt":"27/06/2026 00:43:43"},{"type":"diesel","price":1.889,"self":true,"updatedAt":"27/06/2026 06:14:05"}]},{"id":"12379","lat":45.46578161023504,"lon":9.16580569675807,"name":"SMILEPETROL SNC","brand":"Api-Ip","address":"VIALE DI PORTA VERCELLINA SNC 20123, MILANO, MI","prices":[{"type":"petrol","price":2.052,"self":true,"updatedAt":"24/06/2026 17:03:26"},{"type":"diesel","price":2.299,"self":true,"updatedAt":"24/06/2026 17:03:26"}]},{"id":"35886","lat":45.47776119994178,"lon":9.160866510859023,"name":"SMILEPETROL SNC","brand":"Api-Ip","address":"PIAZZA SEI FEBBRAIO SNC 20145, MILANO, MI","prices":[{"type":"petrol","price":1.896,"self":true,"updatedAt":"24/06/2026 17:01:22"},{"type":"diesel","price":1.996,"self":true,"updatedAt":"24/06/2026 17:01:22"}]},{"id":"15638","lat":45.46082261157299,"lon":9.23173057857366,"name":"SOMMESE PETROLI MILANO VIA PIRANESI","brand":"Sommese Petroli","address":"VIA PIRANESI GIOVANNI BATTISTA 45 20137, MILANO, MI","prices":[{"type":"petrol","price":1.869,"self":false,"updatedAt":"22/06/2026 06:58:25"},{"type":"diesel","price":1.949,"self":false,"updatedAt":"22/06/2026 06:58:25"}]},{"id":"45993","lat":45.440922895358156,"lon":9.172334077672076,"name":"Spezia","brand":"Api-Ip","address":"VIA SPEZIA 26 20142, MILANO, MI","prices":[{"type":"petrol","price":1.809,"self":false,"updatedAt":"26/06/2026 19:21:22"},{"type":"diesel","price":1.898,"self":false,"updatedAt":"26/06/2026 19:21:22"}]},{"id":"54520","lat":45.449820337376266,"lon":9.190642578125003,"name":"STAROIL MILANO","brand":"Pompe Bianche","address":"Via Ferdinando Bocconi 15 20136, MILANO, MI","prices":[{"type":"petrol","price":1.849,"self":true,"updatedAt":"26/06/2026 19:04:49"},{"type":"diesel","price":1.949,"self":true,"updatedAt":"26/06/2026 19:04:49"}]},{"id":"12654","lat":45.47070141453392,"lon":9.152005747191993,"name":"Staz. Carburanti De Simone Domenico","brand":"Api-Ip","address":"VIA CORREGGIO 11 20149, MILANO, MI","prices":[{"type":"petrol","price":2.635,"self":true,"updatedAt":"22/06/2026 09:45:58"},{"type":"diesel","price":2.695,"self":true,"updatedAt":"22/06/2026 09:45:58"}]},{"id":"57399","lat":45.4515251,"lon":9.217433699999999,"name":"Stazione di servizio Eni di Luca Elia","brand":"Agip Eni","address":"Via Tito Livio 19 20137, MILANO, MI","prices":[{"type":"petrol","price":1.799,"self":true,"updatedAt":"27/06/2026 00:32:20"},{"type":"diesel","price":1.899,"self":true,"updatedAt":"27/06/2026 00:32:20"}]},{"id":"46942","lat":45.4220452,"lon":9.1672941,"name":"stazione di servizio ENI di Palazzo Marina","brand":"Agip Eni","address":"DELLA CHIESA ROSSA 157 20142, MILANO, MI","prices":[{"type":"petrol","price":1.82,"self":true,"updatedAt":"26/06/2026 23:47:34"},{"type":"diesel","price":1.909,"self":true,"updatedAt":"26/06/2026 23:47:34"},{"type":"lpg","price":0.734,"self":false,"updatedAt":"26/06/2026 23:47:34"}]},{"id":"41235","lat":45.48368898848309,"lon":9.174453938028705,"name":"stazione di servizio ENI di Zamò Andrea","brand":"Agip Eni","address":"via Giulio Cesare Procaccini 09 20154, MILANO, MI","prices":[{"type":"petrol","price":1.845,"self":true,"updatedAt":"27/06/2026 00:26:36"},{"type":"diesel","price":1.938,"self":true,"updatedAt":"27/06/2026 00:26:36"}]},{"id":"13709","lat":45.456047658271224,"lon":9.23009678721428,"name":"stazione di servizio esso","brand":"Esso","address":"VIA CESARE LOMBROSO 50 20137, MILANO, MI","prices":[{"type":"petrol","price":1.779,"self":true,"updatedAt":"26/06/2026 10:20:53"},{"type":"diesel","price":1.899,"self":true,"updatedAt":"26/06/2026 10:20:53"}]},{"id":"51590","lat":45.468970248375925,"lon":9.12714958190918,"name":"Stazione di Servizio IP","brand":"Api-Ip","address":"PIAZZA AMATI CARLO 1 20147, MILANO, MI","prices":[{"type":"petrol","price":1.779,"self":true,"updatedAt":"26/06/2026 17:26:09"},{"type":"diesel","price":1.889,"self":true,"updatedAt":"26/06/2026 17:26:09"}]},{"id":"19310","lat":45.438610860986046,"lon":9.152840279762245,"name":"Stazione ERG Santa Rita","brand":"Api-Ip","address":"VIA SANTA RITA DA CASCIA 60 20143, MILANO, MI","prices":[{"type":"petrol","price":1.839,"self":true,"updatedAt":"23/06/2026 06:14:54"},{"type":"diesel","price":1.949,"self":true,"updatedAt":"23/06/2026 06:14:54"}]},{"id":"13234","lat":45.46991993269708,"lon":9.124655993219335,"name":"Stazione Rifornimento Q8 Torzini Luca","brand":"Q8","address":"NOVARA 46 20147, MILANO, MI","prices":[{"type":"petrol","price":1.849,"self":true,"updatedAt":"26/06/2026 06:43:19"},{"type":"diesel","price":1.949,"self":true,"updatedAt":"26/06/2026 06:43:19"}]},{"id":"36434","lat":45.464231295253036,"lon":9.141955872422045,"name":"TAMOIL DI VIA MONCALVO","brand":"Tamoil","address":"VIA PRIVATA MONCALVO 1 20146, MILANO, MI","prices":[{"type":"petrol","price":1.779,"self":true,"updatedAt":"26/06/2026 23:21:02"}]},{"id":"53610","lat":45.42966852937273,"lon":9.195525058283806,"name":"TAMOIL MILANO VIA FERRARI","brand":"Tamoil","address":"Via Virgilio Ferrari  20141, MILANO, MI","prices":[{"type":"petrol","price":1.767,"self":true,"updatedAt":"27/06/2026 00:29:20"},{"type":"diesel","price":1.847,"self":true,"updatedAt":"27/06/2026 00:29:20"}]},{"id":"45386","lat":45.42051371749519,"lon":9.202549875763907,"name":"TAMOIL MILANO VIA RIPAMONTI","brand":"Tamoil","address":"VIA GIUSEPPE RIPAMONTI 390 20141, MILANO, MI","prices":[{"type":"petrol","price":1.767,"self":true,"updatedAt":"27/06/2026 00:31:34"},{"type":"diesel","price":1.847,"self":true,"updatedAt":"27/06/2026 00:31:34"},{"type":"lpg","price":0.737,"self":false,"updatedAt":"26/06/2026 23:49:15"}]},{"id":"30934","lat":45.47616802144962,"lon":9.136851909437496,"name":"TOTAL ERG di IVANO GONELLA","brand":"Api-Ip","address":"PIAZZALE SEGESTA ANG. VIA STRATICO 2 20148, MILANO, MI","prices":[{"type":"petrol","price":1.809,"self":true,"updatedAt":"26/06/2026 17:33:35"},{"type":"diesel","price":1.879,"self":true,"updatedAt":"26/06/2026 17:33:35"}]},{"id":"39336","lat":45.424383825086196,"lon":9.24971196745912,"name":"TOTALERG","brand":"Api-Ip","address":"VIA ROGOREDO 140 20138, MILANO, MI","prices":[{"type":"petrol","price":1.829,"self":true,"updatedAt":"26/06/2026 07:03:57"},{"type":"diesel","price":1.929,"self":true,"updatedAt":"26/06/2026 07:03:57"}]},{"id":"6355","lat":45.44499073380677,"lon":9.121377045277427,"name":"URBINATI S.N.C. DI URBINATI ARKADI & C.","brand":"Agip Eni","address":"VIA LORENTEGGIO 239 20152, MILANO, MI","prices":[{"type":"petrol","price":1.799,"self":true,"updatedAt":"27/06/2026 00:45:45"},{"type":"diesel","price":1.889,"self":true,"updatedAt":"27/06/2026 00:45:45"}]},{"id":"37696","lat":45.40904747506723,"lon":9.175019636750221,"name":"VEGA MISSAGLIA","brand":"Vega","address":"VIA DEI MISSAGLIA 109 20142, MILANO, MI","prices":[{"type":"petrol","price":1.769,"self":true,"updatedAt":"23/06/2026 08:30:52"},{"type":"diesel","price":1.859,"self":true,"updatedAt":"23/06/2026 08:30:52"},{"type":"methane","price":1.599,"self":false,"updatedAt":"07/06/2026 21:25:45"}]},{"id":"48395","lat":45.494919359535935,"lon":9.138772588954923,"name":"wad s.a.s","brand":"Agip Eni","address":"VIA GALLARATE 40 20151, MILANO, MI","prices":[{"type":"petrol","price":1.799,"self":true,"updatedAt":"27/06/2026 00:39:11"},{"type":"diesel","price":1.899,"self":true,"updatedAt":"27/06/2026 00:39:11"}]},{"id":"60677","lat":45.292418252423175,"lon":9.000766545104998,"name":"DBS SERVICE","brand":"Esso","address":"Via Cavour 87  20086, MOTTA VISCONTI, MI","prices":[{"type":"petrol","price":1.879,"self":true,"updatedAt":"28/05/2026 17:32:11"},{"type":"diesel","price":1.999,"self":true,"updatedAt":"28/05/2026 17:32:11"}]},{"id":"4984","lat":45.35259724683809,"lon":9.0707266330719,"name":"EPR - NOVIGLIO","brand":"Pompe Bianche","address":"sp 203 km 6.300 SNC 20082, NOVIGLIO, MI","prices":[{"type":"petrol","price":1.798,"self":true,"updatedAt":"24/06/2026 19:35:36"},{"type":"diesel","price":1.898,"self":true,"updatedAt":"24/06/2026 19:35:36"},{"type":"methane","price":1.598,"self":false,"updatedAt":"24/06/2026 19:35:36"},{"type":"lpg","price":0.768,"self":false,"updatedAt":"24/06/2026 19:35:36"}]},{"id":"40078","lat":45.33851528748518,"lon":9.088237434625626,"name":"Noviglio Milano","brand":"Api-Ip","address":"Strada Privinciale 30 Km 1,500  20082, NOVIGLIO, MI","prices":[{"type":"petrol","price":1.759,"self":true,"updatedAt":"26/06/2026 09:11:03"},{"type":"diesel","price":1.859,"self":true,"updatedAt":"26/06/2026 09:11:03"}]},{"id":"36368","lat":45.39676180844323,"lon":9.210362434387207,"name":"5115","brand":"Tamoil","address":"NOVERASCO 17 20073, OPERA, MI","prices":[{"type":"petrol","price":1.779,"self":true,"updatedAt":"26/06/2026 23:29:14"},{"type":"diesel","price":1.849,"self":true,"updatedAt":"26/06/2026 23:29:14"}]},{"id":"18981","lat":45.37619307192357,"lon":9.21237165092623,"name":"Dalcerri Lino e C. snc","brand":"Agip Eni","address":"VIA CONTE DI CAVOUR 19 20090, OPERA, MI","prices":[{"type":"petrol","price":1.809,"self":true,"updatedAt":"27/06/2026 00:19:07"},{"type":"diesel","price":1.894,"self":true,"updatedAt":"27/06/2026 00:19:07"}]},{"id":"39523","lat":45.36969109139174,"lon":9.21371519429305,"name":"ENERCOOP","brand":"Enercoop","address":"VIA DIAZ SNC 20090, OPERA (MI) SNC 20090, OPERA, MI","prices":[{"type":"petrol","price":1.739,"self":true,"updatedAt":"26/06/2026 16:46:40"},{"type":"diesel","price":1.839,"self":true,"updatedAt":"26/06/2026 16:46:40"},{"type":"lpg","price":0.739,"self":false,"updatedAt":"26/06/2026 16:46:40"}]},{"id":"56393","lat":45.36923400778155,"lon":9.203733032469735,"name":"STAZIONE DI SERVIZIO IP 45630 DI OMRAN YEHYA MAHMOUD","brand":"Api-Ip","address":"LAMBRO 21 20073, OPERA, MI","prices":[{"type":"petrol","price":1.799,"self":true,"updatedAt":"23/06/2026 07:21:12"},{"type":"diesel","price":1.899,"self":true,"updatedAt":"23/06/2026 07:21:12"}]},{"id":"54736","lat":45.33702,"lon":9.19835,"name":"METANGAS S.R.L.","brand":"Pompe Bianche","address":"Strada Provinciale Vigevanese Sp28 53/B 20090, PIEVE EMANUELE, MI","prices":[{"type":"petrol","price":1.779,"self":true,"updatedAt":"26/06/2026 12:09:01"},{"type":"diesel","price":1.889,"self":true,"updatedAt":"26/06/2026 12:09:01"}]},{"id":"25186","lat":45.356254765326135,"lon":9.022685830688488,"name":"ROSATE","brand":"Api-Ip","address":"S.P. 30 BINASCO-VERMEZZO  20088, ROSATE, MI","prices":[{"type":"petrol","price":1.759,"self":true,"updatedAt":"26/06/2026 09:07:06"},{"type":"diesel","price":1.859,"self":true,"updatedAt":"26/06/2026 09:07:06"}]},{"id":"53383","lat":45.38545,"lon":9.15135,"name":"2524 Rozzano","brand":"Agip Eni","address":"LOMBARDIA 38 20089, ROZZANO, MI","prices":[{"type":"petrol","price":1.829,"self":true,"updatedAt":"27/06/2026 00:34:03"},{"type":"diesel","price":1.889,"self":true,"updatedAt":"27/06/2026 07:38:06"}]},{"id":"51866","lat":45.382288359714416,"lon":9.160947478399233,"name":"51955 – Rozzano","brand":"Agip Eni","address":"VIA ROMAGNA ANG. VIA TOSCANA  20089, ROZZANO, MI","prices":[{"type":"petrol","price":1.829,"self":true,"updatedAt":"26/06/2026 23:53:04"},{"type":"diesel","price":1.889,"self":true,"updatedAt":"27/06/2026 07:50:29"}]},{"id":"48690","lat":45.39797011257277,"lon":9.173047512309989,"name":"56272","brand":"Agip Eni","address":"via curiel  20089, ROZZANO, MI","prices":[{"type":"petrol","price":1.789,"self":true,"updatedAt":"27/06/2026 00:20:22"},{"type":"diesel","price":1.834,"self":true,"updatedAt":"27/06/2026 06:05:03"}]},{"id":"34055","lat":45.38531733914764,"lon":9.145747348666191,"name":"GAS AUTO - rozzano","brand":"Pompe Bianche","address":"STRADA PROVINCIALE 35 DEI GIOVI, KM 113,89  20089, ROZZANO, MI","prices":[{"type":"lpg","price":0.789,"self":false,"updatedAt":"22/06/2026 14:43:59"}]},{"id":"59735","lat":45.38296122045351,"lon":9.175877952575675,"name":"IP ROZZANO","brand":"Api-Ip","address":"via bruno buozzi  111 20089, ROZZANO, MI","prices":[{"type":"petrol","price":1.739,"self":true,"updatedAt":"24/06/2026 15:52:38"},{"type":"diesel","price":1.829,"self":true,"updatedAt":"24/06/2026 15:52:38"}]},{"id":"59627","lat":45.3837426870368,"lon":9.164400100708008,"name":"Q8","brand":"Q8","address":"ROMAGNA 22 20089, ROZZANO, MI","prices":[{"type":"petrol","price":1.819,"self":true,"updatedAt":"23/06/2026 15:19:24"},{"type":"diesel","price":2.099,"self":true,"updatedAt":"23/06/2026 15:19:24"}]},{"id":"50614","lat":45.38544807409766,"lon":9.151350734779378,"name":"ROZZANO","brand":"Esso","address":"VIALE LOMBARDIA 38 20089, ROZZANO, MI","prices":[{"type":"petrol","price":1.789,"self":true,"updatedAt":"27/06/2026 07:02:02"},{"type":"diesel","price":1.869,"self":true,"updatedAt":"27/06/2026 07:02:02"}]},{"id":"30183","lat":45.37832971253242,"lon":9.16925624012947,"name":"ROZZANO - ALESSANDRO MANZONI","brand":"Api-Ip","address":"VIA ALESSANDRO MANZONI  20089, ROZZANO, MI","prices":[{"type":"petrol","price":1.739,"self":true,"updatedAt":"26/06/2026 19:01:01"},{"type":"diesel","price":1.839,"self":true,"updatedAt":"26/06/2026 09:03:07"}]},{"id":"35905","lat":45.39875870418885,"lon":9.173158313491854,"name":"ROZZANO CURIEL ANG. FRANCHI/QUINTO STA","brand":"Q8","address":"CURIEL ANG. FRANCHI/QUINTO STA  20089, ROZZANO, MI","prices":[{"type":"petrol","price":1.807,"self":true,"updatedAt":"27/06/2026 07:40:57"},{"type":"diesel","price":1.879,"self":true,"updatedAt":"27/06/2026 07:40:57"}]},{"id":"47291","lat":45.39130288815008,"lon":9.189185798168182,"name":"ROZZANO EST","brand":"Q8","address":"A50 TANG.LE OVEST DI MILANO, Km. 7, Ovest - 20089, ROZZANO, MI","prices":[{"type":"petrol","price":1.879,"self":true,"updatedAt":"26/06/2026 06:14:01"},{"type":"diesel","price":1.979,"self":true,"updatedAt":"26/06/2026 06:14:00"},{"type":"lpg","price":0.899,"self":false,"updatedAt":"26/06/2026 06:14:01"}]},{"id":"8726","lat":45.383125432232845,"lon":9.168928417790994,"name":"ROZZANO V.LE ROMAGNA ANG.V.L. DA VINCI","brand":"Q8","address":"V.LE ROMAGNA ANG.V.L. DA VINCI  20089, ROZZANO, MI","prices":[{"type":"petrol","price":1.739,"self":true,"updatedAt":"27/06/2026 01:39:38"},{"type":"diesel","price":1.829,"self":true,"updatedAt":"27/06/2026 01:39:38"}]},{"id":"7295","lat":45.3912202992408,"lon":9.178437604399733,"name":"ROZZANO VIA CURIEL EUGENIO 25","brand":"Q8","address":"VIA CURIEL EUGENIO 25 20098, ROZZANO, MI","prices":[{"type":"petrol","price":1.787,"self":true,"updatedAt":"27/06/2026 01:39:42"},{"type":"diesel","price":1.859,"self":true,"updatedAt":"27/06/2026 01:39:42"},{"type":"methane","price":1.599,"self":false,"updatedAt":"27/06/2026 01:39:42"},{"type":"lpg","price":0.789,"self":false,"updatedAt":"27/06/2026 01:39:42"}]},{"id":"60661","lat":45.489553886670535,"lon":9.049645811319351,"name":"G.E. GAMBINI SAS ESSO","brand":"Esso","address":"PANZERI 35 20019, SETTIMO MILANESE, MI","prices":[{"type":"petrol","price":1.799,"self":true,"updatedAt":"25/06/2026 07:29:25"},{"type":"diesel","price":1.869,"self":true,"updatedAt":"25/06/2026 07:29:25"}]},{"id":"12173","lat":45.48783673957717,"lon":9.042529910802841,"name":"Mas","brand":"Pompe Bianche","address":"VIA STRADACCIA  20019, SETTIMO MILANESE, MI","prices":[{"type":"methane","price":1.699,"self":false,"updatedAt":"26/06/2026 09:06:49"}]},{"id":"54180","lat":45.48868085597314,"lon":9.05754619701971,"name":"SETTIMO MILANESE","brand":"Esso","address":"GRAMSCI 61 20019, SETTIMO MILANESE, MI","prices":[{"type":"petrol","price":1.799,"self":true,"updatedAt":"26/06/2026 06:09:01"},{"type":"diesel","price":1.859,"self":true,"updatedAt":"26/06/2026 06:09:01"}]},{"id":"24383","lat":45.49012202060383,"lon":9.041356613491871,"name":"SETTIMO MILANESE S.S. 11 KM 130+776","brand":"Q8","address":"S.S. 11 KM 130+776  20019, SETTIMO MILANESE, MI","prices":[{"type":"petrol","price":1.814,"self":true,"updatedAt":"25/06/2026 08:09:20"},{"type":"diesel","price":1.914,"self":true,"updatedAt":"25/06/2026 08:09:20"}]},{"id":"7289","lat":45.49626476021985,"lon":9.058144373016376,"name":"SETTIMO MILANESE-SP11 TANGENZIALINA","brand":"Q8","address":"STRADA PROVINCIALE 11 - TANGENZIALINA KM 132+248 SN 20019, SETTIMO MILANESE, MI","prices":[{"type":"petrol","price":1.814,"self":true,"updatedAt":"23/06/2026 07:13:24"},{"type":"diesel","price":1.914,"self":true,"updatedAt":"23/06/2026 07:13:24"},{"type":"lpg","price":0.689,"self":false,"updatedAt":"23/06/2026 07:13:24"}]},{"id":"55720","lat":45.49646,"lon":9.05753,"name":"SETTIMO NORD","brand":"Agip Eni","address":"S.P. EX S.S.11 KM132+248 LT ND SNC 20019, SETTIMO MILANESE, MI","prices":[{"type":"petrol","price":1.814,"self":true,"updatedAt":"26/06/2026 23:48:57"},{"type":"diesel","price":1.904,"self":true,"updatedAt":"26/06/2026 19:14:12"},{"type":"lpg","price":0.691,"self":false,"updatedAt":"26/06/2026 23:48:57"}]},{"id":"59663","lat":45.424359,"lon":9.06122386,"name":"1960","brand":"Tamoil","address":"TREZZANO SUL NAVIGLIO, TREZZANO SUL NAVIGLIO, MI","prices":[{"type":"petrol","price":1.799,"self":true,"updatedAt":"27/06/2026 00:34:47"},{"type":"diesel","price":1.899,"self":true,"updatedAt":"27/06/2026 00:34:47"}]},{"id":"13219","lat":45.42952348037283,"lon":9.066492909925842,"name":"IP TREZZANO VIA FERMI","brand":"Api-Ip","address":"VIA ENRICO FERMI 48 20090, TREZZANO SUL NAVIGLIO, MI","prices":[{"type":"petrol","price":1.799,"self":true,"updatedAt":"26/06/2026 10:14:10"},{"type":"diesel","price":1.899,"self":true,"updatedAt":"26/06/2026 10:14:10"}]},{"id":"41220","lat":45.41857103674258,"lon":9.072803847082469,"name":"stazione di servizio di metta gerardo","brand":"Agip Eni","address":"CIRCONVALLAZIONE 2 20090, TREZZANO SUL NAVIGLIO, MI","prices":[{"type":"petrol","price":1.819,"self":true,"updatedAt":"27/06/2026 00:37:43"},{"type":"diesel","price":1.909,"self":true,"updatedAt":"27/06/2026 00:37:43"}]},{"id":"24775","lat":45.41918399720786,"lon":9.07297317790983,"name":"TREZZANO SUL NAVIGLIO - CIRCONVALLAZIONE","brand":"Api-Ip","address":"VIA CIRCONVALLAZIONE  20090, TREZZANO SUL NAVIGLIO, MI","prices":[{"type":"petrol","price":1.789,"self":true,"updatedAt":"26/06/2026 09:09:19"},{"type":"diesel","price":1.889,"self":true,"updatedAt":"26/06/2026 09:09:19"}]},{"id":"35904","lat":45.418190955628795,"lon":9.051848990212989,"name":"TREZZANO SUL NAVIGLIO VIA L. DA VINCI ANG. L.ARIOSTO","brand":"Q8","address":"VIA L. DA VINCI ANG. L.ARIOSTO  20090, TREZZANO SUL NAVIGLIO, MI","prices":[{"type":"petrol","price":1.819,"self":true,"updatedAt":"23/06/2026 07:13:26"},{"type":"diesel","price":1.919,"self":true,"updatedAt":"23/06/2026 07:13:26"}]},{"id":"11677","lat":45.42440753003055,"lon":9.067928338623005,"name":"TREZZANO SUL NAVIGLIO-VIA COLOMBO ANG.VIA DI VITTORIO","brand":"Q8","address":"VIA COLOMBO ANG.VIA DI VITTORIO S/N 20090, TREZZANO SUL NAVIGLIO, MI","prices":[{"type":"petrol","price":1.799,"self":true,"updatedAt":"23/06/2026 01:38:51"},{"type":"diesel","price":1.899,"self":true,"updatedAt":"23/06/2026 01:38:51"}]},{"id":"34365","lat":45.38152716408767,"lon":9.095261469483376,"name":"3953","brand":"Tamoil","address":"PROVINCIALE 139 - KM 4+470 O SNC 20058, ZIBIDO SAN GIACOMO, MI","prices":[{"type":"petrol","price":1.789,"self":true,"updatedAt":"27/06/2026 00:07:41"},{"type":"diesel","price":1.889,"self":true,"updatedAt":"27/06/2026 00:07:41"}]},{"id":"49740","lat":45.3813106,"lon":9.0956529,"name":"IP ENERGON ZIBIDO","brand":"Api-Ip","address":"PROVINCIALE 139 - KM 6 SNC 20058, ZIBIDO SAN GIACOMO, MI","prices":[{"type":"petrol","price":1.789,"self":true,"updatedAt":"23/06/2026 16:41:00"},{"type":"diesel","price":1.889,"self":true,"updatedAt":"23/06/2026 16:41:00"}]},{"id":"11655","lat":45.36190713625711,"lon":9.13239061832428,"name":"ZIBIDO S.GIACOMO-LOC. BADILE SS. 35 KM. 111+90","brand":"Q8","address":"LOC. BADILE SS. 35 KM. 111+90 S/N 20080, ZIBIDO SAN GIACOMO, MI","prices":[{"type":"petrol","price":1.819,"self":true,"updatedAt":"24/06/2026 01:40:34"},{"type":"diesel","price":1.919,"self":true,"updatedAt":"24/06/2026 01:40:34"}]},{"id":"54251","lat":45.4642035,"lon":9.189982,"name":"STAZIONE IL POLO DANTE ALIGHIERI","brand":"Api-Ip","address":"DANTE ALIGHIERI 6/A 41034, FINALE EMILIA, MO","prices":[{"type":"petrol","price":1.859,"self":true,"updatedAt":"26/06/2026 09:27:07"},{"type":"diesel","price":1.919,"self":true,"updatedAt":"26/06/2026 09:27:07"}]},{"id":"61154","lat":45.4688768,"lon":9.2012544,"name":"ROMENTINO TANGENZIALE OVEST","brand":"Q8","address":"TANGENZIALE OVEST  SN, ROMENTINO, NO","prices":[{"type":"petrol","price":1.759,"self":true,"updatedAt":"23/06/2026 07:12:32"},{"type":"diesel","price":1.839,"self":true,"updatedAt":"23/06/2026 07:12:32"}]},{"id":"7036","lat":45.4688973,"lon":9.1966358,"name":"santu marche loc. Nuscadore","brand":"Pompe Bianche","address":"NUSCADORE 1 08010, BIRORI, NU","prices":[{"type":"petrol","price":1.839,"self":true,"updatedAt":"26/06/2026 22:16:26"},{"type":"diesel","price":1.919,"self":true,"updatedAt":"26/06/2026 22:16:26"}]},{"id":"57380","lat":45.4713,"lon":9.1919,"name":"PV 2672","brand":"Agip Eni","address":"DELLA VITTORIA 69 29021, BETTOLA, PC","prices":[{"type":"petrol","price":1.789,"self":true,"updatedAt":"26/06/2026 23:57:58"},{"type":"diesel","price":1.834,"self":true,"updatedAt":"27/06/2026 06:04:10"}]},{"id":"55216","lat":45.4642035,"lon":9.189982,"name":"DISTRIBUTORE DI ENI","brand":"Agip Eni","address":"MAESTRI 30 43038, SALA BAGANZA, PR","prices":[{"type":"petrol","price":1.854,"self":true,"updatedAt":"27/06/2026 00:36:53"},{"type":"diesel","price":1.944,"self":true,"updatedAt":"27/06/2026 00:36:53"}]},{"id":"38129","lat":45.25350926342035,"lon":9.038746654987335,"name":"STAZIONE DI SERVIZIO PIT STOP","brand":"Pompe Bianche","address":"VILLETTE 10 BIS 2 27021, BEREGUARDO, PV","prices":[{"type":"petrol","price":1.779,"self":true,"updatedAt":"26/06/2026 07:46:54"},{"type":"diesel","price":1.879,"self":true,"updatedAt":"26/06/2026 07:46:54"},{"type":"lpg","price":0.759,"self":false,"updatedAt":"26/06/2026 07:46:54"}]},{"id":"62957","lat":45.2550838,"lon":9.2340532,"name":"STAZIONE DI SERVIZIO TAMOIL","brand":"Tamoil","address":"SP2 8  27010, BORNASCO, PV","prices":[{"type":"petrol","price":1.759,"self":true,"updatedAt":"27/06/2026 00:32:47"},{"type":"diesel","price":1.849,"self":true,"updatedAt":"27/06/2026 00:32:47"}]},{"id":"6454","lat":45.30893774523007,"lon":9.016447808598286,"name":"CASORATE PRIMO DELL'ORTO 93","brand":"Q8","address":"DELL'ORTO 93 27022, CASORATE PRIMO, PV","prices":[{"type":"petrol","price":1.739,"self":true,"updatedAt":"26/06/2026 01:40:02"},{"type":"diesel","price":1.799,"self":true,"updatedAt":"26/06/2026 01:40:02"}]},{"id":"61863","lat":45.304778,"lon":9.008222,"name":"CONAD SELF 24H","brand":"CONAD","address":"CIRCONVALLAZIONE SNC 27022, CASORATE PRIMO, PV","prices":[{"type":"petrol","price":1.749,"self":true,"updatedAt":"25/06/2026 12:37:54"},{"type":"diesel","price":1.829,"self":true,"updatedAt":"25/06/2026 12:37:54"}]},{"id":"8408","lat":45.31388497480082,"lon":9.024272245368934,"name":"IMPIANTO ENI 2553","brand":"Agip Eni","address":"VIA VITTORIO EMANUELE 56 27022, CASORATE PRIMO, PV","prices":[{"type":"petrol","price":1.779,"self":true,"updatedAt":"26/06/2026 23:27:44"},{"type":"diesel","price":1.864,"self":true,"updatedAt":"26/06/2026 23:27:44"}]},{"id":"51679","lat":45.31890442590947,"lon":9.02200698852539,"name":"IP CAFFE' & SHOP DI COSTANDACHE GALINA","brand":"Api-Ip","address":"STRADA PROVINCIALE  190 27022, CASORATE PRIMO, PV","prices":[{"type":"petrol","price":1.779,"self":true,"updatedAt":"20/06/2026 18:27:41"},{"type":"diesel","price":1.859,"self":true,"updatedAt":"20/06/2026 18:27:41"}]},{"id":"37665","lat":45.25174282675089,"lon":9.198231473565102,"name":"CLERICI RENZO","brand":"Api-Ip","address":"STRADA PROVINCIALE 205 VIGENTINA SNC 27010, SAN GENESIO ED UNITI, PV","prices":[{"type":"petrol","price":1.797,"self":true,"updatedAt":"22/06/2026 08:29:45"},{"type":"diesel","price":1.897,"self":true,"updatedAt":"22/06/2026 08:29:45"}]},{"id":"14693","lat":45.31371970155877,"lon":9.206323698163033,"name":"ENI ( AGIP)","brand":"Agip Eni","address":"Strada Provinciale Vigentina Km 12+469  27010, SIZIANO, PV","prices":[{"type":"petrol","price":1.804,"self":true,"updatedAt":"26/06/2026 23:33:02"},{"type":"diesel","price":1.904,"self":true,"updatedAt":"26/06/2026 07:32:24"},{"type":"lpg","price":0.712,"self":false,"updatedAt":"26/06/2026 23:33:02"}]},{"id":"61090","lat":45.32520716241287,"lon":9.206264019012531,"name":"Stazione IP","brand":"Api-Ip","address":"40 BINASCO MELEGNANO 6 27010, SIZIANO, PV","prices":[{"type":"petrol","price":1.799,"self":true,"updatedAt":"26/06/2026 23:21:15"},{"type":"diesel","price":1.919,"self":true,"updatedAt":"26/06/2026 23:21:15"},{"type":"lpg","price":0.709,"self":false,"updatedAt":"26/06/2026 23:21:15"}]},{"id":"57604","lat":45.28196029769622,"lon":9.11641001701355,"name":"ACQUA E SOLE - NEORISORSE","brand":"Pompe Bianche","address":"GIULIO NATTA 1 27010, VELLEZZO BELLINI, PV","prices":[{"type":"petrol","price":1.739,"self":true,"updatedAt":"24/06/2026 17:04:56"},{"type":"diesel","price":1.799,"self":true,"updatedAt":"24/06/2026 17:04:56"},{"type":"methane","price":1.299,"self":true,"updatedAt":"24/06/2026 17:04:56"}]},{"id":"21857","lat":45.280342746124454,"lon":9.211996323907897,"name":"FRAZ. PONTELUNGO VIDIGULFO","brand":"Esso","address":"FRAZ. PONTELUNGO  27018, VIDIGULFO, PV","prices":[{"type":"petrol","price":1.828,"self":true,"updatedAt":"27/06/2026 06:00:17"},{"type":"diesel","price":1.908,"self":true,"updatedAt":"27/06/2026 06:00:17"}]},{"id":"48099","lat":45.292427,"lon":9.2420349,"name":"STAZIONE DI SERVIZIO IP","brand":"Api-Ip","address":"Via Melegnano 1  27018, VIDIGULFO, PV","prices":[{"type":"petrol","price":1.849,"self":true,"updatedAt":"26/06/2026 09:48:53"},{"type":"diesel","price":1.919,"self":true,"updatedAt":"26/06/2026 09:48:53"}]}]