[{"id":"6451","lat":45.48119934530878,"lon":9.791830569975218,"name":"ANTEGNATE S.S.SONCINSE","brand":"Q8","address":"S.S.SONCINSE SNC 24051, ANTEGNATE, BG","prices":[{"type":"petrol","price":1.775,"self":true,"updatedAt":"24/06/2026 01:40:36"},{"type":"diesel","price":1.875,"self":true,"updatedAt":"24/06/2026 01:40:36"}]},{"id":"6550","lat":45.48386333271375,"lon":9.780938029289246,"name":"ANTEGNATE VIA DEL COMMERCIO 3-SHOPPING CENTER","brand":"Q8","address":"VIA DEL COMMERCIO - SHOPPING CENTER 3 24051, ANTEGNATE, BG","prices":[{"type":"petrol","price":1.775,"self":true,"updatedAt":"23/06/2026 01:40:08"},{"type":"diesel","price":1.875,"self":true,"updatedAt":"23/06/2026 01:40:08"},{"type":"methane","price":1.345,"self":false,"updatedAt":"17/12/2024 01:07:31"}]},{"id":"62272","lat":45.4926183,"lon":9.8060213,"name":"SHELL ANTEGNATE S.S. 11 KM. 198+815","brand":"Shell","address":"S.S. 11 KM 198+815 S.N.C. 24051, ANTEGNATE, BG","prices":[{"type":"petrol","price":1.799,"self":true,"updatedAt":"23/06/2026 07:26:56"},{"type":"diesel","price":1.919,"self":true,"updatedAt":"23/06/2026 07:26:56"},{"type":"lpg","price":0.725,"self":false,"updatedAt":"23/06/2026 07:26:56"}]},{"id":"51145","lat":45.473741003862756,"lon":9.812741195106502,"name":"distributore Center Park","brand":"Pompe Bianche","address":"498 Soncinese, Km. 1.350, Bergamo  24056, FONTANELLA, BG","prices":[{"type":"petrol","price":1.775,"self":true,"updatedAt":"24/06/2026 07:11:50"},{"type":"diesel","price":1.875,"self":true,"updatedAt":"24/06/2026 07:11:50"},{"type":"methane","price":1.395,"self":false,"updatedAt":"24/06/2026 07:11:50"},{"type":"lpg","price":0.725,"self":false,"updatedAt":"24/06/2026 07:11:50"}]},{"id":"59332","lat":45.477664890400334,"lon":9.753380666317442,"name":"105305 ISSO","brand":"Esso","address":"ROMA 619 24040, ISSO, BG","prices":[{"type":"petrol","price":1.779,"self":true,"updatedAt":"23/06/2026 19:32:10"},{"type":"diesel","price":1.879,"self":true,"updatedAt":"23/06/2026 19:32:10"}]},{"id":"63119","lat":45.4775539,"lon":9.7533823,"name":"ESSO - ISSO","brand":"Esso","address":"Via Roma 619  24040, ISSO, BG","prices":[{"type":"petrol","price":1.779,"self":true,"updatedAt":"23/06/2026 22:01:05"},{"type":"diesel","price":1.879,"self":true,"updatedAt":"23/06/2026 22:01:05"}]},{"id":"13178","lat":45.34420504699187,"lon":9.977910071611404,"name":"fratelli pedroni snc di pedroni claudio","brand":"Api-Ip","address":"VIA VALLE SNC 25022, BORGO SAN GIACOMO, BS","prices":[{"type":"petrol","price":1.809,"self":true,"updatedAt":"23/06/2026 07:53:34"},{"type":"diesel","price":1.929,"self":true,"updatedAt":"23/06/2026 07:53:34"},{"type":"lpg","price":0.729,"self":false,"updatedAt":"23/06/2026 07:53:34"}]},{"id":"47350","lat":45.474970000123,"lon":9.963549000123,"name":"RBN CARSERVICES SNC","brand":"Tamoil","address":"Strada Provinciale 20 km 6.500l.s. snc 25030, COMEZZANO-CIZZAGO, BS","prices":[{"type":"petrol","price":1.799,"self":true,"updatedAt":"20/06/2026 17:07:11"},{"type":"diesel","price":1.889,"self":true,"updatedAt":"20/06/2026 17:07:11"},{"type":"lpg","price":0.709,"self":false,"updatedAt":"20/06/2026 17:07:11"}]},{"id":"44433","lat":45.40054676745614,"lon":9.931702834328462,"name":"BRIOLA CARBURANTI DEI FRATELLI BRIOLA & C. SNC","brand":"Agip Eni","address":"via lonato 16 25034, ORZINUOVI, BS","prices":[{"type":"petrol","price":1.844,"self":true,"updatedAt":"22/06/2026 08:24:05"},{"type":"diesel","price":1.944,"self":true,"updatedAt":"22/06/2026 08:24:05"}]},{"id":"57373","lat":45.388286382147534,"lon":9.930310249328613,"name":"COMMERCIALE PAGANONI ORZINUOVI","brand":"Pompe Bianche","address":"Via Verolanuova 54 25034, ORZINUOVI, BS","prices":[{"type":"petrol","price":1.775,"self":true,"updatedAt":"23/06/2026 23:32:16"},{"type":"diesel","price":1.865,"self":true,"updatedAt":"23/06/2026 09:40:14"},{"type":"lpg","price":0.689,"self":false,"updatedAt":"23/06/2026 23:32:16"}]},{"id":"60894","lat":45.4164585,"lon":9.9364991,"name":"eni station","brand":"Agip Eni","address":"SP 235 km.75 snc 25034, ORZINUOVI, BS","prices":[{"type":"petrol","price":1.845,"self":true,"updatedAt":"21/06/2026 12:40:42"},{"type":"diesel","price":1.994,"self":true,"updatedAt":"21/06/2026 12:40:42"}]},{"id":"63146","lat":45.4070533,"lon":9.9278798,"name":"ESSO - ORZINUOVI","brand":"Esso","address":"Viale Adua 26  25034, ORZINUOVI, BS","prices":[{"type":"petrol","price":1.799,"self":true,"updatedAt":"19/06/2026 08:40:57"},{"type":"diesel","price":1.899,"self":true,"updatedAt":"22/06/2026 09:10:56"}]},{"id":"16028","lat":45.41219417720595,"lon":9.939496491262844,"name":"ORZINUOVI","brand":"Api-Ip","address":"ADUA 91 25034, ORZINUOVI, BS","prices":[{"type":"petrol","price":1.789,"self":true,"updatedAt":"23/06/2026 07:29:12"},{"type":"diesel","price":1.869,"self":true,"updatedAt":"23/06/2026 07:29:12"},{"type":"lpg","price":0.689,"self":false,"updatedAt":"23/06/2026 07:29:12"}]},{"id":"50506","lat":45.407037501487025,"lon":9.927837385660935,"name":"Orzinuovi","brand":"Esso","address":"VIA ADUA 22/B 25034, ORZINUOVI, BS","prices":[{"type":"petrol","price":1.879,"self":true,"updatedAt":"09/06/2026 15:43:55"},{"type":"diesel","price":1.99,"self":true,"updatedAt":"09/06/2026 15:43:55"}]},{"id":"62831","lat":45.40647227583862,"lon":9.935027906745892,"name":"Orzinuovi - Carre","brand":"Api-Ip","address":"EINAUDI C.C. CARREFUR SNC 25034, ORZINUOVI, BS","prices":[{"type":"petrol","price":1.775,"self":true,"updatedAt":"23/06/2026 11:09:18"},{"type":"diesel","price":1.865,"self":true,"updatedAt":"23/06/2026 11:09:18"}]},{"id":"11524","lat":45.40084331591959,"lon":9.916740953922272,"name":"ORZINUOVI-VIA MILANO 10","brand":"Q8","address":"VIA MILANO 10 25034, ORZINUOVI, BS","prices":[{"type":"petrol","price":1.859,"self":true,"updatedAt":"24/06/2026 07:49:31"},{"type":"diesel","price":1.959,"self":true,"updatedAt":"24/06/2026 07:49:31"}]},{"id":"57457","lat":45.4162657,"lon":9.9390845,"name":"STAZIONE DI SERVIZIO ENI","brand":"Agip Eni","address":"SPCRexSS235, ORZINUOVI, BS","prices":[{"type":"petrol","price":1.885,"self":true,"updatedAt":"23/06/2026 23:27:33"},{"type":"diesel","price":1.914,"self":true,"updatedAt":"23/06/2026 23:27:33"},{"type":"lpg","price":0.799,"self":false,"updatedAt":"23/06/2026 23:27:33"}]},{"id":"59869","lat":45.422306,"lon":9.969618,"name":"1724 ORZIVECCHI","brand":"Agip Eni","address":"Via Don A. Piccinelli 78  25030, ORZIVECCHI, BS","prices":[{"type":"petrol","price":1.789,"self":true,"updatedAt":"24/06/2026 00:53:48"},{"type":"diesel","price":1.889,"self":true,"updatedAt":"24/06/2026 07:56:50"},{"type":"lpg","price":0.707,"self":false,"updatedAt":"23/06/2026 23:22:15"}]},{"id":"39466","lat":45.40514836941934,"lon":9.961294457316399,"name":"7078","brand":"Tamoil","address":"S.P.1 KM 44+940 - 25030, ORZIVECCHI, BS","prices":[{"type":"petrol","price":1.789,"self":true,"updatedAt":"24/06/2026 01:08:57"},{"type":"diesel","price":1.889,"self":true,"updatedAt":"24/06/2026 01:08:57"},{"type":"lpg","price":0.689,"self":false,"updatedAt":"24/06/2026 07:40:11"}]},{"id":"26153","lat":45.432230972499106,"lon":9.990128874778748,"name":"Sia Fuel Pompiano","brand":"Sia fuel","address":"VIA ROMA 15 25030, POMPIANO, BS","prices":[{"type":"petrol","price":1.845,"self":true,"updatedAt":"22/06/2026 16:43:48"},{"type":"diesel","price":1.945,"self":true,"updatedAt":"22/06/2026 16:43:48"}]},{"id":"9285","lat":45.429749127950075,"lon":9.984396385240188,"name":"STAZIONE DI SERVIZIO FUEL time","brand":"Fuel Time","address":"VIA BONARROTI  20 25030, POMPIANO, BS","prices":[{"type":"petrol","price":1.787,"self":true,"updatedAt":"23/06/2026 09:13:13"},{"type":"diesel","price":1.857,"self":true,"updatedAt":"23/06/2026 09:13:13"}]},{"id":"63155","lat":45.3116142,"lon":9.9987172,"name":"ESSO - QUINZANO D'OGLIO","brand":"Esso","address":"Via L. Ciocca 22  25027, QUINZANO D'OGLIO, BS","prices":[{"type":"petrol","price":1.799,"self":true,"updatedAt":"19/06/2026 19:10:47"},{"type":"diesel","price":1.899,"self":true,"updatedAt":"22/06/2026 20:40:46"}]},{"id":"50608","lat":45.311604240168684,"lon":9.998704906047164,"name":"QUINZANO","brand":"Esso","address":"VIA CIOCCA 22 25027, QUINZANO D'OGLIO, BS","prices":[{"type":"petrol","price":1.899,"self":true,"updatedAt":"08/06/2026 20:16:31"},{"type":"diesel","price":1.989,"self":true,"updatedAt":"08/06/2026 20:16:31"}]},{"id":"39367","lat":45.315633531068656,"lon":9.99312240081781,"name":"STAZIONE DI SERVIZIO IP","brand":"Api-Ip","address":"VIA VIA PROVINCIALE IX KM 30+875 0 25027, QUINZANO D'OGLIO (BS)  25027, QUINZANO D'OGLIO, BS","prices":[{"type":"petrol","price":1.809,"self":true,"updatedAt":"23/06/2026 15:30:08"},{"type":"diesel","price":1.899,"self":true,"updatedAt":"23/06/2026 15:30:08"},{"type":"lpg","price":0.799,"self":false,"updatedAt":"23/06/2026 15:30:08"}]},{"id":"59349","lat":45.4836469,"lon":9.9162175,"name":"RETITALIA ROCCAFRANCA","brand":"Retitalia","address":"CLARENSE C.M. 25030, ROCCAFRANCA, BS","prices":[{"type":"petrol","price":1.799,"self":true,"updatedAt":"23/06/2026 11:41:05"},{"type":"diesel","price":1.869,"self":true,"updatedAt":"23/06/2026 11:41:05"},{"type":"lpg","price":0.759,"self":false,"updatedAt":"23/06/2026 08:45:36"}]},{"id":"37837","lat":45.449862609648406,"lon":9.920306950807571,"name":"ROCCAFRANCA","brand":"Tamoil","address":"FRANCESCA SUD KM 18-593 SNC 25030, ROCCAFRANCA, BS","prices":[{"type":"petrol","price":1.789,"self":true,"updatedAt":"23/06/2026 07:29:54"},{"type":"diesel","price":1.869,"self":true,"updatedAt":"23/06/2026 07:29:54"},{"type":"lpg","price":0.689,"self":false,"updatedAt":"23/06/2026 07:29:54"}]},{"id":"5212","lat":45.282458301030196,"lon":9.985436232193706,"name":"METANBACHI","brand":"Pompe Bianche","address":"STRADA PROVINCIALE 86 2 26020, BORDOLANO, CR","prices":[{"type":"methane","price":1.199,"self":false,"updatedAt":"20/06/2026 07:21:15"}]},{"id":"51350","lat":45.28430544138963,"lon":9.902601993883081,"name":"MAINARDI CESARE distr. API","brand":"Api-Ip","address":"VIA ANELLI 44/46 26020, CASALMORANO, CR","prices":[{"type":"petrol","price":1.849,"self":true,"updatedAt":"23/06/2026 18:23:30"},{"type":"diesel","price":1.929,"self":true,"updatedAt":"23/06/2026 18:23:30"}]},{"id":"57540","lat":45.30153,"lon":9.762088,"name":"11794 CASTELLEONE","brand":"Agip Eni","address":"VIA MAZZOLARI  8, CASTELLEONE, CR","prices":[{"type":"petrol","price":1.789,"self":true,"updatedAt":"24/06/2026 00:48:31"},{"type":"diesel","price":1.899,"self":true,"updatedAt":"24/06/2026 00:48:31"},{"type":"lpg","price":0.682,"self":false,"updatedAt":"23/06/2026 23:59:24"}]},{"id":"50630","lat":45.29519112087085,"lon":9.754779111401666,"name":"3837","brand":"Tamoil","address":"S.S. 415 KM 45+705 - 26012, CASTELLEONE, CR","prices":[{"type":"petrol","price":1.779,"self":true,"updatedAt":"24/06/2026 00:14:59"},{"type":"diesel","price":1.869,"self":true,"updatedAt":"24/06/2026 00:14:59"}]},{"id":"60484","lat":45.26578613226533,"lon":9.800625443458557,"name":"Commerciale Paganoni Castelleone","brand":"Pompe Bianche","address":"Loc. Corte Madama, CASTELLEONE, CR","prices":[{"type":"petrol","price":1.755,"self":true,"updatedAt":"23/06/2026 23:45:59"},{"type":"diesel","price":1.855,"self":true,"updatedAt":"23/06/2026 23:45:59"},{"type":"lpg","price":0.682,"self":false,"updatedAt":"23/06/2026 23:45:59"}]},{"id":"45776","lat":45.445447272777336,"lon":9.825526130000071,"name":"8997","brand":"Tamoil","address":"EX S.S. 498 KM 30+000 - 26029, SONCINO, CR","prices":[{"type":"petrol","price":1.759,"self":true,"updatedAt":"23/06/2026 23:59:36"},{"type":"diesel","price":1.859,"self":true,"updatedAt":"23/06/2026 23:59:36"}]},{"id":"22634","lat":45.40087449255792,"lon":9.869376193393009,"name":"ENI STATION DI FERRARI GIANPAOLO","brand":"Agip Eni","address":"VIA XXV APRILE 28, 26029 - -, SONCINO, CR","prices":[{"type":"petrol","price":1.809,"self":true,"updatedAt":"23/06/2026 23:27:45"},{"type":"diesel","price":1.919,"self":true,"updatedAt":"23/06/2026 23:27:45"}]},{"id":"31320","lat":45.41046610650773,"lon":9.869462449073808,"name":"SONCINO - S.S. 235 VAR.","brand":"Api-Ip","address":"S.S. 235 VARIANTE KM. 3,155  26029, SONCINO, CR","prices":[{"type":"petrol","price":1.779,"self":true,"updatedAt":"23/06/2026 09:02:59"},{"type":"diesel","price":1.879,"self":true,"updatedAt":"23/06/2026 09:02:59"},{"type":"lpg","price":0.599,"self":false,"updatedAt":"23/06/2026 09:02:59"}]},{"id":"59311","lat":45.3996572,"lon":9.8665908,"name":"Stazione di servizio di Singh Mandeep","brand":"Esso","address":"Largo Manzella 4  26029, SONCINO, CR","prices":[{"type":"petrol","price":1.839,"self":true,"updatedAt":"21/06/2026 12:40:30"},{"type":"diesel","price":2.049,"self":true,"updatedAt":"21/06/2026 12:40:30"}]},{"id":"44091","lat":45.28411830769063,"lon":9.854397023491856,"name":"6088","brand":"Tamoil","address":"IV NOVEMBRE 10 26015, SORESINA, CR","prices":[{"type":"petrol","price":1.779,"self":true,"updatedAt":"23/06/2026 23:49:40"},{"type":"diesel","price":1.869,"self":true,"updatedAt":"23/06/2026 23:49:40"}]},{"id":"34641","lat":45.288988608219455,"lon":9.844501656344619,"name":"ALCA","brand":"Pompe Bianche","address":"VIA CARSO 3 26015, SORESINA, CR","prices":[{"type":"petrol","price":1.799,"self":false,"updatedAt":"23/06/2026 15:27:28"},{"type":"diesel","price":1.859,"self":false,"updatedAt":"23/06/2026 15:27:28"}]},{"id":"24863","lat":45.28900022734245,"lon":9.842612066423158,"name":"ESSO SORESINA","brand":"Esso","address":"VIA MILANO N.15, SORESINA, CR","prices":[{"type":"petrol","price":1.779,"self":true,"updatedAt":"20/06/2026 19:19:36"},{"type":"diesel","price":1.869,"self":true,"updatedAt":"20/06/2026 19:19:36"}]},{"id":"53519","lat":45.2936238,"lon":9.8596434,"name":"IP","brand":"Oil Italia","address":"Via Montenero 63  26015, SORESINA, CR","prices":[{"type":"petrol","price":1.799,"self":true,"updatedAt":"23/06/2026 08:09:23"},{"type":"diesel","price":1.919,"self":true,"updatedAt":"23/06/2026 08:09:23"}]},{"id":"53485","lat":45.28575935435889,"lon":9.866616295914827,"name":"TRUSSARDI PETROLI","brand":"Pompe Bianche","address":"Via Piave  6 26015, SORESINA, CR","prices":[{"type":"petrol","price":1.829,"self":true,"updatedAt":"22/06/2026 10:07:44"},{"type":"diesel","price":1.929,"self":true,"updatedAt":"22/06/2026 10:07:44"},{"type":"lpg","price":0.759,"self":false,"updatedAt":"22/06/2026 10:07:44"}]}]