[{"id":"46725","lat":45.47604432418178,"lon":9.546164274215698,"name":"RANCATI LUCA GORO","brand":"Ernesto Rondini","address":"strada provinciale Rivoltana, 185  24040, ARZAGO D'ADDA, BG","prices":[{"type":"petrol","price":1.799,"self":true,"updatedAt":"20/06/2026 11:27:47"},{"type":"diesel","price":1.899,"self":true,"updatedAt":"20/06/2026 11:27:47"},{"type":"lpg","price":0.719,"self":false,"updatedAt":"20/06/2026 11:27:47"}]},{"id":"61311","lat":45.492195,"lon":9.698383,"name":"1641 FORNOVO SAN GIOVANNI","brand":"Agip Eni","address":"S.P. 591 KM 24+210, FORNOVO SAN GIOVANNI, BG","prices":[{"type":"petrol","price":1.809,"self":true,"updatedAt":"21/06/2026 00:43:04"},{"type":"diesel","price":1.919,"self":true,"updatedAt":"21/06/2026 00:43:04"}]},{"id":"30128","lat":45.476624543321975,"lon":9.618401527404785,"name":"LP CARBURANTI","brand":"LP Carburanti","address":"STRADA RIVOLTANA KM. 5800  24040, MISANO DI GERA D'ADDA, BG","prices":[{"type":"petrol","price":1.789,"self":true,"updatedAt":"20/06/2026 08:09:19"},{"type":"diesel","price":1.879,"self":true,"updatedAt":"20/06/2026 08:09:20"},{"type":"lpg","price":0.779,"self":false,"updatedAt":"20/06/2026 08:09:19"}]},{"id":"12506","lat":45.48199067597176,"lon":9.681335538625717,"name":"STAZIONE DI SERVIZIO ARESI MATTIA E C. SNC","brand":"Ernesto Rondini","address":"STRADA PROVINCIALE KM.10.700  24050, MOZZANICA, BG","prices":[{"type":"petrol","price":1.809,"self":true,"updatedAt":"20/06/2026 07:23:18"},{"type":"diesel","price":1.909,"self":true,"updatedAt":"20/06/2026 07:23:18"}]},{"id":"28236","lat":45.44484475590128,"lon":9.549567326903343,"name":"Agnadello CR","brand":"Api-Ip","address":"Statale 472 Bergamina, Km. 10+870, dir. Agnadello - 26020, AGNADELLO, CR","prices":[{"type":"petrol","price":1.809,"self":true,"updatedAt":"19/06/2026 15:24:51"},{"type":"diesel","price":1.909,"self":true,"updatedAt":"19/06/2026 15:24:51"}]},{"id":"50062","lat":45.362664332348274,"lon":9.629557862922947,"name":"ENERGO! - PIT STOP","brand":"Pompe Bianche","address":"LEONARDO DA VINCI SNC 26010, BAGNOLO CREMASCO, CR","prices":[{"type":"petrol","price":1.769,"self":true,"updatedAt":"20/06/2026 12:39:02"},{"type":"diesel","price":1.879,"self":true,"updatedAt":"20/06/2026 12:39:02"}]},{"id":"7415","lat":45.35027839456268,"lon":9.611685276031494,"name":"IP","brand":"Api-Ip","address":"STRADA STATALE 235 KM 46,490 SNC 26010, BAGNOLO CREMASCO, CR","prices":[{"type":"petrol","price":1.759,"self":true,"updatedAt":"20/06/2026 08:07:29"},{"type":"diesel","price":1.869,"self":true,"updatedAt":"20/06/2026 08:07:29"}]},{"id":"42035","lat":45.44114986065378,"lon":9.64457743009416,"name":"6075","brand":"Tamoil","address":"S.P. CREMA-CAPRALBA SNC 26010, CAPRALBA, CR","prices":[{"type":"petrol","price":1.849,"self":true,"updatedAt":"21/06/2026 00:30:01"},{"type":"diesel","price":1.949,"self":true,"updatedAt":"21/06/2026 00:30:01"}]},{"id":"55011","lat":45.353592,"lon":9.68729,"name":"1956 Crema","brand":"Agip Eni","address":"Via Piacenza 50  26013, CREMA, CR","prices":[{"type":"petrol","price":1.799,"self":true,"updatedAt":"21/06/2026 01:06:25"},{"type":"diesel","price":1.899,"self":true,"updatedAt":"21/06/2026 01:06:25"}]},{"id":"43555","lat":45.359330494551905,"lon":9.678128949014308,"name":"6079","brand":"Tamoil","address":"DE GASPERI 50 26013, CREMA, CR","prices":[{"type":"petrol","price":1.799,"self":true,"updatedAt":"20/06/2026 23:27:30"},{"type":"diesel","price":1.909,"self":true,"updatedAt":"20/06/2026 23:27:30"}]},{"id":"43556","lat":45.35775134581333,"lon":9.669219411045106,"name":"6080","brand":"Tamoil","address":"EUROPA 7 26013, CREMA, CR","prices":[{"type":"petrol","price":1.789,"self":true,"updatedAt":"20/06/2026 23:57:01"},{"type":"diesel","price":1.899,"self":true,"updatedAt":"20/06/2026 23:57:01"}]},{"id":"34261","lat":45.35929909486885,"lon":9.646311923861504,"name":"6081","brand":"Tamoil","address":"MILANO 73 26013, CREMA, CR","prices":[{"type":"petrol","price":1.789,"self":true,"updatedAt":"21/06/2026 00:27:40"},{"type":"diesel","price":1.899,"self":true,"updatedAt":"21/06/2026 00:27:40"}]},{"id":"54318","lat":45.3590947,"lon":9.6695884,"name":"AR.CA Cremasca Crema","brand":"Agip Eni","address":"Via Milano 2 26013, CREMA, CR","prices":[{"type":"petrol","price":1.844,"self":true,"updatedAt":"21/06/2026 00:48:58"},{"type":"diesel","price":1.944,"self":true,"updatedAt":"21/06/2026 00:48:58"}]},{"id":"28982","lat":45.34760166262819,"lon":9.660909175872803,"name":"CREMA","brand":"Api-Ip","address":"S.S. 415 tangenziale lato nord  26013, CREMA, CR","prices":[{"type":"petrol","price":1.779,"self":true,"updatedAt":"20/06/2026 09:13:27"},{"type":"diesel","price":1.889,"self":true,"updatedAt":"20/06/2026 09:13:27"}]},{"id":"32485","lat":45.36733516469726,"lon":9.678462046032678,"name":"CREMA INDIPENDENZA 89","brand":"Q8","address":"INDIPENDENZA  89 26013, CREMA, CR","prices":[{"type":"petrol","price":1.779,"self":true,"updatedAt":"20/06/2026 01:39:15"},{"type":"diesel","price":1.879,"self":true,"updatedAt":"20/06/2026 01:39:15"}]},{"id":"21234","lat":45.368336259058,"lon":9.720732375115972,"name":"CREMA S.P. 235 KM. 56+000","brand":"Q8","address":"S.P. 235 KM. 56+000  26013, CREMA, CR","prices":[{"type":"petrol","price":1.759,"self":true,"updatedAt":"20/06/2026 01:39:16"},{"type":"diesel","price":1.869,"self":true,"updatedAt":"20/06/2026 01:39:16"}]},{"id":"10109","lat":45.356630113277554,"lon":9.67638322764742,"name":"CREMA VIA LIBERO COMUNE - DISTR.Q8","brand":"Q8","address":"VIA LIBERO COMUNE  26013, CREMA, CR","prices":[{"type":"petrol","price":1.779,"self":true,"updatedAt":"20/06/2026 01:39:19"},{"type":"diesel","price":1.889,"self":true,"updatedAt":"20/06/2026 01:39:19"}]},{"id":"11569","lat":45.35302648947997,"lon":9.68726093254088,"name":"CREMA-VIA LIBERO COMUNE 17","brand":"Q8","address":"VIA LIBERO COMUNE 17 26013, CREMA, CR","prices":[{"type":"petrol","price":1.779,"self":true,"updatedAt":"20/06/2026 01:39:15"},{"type":"diesel","price":1.879,"self":true,"updatedAt":"20/06/2026 01:39:15"}]},{"id":"34926","lat":45.35988567666948,"lon":9.665397348870346,"name":"ENERCOOP","brand":"Enercoop","address":"VIA VIA GIORGIO LA PIRA 12 26013, CREMA (CR) 12 26013, CREMA, CR","prices":[{"type":"petrol","price":1.779,"self":true,"updatedAt":"20/06/2026 09:01:48"},{"type":"diesel","price":1.879,"self":true,"updatedAt":"20/06/2026 09:01:48"},{"type":"lpg","price":0.769,"self":false,"updatedAt":"20/06/2026 09:01:48"}]},{"id":"16310","lat":45.35800512257268,"lon":9.671684811531122,"name":"ENI","brand":"Agip Eni","address":"VIALE EUROPA 1 26013, CREMA, CR","prices":[{"type":"petrol","price":1.824,"self":true,"updatedAt":"20/06/2026 12:14:06"},{"type":"diesel","price":1.914,"self":true,"updatedAt":"20/06/2026 12:14:06"}]},{"id":"61069","lat":45.382265719099344,"lon":9.695520401000977,"name":"gurpreet dass","brand":"Itala Petroli","address":"Via Bergamo 118 26013, CREMA, CR","prices":[{"type":"petrol","price":1.859,"self":true,"updatedAt":"20/06/2026 09:06:14"},{"type":"diesel","price":1.969,"self":true,"updatedAt":"20/06/2026 09:06:14"}]},{"id":"51305","lat":45.34709636406494,"lon":9.66087892352018,"name":"IP","brand":"Api-Ip","address":"415 Paullese, Km. 34,700, MILANO  26013, CREMA, CR","prices":[{"type":"petrol","price":1.779,"self":true,"updatedAt":"18/06/2026 18:45:58"},{"type":"diesel","price":1.889,"self":true,"updatedAt":"18/06/2026 18:45:58"},{"type":"lpg","price":0.899,"self":false,"updatedAt":"18/06/2026 18:45:58"}]},{"id":"57353","lat":45.3695767,"lon":9.6782816,"name":"IP","brand":"Api-Ip","address":"ALCIDE DE GASPERI 52/A 26013, CREMA, CR","prices":[{"type":"petrol","price":1.769,"self":true,"updatedAt":"18/06/2026 20:33:44"},{"type":"diesel","price":1.869,"self":true,"updatedAt":"18/06/2026 20:33:44"}]},{"id":"18128","lat":45.37098674170523,"lon":9.66932326555252,"name":"Metano e Gpl di Festari Martino e C. snc","brand":"KEROPETROL","address":"VIA  TREVIGLIO 14 26013, CREMA, CR","prices":[{"type":"petrol","price":1.789,"self":true,"updatedAt":"19/06/2026 11:38:27"},{"type":"diesel","price":1.899,"self":true,"updatedAt":"19/06/2026 11:38:27"},{"type":"methane","price":1.389,"self":false,"updatedAt":"19/06/2026 11:38:27"},{"type":"lpg","price":0.779,"self":false,"updatedAt":"19/06/2026 11:38:27"}]},{"id":"53311","lat":45.3623113,"lon":9.6947097,"name":"PETROL TOBER SRL - CREMA","brand":"Api-Ip","address":"INDIPENDENZA 97 26013, CREMA, CR","prices":[{"type":"petrol","price":1.799,"self":true,"updatedAt":"19/06/2026 12:05:50"},{"type":"diesel","price":1.919,"self":true,"updatedAt":"19/06/2026 12:05:50"}]},{"id":"46853","lat":45.36371097528951,"lon":9.549394984712762,"name":"4233","brand":"Tamoil","address":"EUROPA 18 26010, DOVERA, CR","prices":[{"type":"petrol","price":1.789,"self":true,"updatedAt":"21/06/2026 00:17:05"},{"type":"diesel","price":1.869,"self":true,"updatedAt":"21/06/2026 00:17:05"}]},{"id":"56875","lat":45.348713,"lon":9.714025,"name":"57609 MADIGLIANO","brand":"Agip Eni","address":"S.S. 415 KM 38+375, MADIGNANO, CR","prices":[{"type":"petrol","price":1.789,"self":true,"updatedAt":"21/06/2026 00:50:02"},{"type":"diesel","price":1.899,"self":true,"updatedAt":"21/06/2026 00:50:02"},{"type":"lpg","price":0.682,"self":false,"updatedAt":"20/06/2026 23:50:24"}]},{"id":"22520","lat":45.33533457964996,"lon":9.733916223049164,"name":"stazione di servizio Formenti Roberto e C. snc","brand":"Tamoil","address":"Statale 415 Paullese, Km. 40,850, dir. cremona - 26020, MADIGNANO, CR","prices":[{"type":"petrol","price":1.839,"self":true,"updatedAt":"21/06/2026 00:42:45"},{"type":"diesel","price":1.939,"self":true,"updatedAt":"21/06/2026 00:42:45"},{"type":"methane","price":1.379,"self":false,"updatedAt":"21/06/2026 00:42:45"}]},{"id":"50887","lat":45.2934596670334,"lon":9.704700261354446,"name":"MONTODINE","brand":"Api-Ip","address":"Strada Provinciale Crema-Codogno SNC 26010, MONTODINE, CR","prices":[{"type":"petrol","price":1.809,"self":true,"updatedAt":"19/06/2026 14:51:52"},{"type":"diesel","price":1.969,"self":true,"updatedAt":"19/06/2026 14:51:52"}]},{"id":"54119","lat":45.375885678604966,"lon":9.736426770687103,"name":"eni 01987","brand":"Agip Eni","address":"Via VIA CIRCONVALLAZIONE SUD N. 9 S.N. 26010, OFFANENGO (CR) 9 26010, OFFANENGO, CR","prices":[{"type":"petrol","price":1.849,"self":true,"updatedAt":"21/06/2026 00:58:44"},{"type":"diesel","price":1.949,"self":true,"updatedAt":"21/06/2026 00:58:44"}]},{"id":"63030","lat":45.40363295843699,"lon":9.55185649410756,"name":"ali awadin","brand":"Tamoil","address":"ROMA 2 26025, PANDINO, CR","prices":[{"type":"petrol","price":1.809,"self":true,"updatedAt":"20/06/2026 23:27:41"}]},{"id":"62803","lat":45.4033785,"lon":9.540987699999999,"name":"Italiana petroli","brand":"Api-Ip","address":"Via Milano 100  26025, PANDINO, CR","prices":[{"type":"petrol","price":1.809,"self":true,"updatedAt":"19/06/2026 16:57:41"},{"type":"diesel","price":1.909,"self":true,"updatedAt":"19/06/2026 16:57:41"}]},{"id":"11571","lat":45.40034350073427,"lon":9.560181224536905,"name":"PANDINO-S.P.35 KM 0+174","brand":"Q8","address":"S.P.35 KM 0+174 S/N 26017, PANDINO, CR","prices":[{"type":"petrol","price":1.789,"self":true,"updatedAt":"20/06/2026 08:13:01"},{"type":"diesel","price":1.939,"self":true,"updatedAt":"20/06/2026 08:13:01"}]},{"id":"60971","lat":45.401589245237176,"lon":9.590396428530198,"name":"STAZIONE IP","brand":"Api-Ip","address":"SP 35 VAPRIO SNC 26025, PANDINO, CR","prices":[{"type":"petrol","price":1.809,"self":true,"updatedAt":"21/06/2026 00:55:49"},{"type":"diesel","price":1.909,"self":true,"updatedAt":"21/06/2026 00:55:49"}]},{"id":"59531","lat":45.40009,"lon":9.54868,"name":"tamoil","brand":"Tamoil","address":"EUROPA 38 26025, PANDINO, CR","prices":[{"type":"petrol","price":1.939,"self":true,"updatedAt":"19/06/2026 20:51:49"},{"type":"diesel","price":1.969,"self":true,"updatedAt":"19/06/2026 20:51:49"},{"type":"lpg","price":0.899,"self":false,"updatedAt":"19/06/2026 20:51:49"}]},{"id":"7934","lat":45.33573618450712,"lon":9.692427814006805,"name":"stazione di servizio tamoil","brand":"Tamoil","address":"VIA ROMA 2 26010, RIPALTA CREMASCA, CR","prices":[{"type":"petrol","price":1.799,"self":true,"updatedAt":"20/06/2026 16:58:05"},{"type":"diesel","price":1.889,"self":true,"updatedAt":"20/06/2026 16:58:05"}]},{"id":"56881","lat":45.47108746899452,"lon":9.513567133394858,"name":"59053","brand":"Agip Eni","address":"G.DI VITTORIO 8 26027, RIVOLTA D'ADDA, CR","prices":[{"type":"petrol","price":1.844,"self":true,"updatedAt":"21/06/2026 00:40:21"},{"type":"diesel","price":1.964,"self":true,"updatedAt":"21/06/2026 00:40:21"}]},{"id":"61973","lat":45.47056783132249,"lon":9.515302856999387,"name":"6084 RIVOLTA D'ADDA - SUPERMARIO SAS","brand":"Tamoil","address":"Viale Piave 3  26027, RIVOLTA D'ADDA, CR","prices":[{"type":"petrol","price":1.799,"self":true,"updatedAt":"21/06/2026 00:45:44"},{"type":"diesel","price":1.919,"self":true,"updatedAt":"21/06/2026 00:45:44"}]},{"id":"53385","lat":45.47491104157888,"lon":9.509594511872951,"name":"ENI STATION","brand":"Agip Eni","address":"G. DI VITTORIO 17 26027, RIVOLTA D'ADDA, CR","prices":[{"type":"petrol","price":1.844,"self":true,"updatedAt":"20/06/2026 23:14:46"},{"type":"diesel","price":1.964,"self":true,"updatedAt":"20/06/2026 23:14:46"}]},{"id":"55990","lat":45.47519044619051,"lon":9.533605873675333,"name":"SHELL RIVOLTA D'ADDA SP 4 RIVOLTANA KM 3+080","brand":"Shell","address":"S.P. 4 RIVOLATANA KM 3+080 SN 26027, RIVOLTA D'ADDA, CR","prices":[{"type":"petrol","price":1.839,"self":true,"updatedAt":"21/06/2026 07:15:39"},{"type":"diesel","price":1.949,"self":true,"updatedAt":"21/06/2026 07:15:39"},{"type":"lpg","price":0.719,"self":false,"updatedAt":"21/06/2026 07:15:39"}]},{"id":"54317","lat":45.4237003,"lon":9.696473,"name":"Ar.CA Cremasca Sergnano","brand":"Agip Eni","address":"S.S.591 KM.32+649 SNC 26010, SERGNANO, CR","prices":[{"type":"petrol","price":1.844,"self":true,"updatedAt":"21/06/2026 00:48:48"},{"type":"diesel","price":1.944,"self":true,"updatedAt":"21/06/2026 00:48:48"}]},{"id":"59132","lat":45.3591872,"lon":9.6703409,"name":"AR.CA Cremasca snc di Arnoldi Renato & C.","brand":"Agip Eni","address":"RISORGIMENTO 30 26017, TRESCORE CREMASCO, CR","prices":[{"type":"petrol","price":1.804,"self":true,"updatedAt":"21/06/2026 00:27:39"},{"type":"diesel","price":1.889,"self":true,"updatedAt":"21/06/2026 00:27:39"}]},{"id":"6150","lat":45.40269055607812,"lon":9.627158095000937,"name":"STAZIONE DI SERVIZIO TAMOIL","brand":"Tamoil","address":"VIALE DE GASPERI 5 26017, TRESCORE CREMASCO, CR","prices":[{"type":"petrol","price":1.859,"self":true,"updatedAt":"20/06/2026 23:28:00"},{"type":"diesel","price":1.949,"self":true,"updatedAt":"20/06/2026 11:48:11"}]},{"id":"58740","lat":45.37588314864198,"lon":9.604941032396521,"name":"105370 VAIANO CREMASCO","brand":"Esso","address":"EX SS 415 KM 28+905 SNC 26010, VAIANO CREMASCO, CR","prices":[{"type":"petrol","price":1.839,"self":true,"updatedAt":"09/06/2026 16:05:14"},{"type":"diesel","price":1.949,"self":true,"updatedAt":"09/06/2026 16:05:14"}]},{"id":"63171","lat":45.375484535845764,"lon":9.605090872143265,"name":"ESSO - VAIANO CREMASCO","brand":"Esso","address":"SP Cremasca  26010, VAIANO CREMASCO, CR","prices":[{"type":"petrol","price":1.799,"self":true,"updatedAt":"16/06/2026 09:31:00"},{"type":"diesel","price":1.899,"self":true,"updatedAt":"17/06/2026 22:01:27"}]},{"id":"32298","lat":45.46377425285632,"lon":9.602450430393219,"name":"Sia Fuel Vailate","brand":"Sia fuel","address":"Via Marconi 9 26019, VAILATE, CR","prices":[{"type":"petrol","price":1.849,"self":true,"updatedAt":"19/06/2026 16:00:36"},{"type":"diesel","price":1.949,"self":true,"updatedAt":"19/06/2026 16:00:36"}]},{"id":"24379","lat":45.34641255000015,"lon":9.59104299545288,"name":"6111","brand":"Tamoil","address":"Statale 235 di Orzinuovi, Km. 44, dir. milano - 26835, CRESPIATICA, LO","prices":[{"type":"petrol","price":1.789,"self":true,"updatedAt":"20/06/2026 13:30:11"},{"type":"diesel","price":1.889,"self":true,"updatedAt":"20/06/2026 13:30:11"}]},{"id":"45418","lat":45.28955973499569,"lon":9.530768387791,"name":"3902","brand":"Tamoil","address":"S.S. 9 EMILIA KM 293+700 0 26900, LODI, LO","prices":[{"type":"petrol","price":1.859,"self":true,"updatedAt":"20/06/2026 23:52:08"},{"type":"diesel","price":1.899,"self":true,"updatedAt":"20/06/2026 23:52:08"}]},{"id":"62377","lat":45.33352581411263,"lon":9.539413154125214,"name":"Easy Service - Lodi","brand":"Energas","address":"s.s.235 km. 40+440 snc 20075, LODI, LO","prices":[{"type":"petrol","price":1.789,"self":true,"updatedAt":"21/06/2026 00:40:05"},{"type":"diesel","price":1.889,"self":true,"updatedAt":"21/06/2026 00:40:05"},{"type":"lpg","price":0.779,"self":false,"updatedAt":"21/06/2026 00:29:22"}]},{"id":"14608","lat":45.32004826819182,"lon":9.510071933065774,"name":"eni p.le crema","brand":"Agip Eni","address":"CREMA S.N 26900, LODI, LO","prices":[{"type":"petrol","price":1.829,"self":true,"updatedAt":"21/06/2026 00:36:45"},{"type":"diesel","price":1.919,"self":true,"updatedAt":"21/06/2026 00:36:45"}]},{"id":"60742","lat":45.29663857436708,"lon":9.505418449454485,"name":"esso","brand":"Esso","address":"via circonvalazione sud  snc 26900, LODI, LO","prices":[{"type":"petrol","price":1.949,"self":true,"updatedAt":"20/06/2026 08:07:40"},{"type":"diesel","price":2.081,"self":true,"updatedAt":"20/06/2026 08:07:40"},{"type":"lpg","price":0.621,"self":false,"updatedAt":"20/06/2026 08:07:40"}]},{"id":"55309","lat":45.29833927828541,"lon":9.515723884105682,"name":"IP DI SESINI MASS.","brand":"Api-Ip","address":"Viale Piacenza  26900, LODI, LO","prices":[{"type":"petrol","price":1.869,"self":true,"updatedAt":"18/06/2026 18:00:06"},{"type":"diesel","price":1.909,"self":true,"updatedAt":"18/06/2026 18:00:06"}]},{"id":"31903","lat":45.30683850934115,"lon":9.507728841127118,"name":"LODI - GIUSEPPE MAZZINI","brand":"Api-Ip","address":"CORSO GIUSEPPE MAZZINI 61/A 20075, LODI, LO","prices":[{"type":"petrol","price":1.869,"self":true,"updatedAt":"20/06/2026 09:02:41"},{"type":"diesel","price":1.909,"self":true,"updatedAt":"20/06/2026 09:02:41"}]},{"id":"24811","lat":45.29023202637999,"lon":9.529061454633847,"name":"LODI - OLMO","brand":"Api-Ip","address":"Statale 9 Via Emilia, Km. km, dir. milano - 26900, LODI, LO","prices":[{"type":"petrol","price":1.859,"self":true,"updatedAt":"20/06/2026 09:09:14"},{"type":"diesel","price":1.899,"self":true,"updatedAt":"20/06/2026 09:09:14"}]},{"id":"50461","lat":45.300654862555696,"lon":9.523655219014362,"name":"TANGENZIALE EST - LATO DX LODI","brand":"Q8","address":"TANGENZIALE EST - LATO DX  26900, LODI, LO","prices":[{"type":"petrol","price":1.879,"self":true,"updatedAt":"20/06/2026 08:12:07"},{"type":"diesel","price":1.899,"self":true,"updatedAt":"20/06/2026 08:12:07"}]},{"id":"50462","lat":45.30077053951619,"lon":9.522818666864769,"name":"TANGENZIALE EST - LATO SX LODI","brand":"Q8","address":"TANGENZIALE EST - LATO SX  26900, LODI, LO","prices":[{"type":"petrol","price":1.879,"self":true,"updatedAt":"20/06/2026 08:12:07"},{"type":"diesel","price":1.899,"self":true,"updatedAt":"20/06/2026 08:12:07"}]},{"id":"15923","lat":45.269838694590625,"lon":9.58837017416954,"name":"KEROPETROL SPA MAIRAGO","brand":"KEROPETROL","address":"VIA S.P. 26 KM 4+973 0 26825, MAIRAGO (LO) SNC 26825, MAIRAGO, LO","prices":[{"type":"petrol","price":1.799,"self":true,"updatedAt":"19/06/2026 10:17:15"},{"type":"diesel","price":1.899,"self":true,"updatedAt":"19/06/2026 10:17:15"},{"type":"lpg","price":0.729,"self":false,"updatedAt":"19/06/2026 10:17:15"}]},{"id":"51212","lat":45.27341964138057,"lon":9.524464123646158,"name":"SAN MARTINO IN STRADA","brand":"Sia fuel","address":"STRADA PROVINCIALE  107 26817, SAN MARTINO IN STRADA, LO","prices":[{"type":"petrol","price":1.849,"self":true,"updatedAt":"19/06/2026 16:01:32"},{"type":"diesel","price":1.949,"self":true,"updatedAt":"19/06/2026 16:01:32"}]},{"id":"11625","lat":45.28230188724046,"lon":9.536098076057442,"name":"SAN MARTINO IN STRADA-VIA EMILIA KM. 292","brand":"Q8","address":"VIA EMILIA KM. 292 S/N 20070, SAN MARTINO IN STRADA, LO","prices":[{"type":"petrol","price":1.847,"self":true,"updatedAt":"20/06/2026 01:38:53"},{"type":"diesel","price":1.899,"self":true,"updatedAt":"20/06/2026 01:38:53"}]}]