[{"id":"52503","lat":45.73291160676662,"lon":7.29903370141983,"name":"2 - Aosta","brand":"Agip Eni","address":"Via Piccolo S. Bernardo, 24  11100, AOSTA, AO","prices":[{"type":"petrol","price":1.829,"self":true,"updatedAt":"21/06/2026 00:41:59"},{"type":"diesel","price":1.919,"self":true,"updatedAt":"21/06/2026 00:41:59"}]},{"id":"37877","lat":45.739107434910025,"lon":7.3316989839077,"name":"4101","brand":"Tamoil","address":"IVREA 46 11100, AOSTA, AO","prices":[{"type":"petrol","price":1.859,"self":true,"updatedAt":"20/06/2026 23:26:02"},{"type":"diesel","price":1.929,"self":true,"updatedAt":"20/06/2026 23:26:02"}]},{"id":"11460","lat":45.738677783106354,"lon":7.308237963714191,"name":"AOSTA-VIA S.MARTIN DE CORLEANS 122","brand":"Q8","address":"VIA S.MARTIN DE CORLEANS 122 11100, AOSTA, AO","prices":[{"type":"petrol","price":1.867,"self":true,"updatedAt":"20/06/2026 01:38:41"},{"type":"diesel","price":1.917,"self":true,"updatedAt":"20/06/2026 01:38:41"}]},{"id":"39370","lat":45.735444966015166,"lon":7.301402464418061,"name":"area di servizio di lazzaro alessandro","brand":"Api-Ip","address":"VIA SAINT MARTIN DE CORLEANS 145 11100, AOSTA, AO","prices":[{"type":"petrol","price":1.999,"self":true,"updatedAt":"18/06/2026 17:52:18"},{"type":"diesel","price":2.069,"self":true,"updatedAt":"18/06/2026 17:52:18"}]},{"id":"25679","lat":45.73693892265551,"lon":7.333508133888245,"name":"ENI 55357","brand":"Agip Eni","address":"VIA CLAVALITE' 6, 11100 - -, AOSTA, AO","prices":[{"type":"petrol","price":1.844,"self":true,"updatedAt":"21/06/2026 00:44:31"},{"type":"diesel","price":1.944,"self":true,"updatedAt":"21/06/2026 00:44:31"}]},{"id":"9778","lat":45.7402299,"lon":7.337930399999999,"name":"eni pv00024 - centro auto snc","brand":"Agip Eni","address":"Corso Ivrea 144 11100, AOSTA, AO","prices":[{"type":"petrol","price":1.849,"self":true,"updatedAt":"21/06/2026 00:41:02"},{"type":"diesel","price":1.949,"self":true,"updatedAt":"21/06/2026 00:41:02"}]},{"id":"25670","lat":45.73328023417177,"lon":7.314509116077488,"name":"ESSO 2901","brand":"Esso","address":"VIALE PARTIGIANI 25, 11100, AOSTA, AO","prices":[{"type":"petrol","price":1.874,"self":true,"updatedAt":"20/06/2026 08:25:06"},{"type":"diesel","price":1.984,"self":true,"updatedAt":"20/06/2026 08:25:06"}]},{"id":"25684","lat":45.7397259727346,"lon":7.336683869361877,"name":"ESSO 2924","brand":"Esso","address":"CORSO IVREA 67, 11100 - -, AOSTA, AO","prices":[{"type":"petrol","price":1.854,"self":true,"updatedAt":"19/06/2026 08:11:52"},{"type":"diesel","price":1.964,"self":true,"updatedAt":"19/06/2026 08:11:53"}]},{"id":"55688","lat":45.74187210598741,"lon":7.322853987048425,"name":"Esso Aosta via Chabod,7","brand":"Esso","address":"FEDERICO CHABOD 7 11100, AOSTA, AO","prices":[{"type":"petrol","price":1.854,"self":true,"updatedAt":"20/06/2026 07:59:05"},{"type":"diesel","price":1.954,"self":true,"updatedAt":"20/06/2026 07:59:05"}]},{"id":"62509","lat":45.7323066,"lon":7.3138422,"name":"Europa - Aosta Chamolé","brand":"Europam","address":"Via Chamolé 3  11100, AOSTA, AO","prices":[{"type":"petrol","price":1.837,"self":true,"updatedAt":"19/06/2026 11:36:49"},{"type":"diesel","price":1.927,"self":true,"updatedAt":"19/06/2026 11:36:49"}]},{"id":"42897","lat":45.7322902,"lon":7.2961286,"name":"Europa - Aosta San Bernardo","brand":"Europam","address":"Viale Piccolo S. Bernardo  11100, AOSTA, AO","prices":[{"type":"petrol","price":1.837,"self":true,"updatedAt":"19/06/2026 11:31:52"},{"type":"diesel","price":1.927,"self":true,"updatedAt":"19/06/2026 11:31:52"}]},{"id":"60682","lat":45.7358733,"lon":7.2975424,"name":"EUROPAM - AOSTA VIA PARIGI","brand":"Europam","address":"Via Parigi 154B  11100, AOSTA, AO","prices":[{"type":"petrol","price":1.847,"self":true,"updatedAt":"19/06/2026 11:31:53"},{"type":"diesel","price":1.937,"self":true,"updatedAt":"19/06/2026 11:31:53"}]},{"id":"45686","lat":45.74169438430524,"lon":7.3257704957007945,"name":"EUROPAM AOSTA CHABOD","brand":"Europam","address":"VIALE F.CHABOD  23 11100, AOSTA, AO","prices":[{"type":"petrol","price":1.837,"self":true,"updatedAt":"19/06/2026 11:29:48"},{"type":"diesel","price":1.927,"self":true,"updatedAt":"19/06/2026 11:29:48"}]},{"id":"55816","lat":45.74051144194021,"lon":7.3169635142196965,"name":"Impianto di sposato domenico","brand":"Agip Eni","address":"XXVI FEBBRAIO 7 11100, AOSTA, AO","prices":[{"type":"petrol","price":1.87,"self":true,"updatedAt":"21/06/2026 00:41:48"},{"type":"diesel","price":1.978,"self":true,"updatedAt":"21/06/2026 00:41:48"}]},{"id":"56328","lat":45.7354608,"lon":7.3259109,"name":"STAR OIL DI SVR CARBURANTI DI SEVERINO SIMONE E C.SNC","brand":"Pompe Bianche","address":"Viale Giorgio Carrel 13  11100, AOSTA, AO","prices":[{"type":"petrol","price":1.834,"self":true,"updatedAt":"20/06/2026 07:41:08"},{"type":"diesel","price":1.919,"self":true,"updatedAt":"20/06/2026 07:41:08"}]},{"id":"14610","lat":45.7476903207535,"lon":7.317918156344604,"name":"Stazione di Servizio di Desaymoz Marco","brand":"Api-Ip","address":"REGIONE SARAILLON 21, 11100 - -, AOSTA, AO","prices":[{"type":"petrol","price":1.879,"self":true,"updatedAt":"19/06/2026 15:20:11"},{"type":"diesel","price":1.959,"self":true,"updatedAt":"19/06/2026 15:20:11"}]},{"id":"20870","lat":45.74068310790974,"lon":7.334287193134287,"name":"VALPETROLI","brand":"Pompe Bianche","address":"Via Roma 45/47 11100, AOSTA, AO","prices":[{"type":"petrol","price":1.879,"self":true,"updatedAt":"19/06/2026 10:52:12"},{"type":"diesel","price":1.979,"self":true,"updatedAt":"19/06/2026 10:52:12"},{"type":"lpg","price":0.899,"self":false,"updatedAt":"19/06/2026 10:52:12"}]},{"id":"3829","lat":45.73698656499145,"lon":7.406049020125465,"name":"LES ILES DE BRISSOGNE","brand":"Agip Eni","address":"Autostrada A5 AOSTA-QUINCINETTO, Km. 98.9, dir. Ovest - 11020, BRISSOGNE, AO","prices":[{"type":"petrol","price":1.945,"self":true,"updatedAt":"20/06/2026 23:12:53"},{"type":"diesel","price":2.044,"self":true,"updatedAt":"20/06/2026 23:12:53"},{"type":"lpg","price":0.95,"self":false,"updatedAt":"20/06/2026 23:12:53"}]},{"id":"57905","lat":45.728135064239915,"lon":7.323728799819946,"name":"SAV Petroli","brand":"Pompe Bianche","address":"PONT SUAZ STR. REG.LE 19 SNC 11020, CHARVENSOD, AO","prices":[{"type":"petrol","price":1.839,"self":true,"updatedAt":"20/06/2026 23:37:49"},{"type":"diesel","price":1.928,"self":true,"updatedAt":"20/06/2026 23:37:49"}]},{"id":"57987","lat":45.618133798916084,"lon":7.3383281615081986,"name":"IP Cogne","brand":"Itala Petroli","address":"Frazione Cretaz 6/7/8/9 11012, COGNE, AO","prices":[{"type":"petrol","price":1.869,"self":true,"updatedAt":"20/06/2026 23:55:00"},{"type":"diesel","price":1.969,"self":true,"updatedAt":"20/06/2026 23:55:00"}]},{"id":"13361","lat":45.73725334587358,"lon":7.49027466191194,"name":"Stazione di servizio di Marcotullio Ivan","brand":"Sommese Petroli","address":"LOCALITA' CHEZ SAPIN 108 11020, FÉNIS, AO","prices":[{"type":"petrol","price":1.869,"self":true,"updatedAt":"17/06/2026 20:10:08"},{"type":"diesel","price":1.989,"self":true,"updatedAt":"17/06/2026 20:10:08"}]},{"id":"32498","lat":45.738231319471964,"lon":7.461233520593282,"name":"CONTOZ - NUS","brand":"Pompe Bianche","address":"Statale 26 della Valle d'Aosta, Km. 51, dir. AOSTA - 11020, NUS, AO","prices":[{"type":"petrol","price":1.825,"self":true,"updatedAt":"20/06/2026 16:07:04"},{"type":"diesel","price":1.899,"self":true,"updatedAt":"20/06/2026 23:56:53"}]},{"id":"57676","lat":45.7349167,"lon":7.36858235,"name":"7624","brand":"Tamoil","address":"Località Autoporto  11020, POLLEIN, AO","prices":[{"type":"petrol","price":1.849,"self":true,"updatedAt":"20/06/2026 23:27:13"},{"type":"diesel","price":1.919,"self":true,"updatedAt":"20/06/2026 23:27:13"},{"type":"methane","price":1.499,"self":true,"updatedAt":"20/06/2026 23:27:13"},{"type":"lpg","price":0.879,"self":false,"updatedAt":"20/06/2026 23:27:13"}]},{"id":"60161","lat":45.73742774094129,"lon":7.369684132540892,"name":"POLLEIN AUTOPORTO","brand":"Pompe Bianche","address":"Autostrada A5 AOSTA-QUINCINETTO,  Km. 101, dir. Torino 11020, POLLEIN, AO","prices":[{"type":"petrol","price":1.982,"self":true,"updatedAt":"20/06/2026 23:27:10"},{"type":"diesel","price":2.096,"self":true,"updatedAt":"20/06/2026 23:27:10"}]},{"id":"62433","lat":45.72836771985375,"lon":7.3501186303634265,"name":"SOMMESE PETROLI  POLLEIN","brand":"Sommese Petroli","address":"Frazione La Cisaz,  loc. capoluogo 87A 4A 11020, POLLEIN, AO","prices":[{"type":"petrol","price":1.839,"self":true,"updatedAt":"21/06/2026 00:18:05"},{"type":"diesel","price":1.939,"self":true,"updatedAt":"21/06/2026 00:18:05"}]},{"id":"39356","lat":45.741323109865384,"lon":7.373722493648529,"name":"ESSO","brand":"Esso","address":"LOCALITA AMERIQUE 91 11020, QUART, AO","prices":[{"type":"petrol","price":1.844,"self":true,"updatedAt":"20/06/2026 07:00:01"},{"type":"diesel","price":1.944,"self":true,"updatedAt":"20/06/2026 07:00:01"}]},{"id":"11459","lat":45.74035881726637,"lon":7.396307288360617,"name":"QUART-LOC. TEPPE SS.2","brand":"Q8","address":"LOC. TEPPE SS.26 S/N 11020, QUART, AO","prices":[{"type":"petrol","price":1.859,"self":true,"updatedAt":"18/06/2026 07:47:46"},{"type":"diesel","price":1.929,"self":true,"updatedAt":"18/06/2026 07:47:46"}]},{"id":"55380","lat":45.73965,"lon":7.42202,"name":"SVP BENZ","brand":"Pompe Bianche","address":"LOCALITA' VILLEFRANCHE S.S. 26 KM93+400  SNC 11020, QUART, AO","prices":[{"type":"petrol","price":1.825,"self":true,"updatedAt":"19/06/2026 16:08:16"},{"type":"diesel","price":1.899,"self":true,"updatedAt":"19/06/2026 16:08:16"}]},{"id":"59689","lat":45.739334,"lon":7.3498564,"name":"59001 Saint-Christophe","brand":"Agip Eni","address":"S.S. N. 26 KM 99+263 - LOC. GRAND CHEMIN  SNC, SAINT-CHRISTOPHE, AO","prices":[{"type":"petrol","price":1.829,"self":true,"updatedAt":"21/06/2026 01:06:22"},{"type":"diesel","price":1.919,"self":true,"updatedAt":"21/06/2026 01:06:21"}]},{"id":"61670","lat":45.739899,"lon":7.357811,"name":"PAD SAINT CHRISTOPHE LOC. GRAND CHEMIN N. 176","brand":"PAD","address":"26 - LOC. GRAND CHEMIN 176 11020, SAINT-CHRISTOPHE, AO","prices":[{"type":"lpg","price":0.879,"self":false,"updatedAt":"21/06/2026 07:15:43"}]},{"id":"42848","lat":45.719702636823044,"lon":7.264207673610713,"name":"Europam Sarre","brand":"Europam","address":"S.S.26 KM 106+540\t  11010, SARRE, AO","prices":[{"type":"petrol","price":1.837,"self":true,"updatedAt":"19/06/2026 11:32:51"},{"type":"diesel","price":1.927,"self":true,"updatedAt":"19/06/2026 11:32:51"}]},{"id":"60358","lat":45.715320445139774,"lon":7.25884022309037,"name":"SARRE","brand":"Esso","address":"SS26 km 107+189, SARRE, AO","prices":[{"type":"petrol","price":1.849,"self":true,"updatedAt":"19/06/2026 07:59:20"},{"type":"diesel","price":1.909,"self":true,"updatedAt":"19/06/2026 07:59:20"}]}]