[{"id":"55303","lat":45.52066259380861,"lon":8.726854026317596,"name":"SOMMESE TURBIGO SS341","brand":"Sommese Petroli","address":"S.S. 341 KM. 12+603  20029, TURBIGO, MI","prices":[{"type":"petrol","price":1.799,"self":true,"updatedAt":"25/06/2026 00:48:01"},{"type":"diesel","price":1.899,"self":true,"updatedAt":"25/06/2026 00:48:01"}]},{"id":"57793","lat":45.53342285278885,"lon":8.732162256652844,"name":"SOMMESE TURBIGO VIA MILANO","brand":"Sommese Petroli","address":"VIA MILANO 45 20029, TURBIGO, MI","prices":[{"type":"petrol","price":1.829,"self":true,"updatedAt":"25/06/2026 00:47:50"},{"type":"diesel","price":1.919,"self":true,"updatedAt":"25/06/2026 07:26:15"}]},{"id":"62692","lat":45.542565,"lon":8.638161,"name":"6925","brand":"Tamoil","address":"SS. 32 KM. 11+280 LATO SX  28043, BELLINZAGO NOVARESE, NO","prices":[{"type":"petrol","price":1.719,"self":true,"updatedAt":"25/06/2026 23:32:25"},{"type":"diesel","price":1.789,"self":true,"updatedAt":"25/06/2026 12:11:00"},{"type":"lpg","price":0.679,"self":false,"updatedAt":"25/06/2026 12:11:00"}]},{"id":"52749","lat":45.57537,"lon":8.64006,"name":"Eni Station","brand":"Agip Eni","address":"LIBERTA' 29 28043, BELLINZAGO NOVARESE, NO","prices":[{"type":"petrol","price":1.814,"self":true,"updatedAt":"26/06/2026 00:16:04"},{"type":"diesel","price":1.904,"self":true,"updatedAt":"26/06/2026 06:14:22"}]},{"id":"30044","lat":45.56569310976566,"lon":8.634843528270721,"name":"SOMMESE CARBURANTE BELLINZAGO","brand":"Sommese Petroli","address":"32 Ticinese, Km. 13+900, NORD - 28043, BELLINZAGO NOVARESE, NO","prices":[{"type":"petrol","price":1.717,"self":true,"updatedAt":"25/06/2026 00:28:27"},{"type":"diesel","price":1.817,"self":true,"updatedAt":"25/06/2026 00:28:27"}]},{"id":"47154","lat":45.664933000123,"lon":8.540174000123,"name":"Economy - Bogogno","brand":"Api-Ip","address":"VIA GUGLIELMO MARCONI 17 28010, BOGOGNO, NO","prices":[{"type":"petrol","price":1.898,"self":false,"updatedAt":"22/06/2026 16:44:28"},{"type":"diesel","price":1.998,"self":false,"updatedAt":"22/06/2026 16:44:28"}]},{"id":"38920","lat":45.67986867709533,"lon":8.608160014715168,"name":"ENI 00354","brand":"Agip Eni","address":"VIA SEMPIONE 2 28040, BORGO TICINO, NO","prices":[{"type":"petrol","price":1.794,"self":true,"updatedAt":"26/06/2026 00:06:24"},{"type":"diesel","price":1.919,"self":true,"updatedAt":"26/06/2026 00:06:24"}]},{"id":"9546","lat":45.68241223129521,"lon":8.606913685798645,"name":"Tamoil","brand":"Tamoil","address":"Statale 32 Ticinese, Km. 28, dir. Novara - 28040, BORGO TICINO, NO","prices":[{"type":"petrol","price":1.729,"self":true,"updatedAt":"26/06/2026 00:25:15"},{"type":"diesel","price":1.799,"self":true,"updatedAt":"26/06/2026 00:25:15"}]},{"id":"61785","lat":45.506491986048275,"lon":8.597703213324722,"name":"Economy srl - Caltignaga","brand":"Retitalia","address":"SP229 6+967  28010, CALTIGNAGA, NO","prices":[{"type":"petrol","price":1.769,"self":true,"updatedAt":"25/06/2026 11:18:32"},{"type":"diesel","price":1.879,"self":true,"updatedAt":"25/06/2026 11:18:32"},{"type":"lpg","price":0.699,"self":true,"updatedAt":"25/06/2026 11:18:32"}]},{"id":"5532","lat":45.71927036325096,"lon":8.608878411045112,"name":"CASTELLETTO TICINO","brand":"Api-Ip","address":"SS33 Sempione KM 57 + 200  28053, CASTELLETTO SOPRA TICINO, NO","prices":[{"type":"petrol","price":1.777,"self":true,"updatedAt":"25/06/2026 09:16:46"},{"type":"diesel","price":1.867,"self":true,"updatedAt":"25/06/2026 09:16:46"}]},{"id":"6420","lat":45.71293117493445,"lon":8.642468963229362,"name":"CASTELLETTO TICINO STRADA CROCE PIETRA","brand":"Q8","address":"STRADA CROCE PIETRA SNC 28053, CASTELLETTO SOPRA TICINO, NO","prices":[{"type":"petrol","price":1.799,"self":true,"updatedAt":"26/06/2026 01:39:31"},{"type":"diesel","price":1.839,"self":true,"updatedAt":"26/06/2026 01:39:31"}]},{"id":"47148","lat":45.71983399947224,"lon":8.618449796627047,"name":"COIL CASTELLETTO TICINO","brand":"COIL","address":"33 del Sempione, Km. 57+100, ARONA  28053, CASTELLETTO SOPRA TICINO, NO","prices":[{"type":"petrol","price":1.775,"self":true,"updatedAt":"25/06/2026 10:26:05"},{"type":"diesel","price":1.847,"self":true,"updatedAt":"25/06/2026 14:58:07"}]},{"id":"33672","lat":45.71933996237126,"lon":8.637193936176345,"name":"G.A.D. Castelletto","brand":"Tamoil","address":"VIA VIA DIAZ 51 28053, CASTELLETTO SOPRA TICINO (NO) 55 28053, CASTELLETTO SOPRA TICINO, NO","prices":[{"type":"petrol","price":1.779,"self":true,"updatedAt":"25/06/2026 12:22:08"},{"type":"diesel","price":1.849,"self":true,"updatedAt":"25/06/2026 12:22:08"}]},{"id":"51213","lat":45.71872300215542,"lon":8.592177284108857,"name":"Gas Auto","brand":"Pompe Bianche","address":"33 del Sempione, Km. 58, Nord - 28053, CASTELLETTO SOPRA TICINO, NO","prices":[{"type":"lpg","price":0.749,"self":false,"updatedAt":"25/06/2026 18:55:35"}]},{"id":"28170","lat":45.71413770063717,"lon":8.639075101852427,"name":"staz serv TOTAL ERG","brand":"Api-Ip","address":"VIA REPUBBLICA 4 28053, CASTELLETTO SOPRA TICINO, NO","prices":[{"type":"petrol","price":1.839,"self":true,"updatedAt":"25/06/2026 17:30:13"},{"type":"diesel","price":1.959,"self":true,"updatedAt":"25/06/2026 17:30:13"}]},{"id":"56242","lat":45.7102116,"lon":8.5901649,"name":"VEGA CASTELLETTO","brand":"Vega","address":"SS32 31 + 600 28040, CASTELLETTO SOPRA TICINO, NO","prices":[{"type":"petrol","price":1.779,"self":true,"updatedAt":"25/06/2026 08:11:04"},{"type":"diesel","price":1.869,"self":true,"updatedAt":"25/06/2026 08:11:04"},{"type":"lpg","price":0.749,"self":false,"updatedAt":"25/06/2026 08:11:04"}]},{"id":"41123","lat":45.66074030377374,"lon":8.502123802900314,"name":"AGOGNA EST","brand":"Tamoil","address":"A26 (GE) VOLTRI-GRAVELLONA T., Km. 154+800, Gravellona - 28012, CRESSA, NO","prices":[{"type":"petrol","price":2.098,"self":true,"updatedAt":"25/06/2026 00:52:31"},{"type":"diesel","price":2.149,"self":true,"updatedAt":"25/06/2026 00:52:31"},{"type":"lpg","price":0.949,"self":false,"updatedAt":"25/06/2026 00:52:31"}]},{"id":"6417","lat":45.7335616053297,"lon":8.574434820901502,"name":"DORMELLETTO VIA CAVOUR 90","brand":"Q8","address":"VIA CAVOUR 90 28040, DORMELLETTO, NO","prices":[{"type":"petrol","price":1.799,"self":true,"updatedAt":"26/06/2026 01:39:30"},{"type":"diesel","price":1.909,"self":true,"updatedAt":"26/06/2026 01:39:30"}]},{"id":"39481","lat":45.74269024318982,"lon":8.56716200709343,"name":"IP","brand":"Api-Ip","address":"Statale 33 del Sempione, Km. 62+550, dir. Novara - 28040, DORMELLETTO, NO","prices":[{"type":"petrol","price":1.827,"self":true,"updatedAt":"24/06/2026 17:03:06"},{"type":"diesel","price":1.917,"self":true,"updatedAt":"24/06/2026 17:03:06"}]},{"id":"9175","lat":45.74527737813549,"lon":8.565547322090197,"name":"QUI24","brand":"Tamoil","address":"VIA CAVOUR 7 28040, DORMELLETTO, NO","prices":[{"type":"petrol","price":1.919,"self":true,"updatedAt":"26/06/2026 06:01:12"},{"type":"diesel","price":1.979,"self":true,"updatedAt":"26/06/2026 06:01:12"},{"type":"lpg","price":0.789,"self":false,"updatedAt":"26/06/2026 06:01:12"}]},{"id":"61508","lat":45.73889624266873,"lon":8.570261538180597,"name":"RETITALIA DORMELLETTO","brand":"Retitalia","address":"CAVOUR 58 SS 33 28040, DORMELLETTO, NO","prices":[{"type":"petrol","price":1.779,"self":true,"updatedAt":"25/06/2026 08:04:07"},{"type":"diesel","price":1.869,"self":true,"updatedAt":"25/06/2026 08:04:07"}]},{"id":"54470","lat":45.732567,"lon":8.575648,"name":"Tamoil","brand":"Tamoil","address":"STRADA STAT. SS33 DEL SEMPIONE KM61+240 SN 28040, DORMELLETTO (NO) 41 28040, DORMELLETTO, NO","prices":[{"type":"petrol","price":1.799,"self":true,"updatedAt":"24/06/2026 15:05:16"},{"type":"diesel","price":1.899,"self":true,"updatedAt":"24/06/2026 15:05:16"}]},{"id":"11748","lat":45.7093614,"lon":8.5258632,"name":"GATTICO S.S. 32 DIR","brand":"Q8","address":"S.S. 32 DIR S/N 28013, GATTICO-VERUNO, NO","prices":[{"type":"petrol","price":1.839,"self":true,"updatedAt":"26/06/2026 07:44:09"},{"type":"diesel","price":1.919,"self":true,"updatedAt":"26/06/2026 07:44:09"}]},{"id":"17688","lat":45.6358830743925,"lon":8.622824549674988,"name":"MARANO TICINO","brand":"Api-Ip","address":"Statale 32 Ticinese, Km. 22+362, dir. NOVARA - 28040, MARANO TICINO, NO","prices":[{"type":"petrol","price":1.699,"self":true,"updatedAt":"25/06/2026 19:02:56"},{"type":"diesel","price":1.799,"self":true,"updatedAt":"25/06/2026 19:02:56"},{"type":"lpg","price":0.674,"self":false,"updatedAt":"25/06/2026 19:02:56"}]},{"id":"61375","lat":45.636731,"lon":8.621992,"name":"MARANO TICINO","brand":"Pompe Bianche","address":"SS32 KM 22+462 28040, MARANO TICINO, NO","prices":[{"type":"petrol","price":1.699,"self":true,"updatedAt":"25/06/2026 10:40:34"},{"type":"diesel","price":1.799,"self":true,"updatedAt":"25/06/2026 10:40:34"},{"type":"methane","price":0.5,"self":false,"updatedAt":"25/06/2026 20:17:52"},{"type":"lpg","price":0.674,"self":false,"updatedAt":"25/06/2026 15:40:55"}]},{"id":"45627","lat":45.55437291294031,"lon":8.567601354397084,"name":"fermata belvedere","brand":"Agip Eni","address":"sp 229 km 12  28015, MOMO, NO","prices":[{"type":"petrol","price":1.825,"self":true,"updatedAt":"22/06/2026 18:43:08"},{"type":"diesel","price":2.914,"self":true,"updatedAt":"22/06/2026 18:43:08"},{"type":"methane","price":1.629,"self":false,"updatedAt":"22/06/2026 18:43:08"},{"type":"lpg","price":0.739,"self":false,"updatedAt":"22/06/2026 18:43:08"}]},{"id":"56872","lat":45.5737737,"lon":8.5559174,"name":"GIACOMO ALBERA","brand":"Agip Eni","address":"SR 229 Km. 14+700  28015, MOMO, NO","prices":[{"type":"petrol","price":1.825,"self":true,"updatedAt":"21/06/2026 21:17:20"},{"type":"diesel","price":1.914,"self":true,"updatedAt":"21/06/2026 21:17:20"}]},{"id":"61068","lat":45.5894953,"lon":8.64250952,"name":"3478","brand":"Tamoil","address":"SS32 km 16+676  28047, OLEGGIO, NO","prices":[{"type":"petrol","price":1.699,"self":true,"updatedAt":"25/06/2026 12:15:42"},{"type":"diesel","price":1.799,"self":true,"updatedAt":"25/06/2026 12:15:42"}]},{"id":"45637","lat":45.591184000123,"lon":8.672263000123,"name":"G.A.D. Oleggio","brand":"Tamoil","address":"VIA S.S. 527 KM 2+688 SN 28047, OLEGGIO (NO) SS527 28047, OLEGGIO, NO","prices":[{"type":"petrol","price":1.749,"self":true,"updatedAt":"24/06/2026 08:40:39"},{"type":"diesel","price":1.829,"self":true,"updatedAt":"24/06/2026 08:40:39"}]},{"id":"60989","lat":45.58875590252208,"lon":8.6384779214859,"name":"OLEGGIO","brand":"Esso","address":"Via Novara 78 28047, OLEGGIO, NO","prices":[{"type":"petrol","price":1.789,"self":true,"updatedAt":"26/06/2026 07:34:30"},{"type":"diesel","price":1.889,"self":true,"updatedAt":"26/06/2026 07:34:30"}]},{"id":"22500","lat":45.594871402835174,"lon":8.623468675393724,"name":"Oleggio","brand":"Api-Ip","address":"Via Valsesia 44 28047, OLEGGIO, NO","prices":[{"type":"petrol","price":1.699,"self":true,"updatedAt":"25/06/2026 19:07:18"},{"type":"diesel","price":1.799,"self":true,"updatedAt":"25/06/2026 19:07:18"}]},{"id":"39209","lat":45.591435000308806,"lon":8.638497942922186,"name":"PV 458","brand":"Agip Eni","address":"VIA NOVARA 42 28047, OLEGGIO, NO","prices":[{"type":"petrol","price":1.824,"self":true,"updatedAt":"25/06/2026 23:20:11"},{"type":"diesel","price":1.899,"self":true,"updatedAt":"26/06/2026 06:08:48"}]},{"id":"47402","lat":45.74571463482317,"lon":8.522142511674135,"name":"F.LLI GHERPU SNC di Alessandro e Roberta Gherpù","brand":"Agip Eni","address":"VIA BORGOMANERO 10 28040, PARUZZARO, NO","prices":[{"type":"petrol","price":1.824,"self":true,"updatedAt":"26/06/2026 00:08:47"},{"type":"diesel","price":1.904,"self":true,"updatedAt":"26/06/2026 07:52:02"},{"type":"lpg","price":0.732,"self":false,"updatedAt":"26/06/2026 00:08:47"}]},{"id":"39421","lat":45.627187472046685,"lon":8.509475737810135,"name":"ENI","brand":"Agip Eni","address":"S.R.229 KM 22 28019, SUNO, NO","prices":[{"type":"petrol","price":1.824,"self":true,"updatedAt":"25/06/2026 23:24:49"},{"type":"diesel","price":1.919,"self":true,"updatedAt":"25/06/2026 23:24:49"}]},{"id":"36433","lat":45.664965941482734,"lon":8.628291720237712,"name":"CPP-Varallo P.","brand":"Api-Ip","address":"PIAZZA RISORGIMENTO 9 28040, VARALLO POMBIA, NO","prices":[{"type":"petrol","price":1.759,"self":true,"updatedAt":"25/06/2026 23:22:41"},{"type":"diesel","price":1.879,"self":true,"updatedAt":"25/06/2026 23:22:41"}]},{"id":"57469","lat":45.703604521,"lon":8.735458,"name":"VERBANO EST","brand":"Api-Ip","address":"Autostrada DIRAMAZIONE A8/A26,  Km. 6,100, dir. Nord 21010, ARSAGO SEPRIO, VA","prices":[{"type":"petrol","price":1.929,"self":true,"updatedAt":"25/06/2026 23:28:22"},{"type":"diesel","price":2.019,"self":true,"updatedAt":"25/06/2026 23:28:22"},{"type":"lpg","price":0.829,"self":false,"updatedAt":"25/06/2026 23:28:22"}]},{"id":"58183","lat":45.70285458265985,"lon":8.734866392065435,"name":"VERBANO OVEST","brand":"Api-Ip","address":"Autostrada DIRAMAZIONE A8/A26, dir. sud est 21010, ARSAGO SEPRIO, VA","prices":[{"type":"petrol","price":1.839,"self":true,"updatedAt":"25/06/2026 11:09:32"},{"type":"diesel","price":1.939,"self":true,"updatedAt":"25/06/2026 11:09:32"},{"type":"lpg","price":0.849,"self":false,"updatedAt":"25/06/2026 09:13:10"}]},{"id":"4720","lat":45.645930147828054,"lon":8.749292875674428,"name":"ENI MALPENSA EST","brand":"Agip Eni","address":"Statale 336 dell'Aeroporto della Malpensa, Km. 8+500, dir. EST - 21010, CARDANO AL CAMPO, VA","prices":[{"type":"petrol","price":1.829,"self":true,"updatedAt":"25/06/2026 23:15:45"},{"type":"diesel","price":1.929,"self":true,"updatedAt":"25/06/2026 23:15:45"},{"type":"methane","price":1.699,"self":false,"updatedAt":"25/06/2026 23:15:45"},{"type":"lpg","price":0.759,"self":false,"updatedAt":"25/06/2026 23:15:45"}]},{"id":"4185","lat":45.66520207437205,"lon":8.749526739120483,"name":"(1)PREALPINA DISTRIBUZIONE CARBURANTI SRL - CASORATE SEMPIONE","brand":"Pompe Bianche","address":"VIA ROMA, ANG. MEDAGLIE D'ORO  21011, CASORATE SEMPIONE, VA","prices":[{"type":"petrol","price":1.775,"self":true,"updatedAt":"26/06/2026 07:23:05"},{"type":"diesel","price":1.877,"self":true,"updatedAt":"26/06/2026 07:23:05"},{"type":"methane","price":1.678,"self":false,"updatedAt":"26/06/2026 07:23:05"},{"type":"lpg","price":0.749,"self":false,"updatedAt":"26/06/2026 07:23:05"}]},{"id":"51114","lat":45.67217626416979,"lon":8.749025819588473,"name":"SOMMESE CASORATE","brand":"Sommese Petroli","address":"VIA SEMPIONE 45 21011, CASORATE SEMPIONE, VA","prices":[{"type":"petrol","price":1.779,"self":true,"updatedAt":"26/06/2026 01:04:16"},{"type":"diesel","price":1.889,"self":true,"updatedAt":"26/06/2026 01:04:16"}]},{"id":"13516","lat":45.69505352604712,"lon":8.674040836106883,"name":"Ferrari Gianfranco s.n.c","brand":"Pompe Bianche","address":"VIALE EUROPA 12 21010, GOLASECCA, VA","prices":[{"type":"petrol","price":1.829,"self":true,"updatedAt":"25/06/2026 18:47:08"},{"type":"diesel","price":1.919,"self":true,"updatedAt":"25/06/2026 18:47:09"}]},{"id":"20076","lat":45.588204056116524,"lon":8.731432557106018,"name":"distributore malpensa","brand":"Api-Ip","address":"VIA V. VENETO SP 527 KM 45/255 S.N.C. 21015, LONATE POZZOLO, VA","prices":[{"type":"petrol","price":1.849,"self":true,"updatedAt":"25/06/2026 13:50:44"},{"type":"diesel","price":1.919,"self":true,"updatedAt":"25/06/2026 13:50:44"},{"type":"methane","price":1.629,"self":false,"updatedAt":"25/06/2026 13:50:44"},{"type":"lpg","price":0.769,"self":false,"updatedAt":"25/06/2026 13:50:44"}]},{"id":"46045","lat":45.58627818227884,"lon":8.728246092796326,"name":"ENI caffè","brand":"Agip Eni","address":"527 Bustese, Km. 45+579,5, OLEGGIO - 21015, LONATE POZZOLO, VA","prices":[{"type":"petrol","price":1.829,"self":true,"updatedAt":"25/06/2026 01:12:21"},{"type":"diesel","price":1.919,"self":true,"updatedAt":"25/06/2026 01:12:21"}]},{"id":"60515","lat":45.7392498997583,"lon":8.747262457694378,"name":"RETITALIA MORNAGO","brand":"Retitalia","address":"STAZIONE - S.P. 17 49 21020, MORNAGO, VA","prices":[{"type":"petrol","price":1.787,"self":true,"updatedAt":"25/06/2026 23:28:54"},{"type":"diesel","price":1.887,"self":true,"updatedAt":"25/06/2026 23:28:54"}]},{"id":"45200","lat":45.63173604591536,"lon":8.748867898147637,"name":"GAROIL SAMARATE","brand":"Pompe Bianche","address":"AGUSTA 504 21017, SAMARATE, VA","prices":[{"type":"petrol","price":1.779,"self":true,"updatedAt":"25/06/2026 11:10:14"},{"type":"diesel","price":1.879,"self":true,"updatedAt":"25/06/2026 11:10:14"}]},{"id":"41959","lat":45.73021046385833,"lon":8.619402715581941,"name":"4093","brand":"Tamoil","address":"PER ANGERA 1 21018, SESTO CALENDE, VA","prices":[{"type":"petrol","price":1.779,"self":true,"updatedAt":"25/06/2026 12:12:01"},{"type":"diesel","price":1.869,"self":true,"updatedAt":"25/06/2026 12:12:01"}]},{"id":"13950","lat":45.72416478604611,"lon":8.646971136331558,"name":"antonio soldi","brand":"Api-Ip","address":"VIA S.S. N. 33 KM 54+154 SNC 21018, SESTO CALENDE (VA) KM54+154 21018, SESTO CALENDE, VA","prices":[{"type":"petrol","price":1.799,"self":true,"updatedAt":"25/06/2026 11:16:53"},{"type":"diesel","price":1.899,"self":true,"updatedAt":"25/06/2026 11:16:53"}]},{"id":"59865","lat":45.722674682713894,"lon":8.670778274542377,"name":"Beyfin S.P.A.","brand":"Beyfin","address":"Via Sempione 87 21018, SESTO CALENDE, VA","prices":[{"type":"lpg","price":0.769,"self":false,"updatedAt":"25/06/2026 11:18:37"}]},{"id":"7313","lat":45.72578493837854,"lon":8.634811576721177,"name":"Pavan Sergio","brand":"Esso","address":"CORSO GIACOMO MATTEOTTI 8 21018, SESTO CALENDE, VA","prices":[{"type":"petrol","price":1.849,"self":true,"updatedAt":"23/06/2026 18:31:31"},{"type":"diesel","price":1.939,"self":true,"updatedAt":"23/06/2026 18:31:31"}]},{"id":"45457","lat":45.72263576477767,"lon":8.660120915344237,"name":"STEFANIA DE MARCHI","brand":"Retitalia","address":"33 del Sempione, Km. 53+132,  21018, SESTO CALENDE, VA","prices":[{"type":"petrol","price":1.799,"self":true,"updatedAt":"25/06/2026 00:35:04"},{"type":"diesel","price":1.899,"self":true,"updatedAt":"25/06/2026 00:35:04"}]},{"id":"61687","lat":45.680363,"lon":8.721418,"name":"2858 SOMMA LOMBARDO","brand":"Agip Eni","address":"VIA MILANO   LOC. TRE PIANTE  136, SOMMA LOMBARDO, VA","prices":[{"type":"petrol","price":1.824,"self":true,"updatedAt":"25/06/2026 00:28:52"},{"type":"diesel","price":1.899,"self":true,"updatedAt":"26/06/2026 07:55:17"}]},{"id":"44186","lat":45.657395001234,"lon":8.704129001234,"name":"ENI 2890","brand":"Agip Eni","address":"GIUSTI 110 21019, SOMMA LOMBARDO, VA","prices":[{"type":"petrol","price":1.829,"self":true,"updatedAt":"25/06/2026 00:59:42"},{"type":"diesel","price":1.919,"self":true,"updatedAt":"25/06/2026 00:59:42"}]},{"id":"61561","lat":45.63839342473976,"lon":8.705004211615073,"name":"IP RESTELLI CRISTINA","brand":"Api-Ip","address":"Via per Tornavento 5 21019, SOMMA LOMBARDO, VA","prices":[{"type":"petrol","price":1.789,"self":true,"updatedAt":"26/06/2026 00:21:05"},{"type":"diesel","price":1.899,"self":true,"updatedAt":"26/06/2026 00:21:05"}]},{"id":"5978","lat":45.6814719740126,"lon":8.715226550926218,"name":"SOMMA LOMBARDO","brand":"Api-Ip","address":"Via Milano 98 21019, SOMMA LOMBARDO, VA","prices":[{"type":"petrol","price":1.777,"self":true,"updatedAt":"25/06/2026 09:11:59"},{"type":"diesel","price":1.887,"self":true,"updatedAt":"25/06/2026 09:11:59"}]},{"id":"13597","lat":45.687531263373096,"lon":8.720258474349976,"name":"SOMMESE PETROLI  SOMMA LOMBARDO","brand":"Sommese Petroli","address":"VIA VIA DON SELVA 16 21019, SOMMA LOMBARDO (VA) 16 21019, SOMMA LOMBARDO, VA","prices":[{"type":"petrol","price":1.779,"self":true,"updatedAt":"26/06/2026 07:02:19"},{"type":"diesel","price":1.889,"self":true,"updatedAt":"26/06/2026 07:02:19"}]},{"id":"27030","lat":45.64600392493457,"lon":8.70390236377716,"name":"Stazione di servizio TOTALERG di Botta Roberto","brand":"Api-Ip","address":"Statale 336 dell'Aeroporto della Malpensa, Km. 0+137, dir. Malpensa - 21019, SOMMA LOMBARDO, VA","prices":[{"type":"petrol","price":1.777,"self":true,"updatedAt":"24/06/2026 20:25:29"},{"type":"diesel","price":1.887,"self":true,"updatedAt":"24/06/2026 20:25:29"}]},{"id":"50238","lat":45.72677567420747,"lon":8.71979862435861,"name":"4082","brand":"Tamoil","address":"PUCCINI - FRAZ. CIMBRO 23 21029, VERGIATE, VA","prices":[{"type":"petrol","price":1.789,"self":true,"updatedAt":"25/06/2026 00:58:57"},{"type":"diesel","price":1.869,"self":true,"updatedAt":"25/06/2026 00:58:57"}]},{"id":"61692","lat":45.72071,"lon":8.69201,"name":"Daem Service","brand":"Api-Ip","address":"ROMA 12 21029, VERGIATE, VA","prices":[{"type":"petrol","price":1.819,"self":true,"updatedAt":"24/06/2026 16:36:11"},{"type":"diesel","price":1.919,"self":true,"updatedAt":"24/06/2026 16:36:11"}]},{"id":"59202","lat":45.73648,"lon":8.67968,"name":"Eni 2900","brand":"Agip Eni","address":"Via Milano 100  21029, VERGIATE, VA","prices":[{"type":"petrol","price":1.789,"self":true,"updatedAt":"25/06/2026 00:26:58"},{"type":"diesel","price":1.864,"self":true,"updatedAt":"25/06/2026 00:26:58"}]},{"id":"61266","lat":45.706723,"lon":8.697485,"name":"SHELL VERGIATE VIA SEMPIONE, 1","brand":"Shell","address":"SEMPIONE 1 21029, VERGIATE, VA","prices":[{"type":"petrol","price":1.799,"self":true,"updatedAt":"26/06/2026 07:35:19"},{"type":"diesel","price":1.899,"self":true,"updatedAt":"26/06/2026 07:35:19"},{"type":"lpg","price":0.769,"self":false,"updatedAt":"26/06/2026 07:35:19"}]},{"id":"60286","lat":45.712259,"lon":8.694463,"name":"Sommese Carburante Vergiate","brand":"Retitalia","address":"S.S. DEL SEMPIONE 33 KM 49+600 21029, VERGIATE, VA","prices":[{"type":"petrol","price":1.775,"self":true,"updatedAt":"26/06/2026 01:04:20"},{"type":"diesel","price":1.875,"self":true,"updatedAt":"26/06/2026 01:04:20"}]},{"id":"33708","lat":45.72204911087784,"lon":8.690449267459144,"name":"Sommese Petroli","brand":"Sommese Petroli","address":"VIA LOCATELLI 19 21029, VERGIATE, VA","prices":[{"type":"petrol","price":1.809,"self":true,"updatedAt":"23/06/2026 07:30:40"},{"type":"diesel","price":1.909,"self":true,"updatedAt":"23/06/2026 07:30:40"}]}]