[{"id":"7459","lat":45.71538946932409,"lon":9.202432694203935,"name":"tamoil","brand":"Tamoil","address":"via de gasperi 23 22060, AROSIO, CO","prices":[{"type":"petrol","price":1.799,"self":true,"updatedAt":"23/06/2026 00:12:57"},{"type":"diesel","price":1.899,"self":true,"updatedAt":"23/06/2026 00:12:57"}]},{"id":"57265","lat":45.68582417290062,"lon":9.054770708084114,"name":"01858 ENI","brand":"Agip Eni","address":"S.P. 31 DELLA PIODA-VIA MILANO 79 22070, BREGNANO, CO","prices":[{"type":"petrol","price":1.685,"self":true,"updatedAt":"24/04/2026 22:42:37"},{"type":"diesel","price":2.015,"self":true,"updatedAt":"24/04/2026 22:42:37"}]},{"id":"62820","lat":45.685986,"lon":9.054773,"name":"1858 BREGNANO","brand":"Agip Eni","address":"S.P. 31  DELLA PIODA - VIA MILANO  79, BREGNANO, CO","prices":[{"type":"petrol","price":1.799,"self":true,"updatedAt":"23/06/2026 00:31:04"},{"type":"diesel","price":1.915,"self":true,"updatedAt":"23/06/2026 00:31:04"}]},{"id":"57645","lat":45.69257670265892,"lon":9.064531768402809,"name":"COIL BREGNANO","brand":"COIL","address":"Via Beato Michele Carcano 2/A 22070, BREGNANO, CO","prices":[{"type":"petrol","price":1.814,"self":true,"updatedAt":"22/06/2026 10:22:09"},{"type":"diesel","price":1.914,"self":true,"updatedAt":"22/06/2026 10:22:09"},{"type":"methane","price":1.474,"self":false,"updatedAt":"22/06/2026 00:24:49"},{"type":"lpg","price":0.755,"self":false,"updatedAt":"22/06/2026 00:24:49"}]},{"id":"15813","lat":45.74826401761886,"lon":9.184602347221357,"name":"Cappellini","brand":"Pompe Bianche","address":"VIA ITALIA 33 22040, BRENNA, CO","prices":[{"type":"petrol","price":1.869,"self":true,"updatedAt":"18/06/2026 08:24:14"},{"type":"diesel","price":2.009,"self":true,"updatedAt":"18/06/2026 08:24:14"}]},{"id":"13702","lat":45.67856546720764,"lon":9.178294311639434,"name":"Q8 AUTOCABIATE","brand":"Q8","address":"VIALE REPUBBLICA  142 22060, CABIATE, CO","prices":[{"type":"petrol","price":1.799,"self":true,"updatedAt":"22/06/2026 17:41:11"},{"type":"diesel","price":1.899,"self":true,"updatedAt":"22/06/2026 17:41:11"}]},{"id":"48454","lat":45.729320595448705,"lon":9.029086472387329,"name":"LARIO EST","brand":"Tamoil","address":"A9 LAINATE-COMO-CHIASSO, Km. 27+600, Nord - 22071, CADORAGO, CO","prices":[{"type":"petrol","price":1.899,"self":true,"updatedAt":"19/06/2026 08:00:11"},{"type":"diesel","price":1.999,"self":true,"updatedAt":"19/06/2026 08:00:11"},{"type":"lpg","price":0.859,"self":false,"updatedAt":"19/06/2026 08:00:11"}]},{"id":"50657","lat":45.7079257782587,"lon":9.037613120068444,"name":"STAZIONE DI SERVIZIO ROMEO SRL","brand":"Retitalia","address":"VIA ARMANDO DIAZ 73 22071, CADORAGO, CO","prices":[{"type":"petrol","price":1.799,"self":true,"updatedAt":"23/06/2026 07:14:13"},{"type":"diesel","price":1.909,"self":true,"updatedAt":"23/06/2026 07:14:13"}]},{"id":"47429","lat":45.72864261065691,"lon":9.160734191045057,"name":"4947","brand":"Tamoil","address":"MONTELLO FRAZ. VIGHIZZOLO 49 22063, CANTÙ, CO","prices":[{"type":"petrol","price":1.759,"self":true,"updatedAt":"22/06/2026 13:43:14"},{"type":"diesel","price":1.849,"self":true,"updatedAt":"22/06/2026 13:43:14"}]},{"id":"10090","lat":45.73971511534892,"lon":9.118099808692932,"name":"Cantù","brand":"Api-Ip","address":"Corso Europa  22063, CANTÙ, CO","prices":[{"type":"petrol","price":1.769,"self":true,"updatedAt":"22/06/2026 19:09:00"},{"type":"diesel","price":1.869,"self":true,"updatedAt":"22/06/2026 19:09:00"}]},{"id":"60334","lat":45.7417716,"lon":9.1132705,"name":"CANTU' SP PER CUCCIAGO-V.GIOV.XXIII 6","brand":"Q8","address":"SP PER CUCCIAGO-V.GIOV.XXIII 6 6 22063, CANTÙ, CO","prices":[{"type":"petrol","price":1.779,"self":true,"updatedAt":"23/06/2026 07:13:35"},{"type":"diesel","price":1.879,"self":true,"updatedAt":"23/06/2026 07:13:35"}]},{"id":"11561","lat":45.73775023775406,"lon":9.137216093254096,"name":"CANTU-VIA G.DA FOSSANO 21","brand":"Q8","address":"VIA G.DA FOSSANO 21 22063, CANTÙ, CO","prices":[{"type":"petrol","price":1.829,"self":true,"updatedAt":"17/06/2026 07:21:52"},{"type":"diesel","price":1.989,"self":true,"updatedAt":"17/06/2026 07:21:52"}]},{"id":"45412","lat":45.729220164157915,"lon":9.108222210159283,"name":"COSTA E GRANATA S.R.L - cantu'","brand":"GasAuto","address":"VIA GIOVANNI DA CERMENATE S.N.C. 22063, CANTÙ, CO","prices":[{"type":"lpg","price":0.789,"self":false,"updatedAt":"22/06/2026 14:44:09"}]},{"id":"34925","lat":45.71898262788078,"lon":9.154634177684784,"name":"ENERCOOP","brand":"Enercoop","address":"VIA VIA LOMBARDIA 68 22063, CANTU' (CO) 68 22063, CANTÙ, CO","prices":[{"type":"petrol","price":1.759,"self":true,"updatedAt":"22/06/2026 18:31:20"},{"type":"diesel","price":1.859,"self":true,"updatedAt":"22/06/2026 18:31:20"},{"type":"methane","price":1.479,"self":false,"updatedAt":"22/06/2026 18:31:20"}]},{"id":"37544","lat":45.74706021279649,"lon":9.129229872251017,"name":"Eni1923","brand":"Agip Eni","address":"VIA VITTORIO VERGANI 26 22063, CANTÙ, CO","prices":[{"type":"petrol","price":1.809,"self":true,"updatedAt":"23/06/2026 00:28:53"},{"type":"diesel","price":1.919,"self":true,"updatedAt":"23/06/2026 00:28:53"}]},{"id":"62171","lat":45.729930688471555,"lon":9.134971050704674,"name":"ESSO - CANTU'","brand":"Esso","address":"Via Milano 54  22063, CANTÙ, CO","prices":[{"type":"petrol","price":1.789,"self":true,"updatedAt":"19/06/2026 09:20:58"},{"type":"diesel","price":1.899,"self":true,"updatedAt":"19/06/2026 09:20:58"}]},{"id":"49945","lat":45.73402974095665,"lon":9.111504794944146,"name":"KEROTRIS - CANTU'","brand":"Kerotris","address":"CORSO EUROPA ANG. VIA PACINOTTI SNC 22063, CANTÙ, CO","prices":[{"type":"petrol","price":1.798,"self":true,"updatedAt":"19/06/2026 15:25:14"},{"type":"diesel","price":1.908,"self":true,"updatedAt":"19/06/2026 15:25:14"}]},{"id":"7768","lat":45.725104,"lon":9.144937,"name":"LEONARD SERVICE","brand":"Retitalia","address":"VIA MILANO 123 22063, CANTÙ, CO","prices":[{"type":"petrol","price":1.859,"self":true,"updatedAt":"22/06/2026 23:36:38"},{"type":"diesel","price":2.019,"self":true,"updatedAt":"22/06/2026 23:36:37"}]},{"id":"18933","lat":45.72291835665207,"lon":9.147221238098155,"name":"MO.VI. S.N.C. DI MORABITO FRANCESCO & C.","brand":"Pompe Bianche","address":"MILANO 100 22063, CANTÙ, CO","prices":[{"type":"petrol","price":1.789,"self":true,"updatedAt":"22/06/2026 08:20:26"},{"type":"diesel","price":1.899,"self":true,"updatedAt":"22/06/2026 08:20:26"}]},{"id":"45604","lat":45.732477000123,"lon":9.132152000123,"name":"Stazione di Servizio di Camagni Fabrizio & C. snc","brand":"Pompe Bianche","address":"MILANO 36 22063, CANTÙ, CO","prices":[{"type":"petrol","price":1.789,"self":false,"updatedAt":"20/06/2026 06:56:41"},{"type":"diesel","price":1.899,"self":false,"updatedAt":"20/06/2026 06:56:41"}]},{"id":"54528","lat":45.71231465158181,"lon":9.201995372750908,"name":"TAMOIL","brand":"Tamoil","address":"GARIBALDI 58 22060, CARUGO, CO","prices":[{"type":"petrol","price":1.799,"self":true,"updatedAt":"23/06/2026 00:17:37"},{"type":"diesel","price":1.899,"self":true,"updatedAt":"22/06/2026 14:05:51"}]},{"id":"55669","lat":45.700752,"lon":9.089328,"name":"CERMENATE","brand":"Api-Ip","address":"ARMANDO DIAZ 18 22072, CERMENATE, CO","prices":[{"type":"petrol","price":1.779,"self":true,"updatedAt":"22/06/2026 19:09:16"},{"type":"diesel","price":1.879,"self":true,"updatedAt":"22/06/2026 19:09:16"}]},{"id":"54717","lat":45.69475660119682,"lon":9.076613385025038,"name":"COIL CERMENATE","brand":"COIL","address":"Via Europa Unita 53 22072, CERMENATE, CO","prices":[{"type":"petrol","price":1.838,"self":true,"updatedAt":"22/06/2026 10:08:17"},{"type":"diesel","price":1.938,"self":true,"updatedAt":"22/06/2026 10:08:17"}]},{"id":"60911","lat":45.70080150824581,"lon":9.075653683117437,"name":"COIL CERMENATE","brand":"COIL","address":"Via G. Matteotti 73  22072, CERMENATE, CO","prices":[{"type":"petrol","price":1.838,"self":true,"updatedAt":"22/06/2026 09:52:05"},{"type":"diesel","price":1.938,"self":true,"updatedAt":"22/06/2026 09:52:05"}]},{"id":"7769","lat":45.70444444678518,"lon":9.09072398280341,"name":"gioviservice e c sas","brand":"Esso","address":"Statale 35 dei Giovi, Km. 25, dir. como - -, CERMENATE, CO","prices":[{"type":"petrol","price":1.789,"self":true,"updatedAt":"22/06/2026 07:00:12"},{"type":"diesel","price":1.899,"self":true,"updatedAt":"22/06/2026 07:00:12"}]},{"id":"6038","lat":45.74242437338823,"lon":9.108747616410255,"name":"M.P.R. SAS","brand":"Pompe Bianche","address":"VIA PER CANTU' 27 22060, CUCCIAGO, CO","prices":[{"type":"petrol","price":1.769,"self":true,"updatedAt":"22/06/2026 11:22:11"},{"type":"diesel","price":1.869,"self":true,"updatedAt":"22/06/2026 11:22:11"}]},{"id":"44941","lat":45.701959000123,"lon":9.003160000123,"name":"Service Station","brand":"Api-Ip","address":"VIA COMO 5 22070, FENEGRÒ, CO","prices":[{"type":"petrol","price":1.849,"self":true,"updatedAt":"20/06/2026 12:36:16"},{"type":"diesel","price":1.939,"self":true,"updatedAt":"20/06/2026 12:36:16"}]},{"id":"60891","lat":45.6956710815,"lon":9.0007362366,"name":"Stazione di Servizio Q8 - Fratelli Uboldi SNC","brand":"Q8","address":"VIA BERGAMO 336 336/346 22070, FENEGRÒ, CO","prices":[{"type":"petrol","price":1.829,"self":true,"updatedAt":"23/06/2026 00:23:40"},{"type":"diesel","price":1.929,"self":true,"updatedAt":"23/06/2026 00:23:40"}]},{"id":"42030","lat":45.70194632712622,"lon":9.137578559350894,"name":"s&m's di pasqualino simeone e mario molinara s.n.c.","brand":"Pompe Bianche","address":"VICO NECCHI 58 22060, FIGINO SERENZA, CO","prices":[{"type":"petrol","price":1.789,"self":true,"updatedAt":"23/06/2026 01:22:30"},{"type":"diesel","price":1.889,"self":true,"updatedAt":"23/06/2026 01:22:30"}]},{"id":"11562","lat":45.73038238027428,"lon":9.063321457672146,"name":"FINO MORNASCO-SS. 35 DEI GIOVI","brand":"Q8","address":"SS. 35 DEI GIOVI S/N 22073, FINO MORNASCO, CO","prices":[{"type":"petrol","price":1.749,"self":true,"updatedAt":"23/06/2026 01:38:32"},{"type":"diesel","price":1.859,"self":true,"updatedAt":"23/06/2026 01:38:32"}]},{"id":"46694","lat":45.74252788724488,"lon":9.074630893189351,"name":"TELVE GUIDO E GAFFURI PAOLA S.N.C.","brand":"Api-Ip","address":"VIA S.P. PER CUCCIAGO SNC  22073, FINO MORNASCO, CO","prices":[{"type":"petrol","price":1.799,"self":false,"updatedAt":"23/06/2026 06:36:36"},{"type":"diesel","price":1.919,"self":false,"updatedAt":"23/06/2026 06:36:36"}]},{"id":"15738","lat":45.717492345515524,"lon":9.017862975597382,"name":"FERTONANI SNC","brand":"Api-Ip","address":"XXV APRILE 30 22070, GUANZATE, CO","prices":[{"type":"petrol","price":1.839,"self":false,"updatedAt":"22/06/2026 09:26:12"},{"type":"diesel","price":1.949,"self":false,"updatedAt":"22/06/2026 09:26:12"}]},{"id":"51526","lat":45.738153899999986,"lon":9.2073006832541,"name":"4028","brand":"Tamoil","address":"MONTE SANTO 1 22044, INVERIGO, CO","prices":[{"type":"petrol","price":1.769,"self":true,"updatedAt":"22/06/2026 12:28:12"}]},{"id":"61406","lat":45.747142986622976,"lon":9.219468865578445,"name":"amt snc","brand":"Api-Ip","address":"DON CARLO GNOCCHI 85 22044, INVERIGO, CO","prices":[{"type":"petrol","price":1.799,"self":true,"updatedAt":"20/06/2026 11:08:00"},{"type":"diesel","price":1.899,"self":true,"updatedAt":"20/06/2026 11:08:00"}]},{"id":"20750","lat":45.74260115944081,"lon":9.197243079543114,"name":"DISTRIBUTORE MORO UBOLDI SNC INVERIGO","brand":"Moro","address":"VIA VALSORDA 42 22044, INVERIGO, CO","prices":[{"type":"petrol","price":1.902,"self":true,"updatedAt":"14/06/2026 11:44:09"},{"type":"diesel","price":2.062,"self":true,"updatedAt":"14/06/2026 00:01:45"}]},{"id":"45841","lat":45.74905034590805,"lon":9.22058620429084,"name":"FORMENTI AUTO","brand":"Tamoil","address":"via don carlo gnocchi  108 22044, INVERIGO, CO","prices":[{"type":"petrol","price":1.779,"self":true,"updatedAt":"22/06/2026 12:14:01"},{"type":"diesel","price":1.869,"self":true,"updatedAt":"22/06/2026 14:05:15"}]},{"id":"63321","lat":45.742719,"lon":9.197317,"name":"Moro_Inverigo","brand":"Moro","address":"Strada Provinciale 42 22044, INVERIGO, CO","prices":[{"type":"petrol","price":1.799,"self":true,"updatedAt":"23/06/2026 00:08:37"},{"type":"diesel","price":1.929,"self":true,"updatedAt":"23/06/2026 00:08:37"}]},{"id":"17902","lat":45.693703125642,"lon":9.02708815984954,"name":"BUTTI MARIA","brand":"Api-Ip","address":"VIA MONTE BIANCO SN 22074, LOMAZZO, CO","prices":[{"type":"petrol","price":1.809,"self":false,"updatedAt":"22/06/2026 09:24:06"},{"type":"diesel","price":1.939,"self":false,"updatedAt":"22/06/2026 09:24:06"}]},{"id":"11565","lat":45.68868501060333,"lon":9.040422974205057,"name":"LOMAZZO-SP LOMBARDIA","brand":"Q8","address":"SP LOMBARDIA S/N 22074, LOMAZZO, CO","prices":[{"type":"petrol","price":1.789,"self":true,"updatedAt":"23/06/2026 07:12:47"},{"type":"diesel","price":1.929,"self":true,"updatedAt":"23/06/2026 07:12:47"}]},{"id":"40208","lat":45.69166883181284,"lon":9.041381925344467,"name":"S.R.C. di Corti Donato","brand":"Agip Eni","address":"Via Monte Rosa 5 22074, LOMAZZO, CO","prices":[{"type":"petrol","price":1.828,"self":true,"updatedAt":"23/06/2026 00:35:11"},{"type":"diesel","price":1.919,"self":true,"updatedAt":"23/06/2026 00:35:11"}]},{"id":"57021","lat":45.697486,"lon":9.032113,"name":"Stazione di Servizio IP","brand":"Api-Ip","address":"Via Monte Generoso 4-6 22074, LOMAZZO, CO","prices":[{"type":"petrol","price":1.819,"self":true,"updatedAt":"19/06/2026 17:20:21"},{"type":"diesel","price":1.939,"self":true,"updatedAt":"19/06/2026 17:20:21"}]},{"id":"59238","lat":45.687263,"lon":9.184415,"name":"1880  MARIANO COMENSE","brand":"Agip Eni","address":"VIALE LOMBARDIA  72, MARIANO COMENSE, CO","prices":[{"type":"petrol","price":1.789,"self":true,"updatedAt":"23/06/2026 00:26:54"},{"type":"diesel","price":1.899,"self":true,"updatedAt":"23/06/2026 00:26:54"}]},{"id":"30471","lat":45.70602668463833,"lon":9.165680855512619,"name":"4049","brand":"Tamoil","address":"S.P. 32 NOVEDRATESE - 22066, MARIANO COMENSE, CO","prices":[{"type":"petrol","price":1.779,"self":true,"updatedAt":"22/06/2026 23:29:39"},{"type":"diesel","price":1.879,"self":true,"updatedAt":"22/06/2026 15:18:09"}]},{"id":"38584","lat":45.687012804188825,"lon":9.18820521018904,"name":"COMMERCIALE PAGANONI PC030","brand":"Pompe Bianche","address":"VIA ISONZO 111 22066, MARIANO COMENSE, CO","prices":[{"type":"petrol","price":1.745,"self":true,"updatedAt":"22/06/2026 14:08:39"},{"type":"diesel","price":1.845,"self":true,"updatedAt":"22/06/2026 14:08:39"}]},{"id":"15768","lat":45.70132178057579,"lon":9.175942987203598,"name":"Eni di Furlan Giuliano","brand":"Agip Eni","address":"VIALE BRIANZA 30 22066, MARIANO COMENSE, CO","prices":[{"type":"petrol","price":1.809,"self":true,"updatedAt":"22/06/2026 23:33:51"},{"type":"diesel","price":1.919,"self":true,"updatedAt":"22/06/2026 23:33:51"}]},{"id":"34494","lat":45.708657139485176,"lon":9.172285124659538,"name":"MARIANO COMENSE","brand":"Api-Ip","address":"via Arosio 12 22066, MARIANO COMENSE, CO","prices":[{"type":"petrol","price":1.779,"self":true,"updatedAt":"22/06/2026 09:12:59"},{"type":"diesel","price":1.879,"self":true,"updatedAt":"22/06/2026 13:08:35"}]},{"id":"43165","lat":45.70520355592539,"lon":9.172888387731518,"name":"Moro_Mariano Comense","brand":"Moro","address":"VIA  COMO 13 22066, MARIANO COMENSE, CO","prices":[{"type":"petrol","price":1.799,"self":true,"updatedAt":"22/06/2026 16:44:07"},{"type":"diesel","price":1.899,"self":true,"updatedAt":"22/06/2026 16:44:07"}]},{"id":"53551","lat":45.69778721797037,"lon":9.182510375976562,"name":"noman khalil","brand":"Italiana Carburanti","address":"VIALE LOMBARDIA 46 22066, MARIANO COMENSE, CO","prices":[{"type":"petrol","price":1.899,"self":true,"updatedAt":"22/06/2026 08:30:44"},{"type":"diesel","price":1.999,"self":true,"updatedAt":"22/06/2026 08:30:44"}]},{"id":"58906","lat":45.71042980766524,"lon":9.167539476257328,"name":"pole position","brand":"Pompe Bianche","address":"Via Como 42  22066, MARIANO COMENSE, CO","prices":[{"type":"petrol","price":1.759,"self":true,"updatedAt":"20/06/2026 11:06:33"},{"type":"diesel","price":1.869,"self":true,"updatedAt":"20/06/2026 11:06:33"},{"type":"lpg","price":0.805,"self":false,"updatedAt":"20/06/2026 11:06:33"}]},{"id":"41813","lat":45.70089904653144,"lon":9.143288475463123,"name":"Coil","brand":"COIL","address":"strada provinciale sp 32 per Novedrate  44 20060, NOVEDRATE, CO","prices":[{"type":"petrol","price":1.775,"self":true,"updatedAt":"23/06/2026 04:42:53"},{"type":"diesel","price":1.887,"self":true,"updatedAt":"23/06/2026 04:42:53"}]},{"id":"53420","lat":45.6970903200209,"lon":9.126355648040771,"name":"RETITALIA - NOVEDRATE","brand":"Retitalia","address":"PROVINCIALE NOVEDRATESE 7 22060, NOVEDRATE, CO","prices":[{"type":"petrol","price":1.809,"self":true,"updatedAt":"22/06/2026 11:03:52"},{"type":"diesel","price":1.919,"self":true,"updatedAt":"22/06/2026 11:03:52"}]},{"id":"36389","lat":45.666669251175776,"lon":9.044418029430403,"name":"beltrame cristiano & c snc","brand":"Tamoil","address":"via xx settembre 46 22069, ROVELLASCA, CO","prices":[{"type":"petrol","price":1.819,"self":true,"updatedAt":"22/06/2026 14:05:16"},{"type":"diesel","price":1.899,"self":true,"updatedAt":"22/06/2026 14:05:16"}]},{"id":"23393","lat":45.65362120460147,"lon":9.023959636688232,"name":"Rovello Porro","brand":"Api-Ip","address":"Via Vittorio Veneto 116 22070, ROVELLO PORRO, CO","prices":[{"type":"petrol","price":1.799,"self":true,"updatedAt":"22/06/2026 13:09:49"},{"type":"diesel","price":1.899,"self":true,"updatedAt":"22/06/2026 09:15:25"}]},{"id":"44442","lat":45.661802724985314,"lon":9.000118416596479,"name":"IMPIANTO C.F.D.S. S.N.C.","brand":"Moro","address":"VIA COMO 20 22078, TURATE, CO","prices":[{"type":"petrol","price":1.839,"self":true,"updatedAt":"22/06/2026 23:17:29"},{"type":"diesel","price":1.999,"self":true,"updatedAt":"22/06/2026 23:17:29"}]},{"id":"14942","lat":45.723478409550424,"lon":9.070117713739023,"name":"EMME2ENNE - GUGO","brand":"Retitalia","address":"NAZIONALE 14 22070, VERTEMATE CON MINOPRIO, CO","prices":[{"type":"petrol","price":1.799,"self":true,"updatedAt":"20/06/2026 07:17:41"},{"type":"diesel","price":1.899,"self":true,"updatedAt":"20/06/2026 07:17:41"}]},{"id":"43581","lat":45.717074000123,"lon":9.075835000123,"name":"IL GIGANTE SELF H24 -VERTEMATE-","brand":"Pompe Bianche","address":"ST DEI GIOVI SNC 22070, VERTEMATE CON MINOPRIO, CO","prices":[{"type":"petrol","price":1.749,"self":true,"updatedAt":"19/06/2026 17:07:07"},{"type":"diesel","price":1.829,"self":true,"updatedAt":"19/06/2026 17:07:07"}]},{"id":"48637","lat":45.652313874037745,"lon":9.131331868717174,"name":"Eni Station","brand":"Agip Eni","address":"Strada Statale, Km. 30, Milano-Seveso - 20825, BARLASSINA, MB","prices":[{"type":"petrol","price":1.789,"self":true,"updatedAt":"22/06/2026 23:32:30"},{"type":"diesel","price":1.864,"self":true,"updatedAt":"22/06/2026 23:32:30"}]},{"id":"54614","lat":45.65493850000001,"lon":9.130195100000002,"name":"IP ENERGON BARLASSINA","brand":"Api-Ip","address":"MILANO -S.S. 36 KM 145+345 SNC 20825, BARLASSINA, MB","prices":[{"type":"petrol","price":1.799,"self":true,"updatedAt":"22/06/2026 08:48:07"},{"type":"diesel","price":1.909,"self":true,"updatedAt":"22/06/2026 08:48:07"}]},{"id":"59028","lat":45.60068727210787,"lon":9.145344875199877,"name":"105201 BOVISIO MASCIAGO","brand":"Esso","address":"STATALE DEI GIOVI 2 20813, BOVISIO-MASCIAGO, MB","prices":[{"type":"petrol","price":1.799,"self":true,"updatedAt":"22/06/2026 07:49:04"},{"type":"diesel","price":1.919,"self":true,"updatedAt":"22/06/2026 07:49:04"}]},{"id":"60828","lat":45.607292,"lon":9.145691,"name":"distributore ip","brand":"Api-Ip","address":"MILANO 75 20813, BOVISIO-MASCIAGO, MB","prices":[{"type":"petrol","price":1.789,"self":true,"updatedAt":"22/06/2026 15:12:01"},{"type":"diesel","price":1.889,"self":true,"updatedAt":"22/06/2026 15:12:01"}]},{"id":"59506","lat":45.61443760142096,"lon":9.164103594723775,"name":"Metangas Bovisio Masciago","brand":"Pompe Bianche","address":"Via Prof. G. Fortuzzi angolo Via IX Novembre SNC 20813, BOVISIO-MASCIAGO, MB","prices":[{"type":"petrol","price":1.799,"self":true,"updatedAt":"22/06/2026 10:09:39"},{"type":"diesel","price":1.899,"self":true,"updatedAt":"22/06/2026 10:09:39"},{"type":"methane","price":1.399,"self":false,"updatedAt":"22/06/2026 10:09:39"},{"type":"lpg","price":0.739,"self":false,"updatedAt":"22/06/2026 10:09:39"}]},{"id":"62269","lat":45.6131311,"lon":9.1476621,"name":"Moro_Bovisio Masciago","brand":"Moro","address":"Corso Italia 50  20813, BOVISIO-MASCIAGO, MB","prices":[{"type":"petrol","price":1.849,"self":true,"updatedAt":"22/06/2026 00:28:53"},{"type":"diesel","price":1.979,"self":true,"updatedAt":"22/06/2026 00:28:53"}]},{"id":"32972","lat":45.61334190429158,"lon":9.160678086732219,"name":"VIA DESIO - BOVISIO MASCIAGO","brand":"Giap","address":"VIA DESIO 50 20030, BOVISIO-MASCIAGO, MB","prices":[{"type":"petrol","price":1.799,"self":true,"updatedAt":"23/06/2026 05:59:14"},{"type":"diesel","price":1.919,"self":true,"updatedAt":"23/06/2026 05:59:14"}]},{"id":"46271","lat":45.6787471,"lon":9.2372105,"name":"8486","brand":"Tamoil","address":"Viale Don Giovanni Minzoni  20841, CARATE BRIANZA, MB","prices":[{"type":"petrol","price":1.779,"self":true,"updatedAt":"23/06/2026 00:18:15"},{"type":"diesel","price":1.865,"self":true,"updatedAt":"23/06/2026 00:18:15"}]},{"id":"32325","lat":45.675644978696376,"lon":9.242680466270485,"name":"CARATE BRIANZA - SAN MICHELE","brand":"Api-Ip","address":"VIA SAN MICHELE AL CARSO  20048, CARATE BRIANZA, MB","prices":[{"type":"petrol","price":1.769,"self":true,"updatedAt":"22/06/2026 09:02:49"},{"type":"diesel","price":1.879,"self":true,"updatedAt":"22/06/2026 09:02:49"}]},{"id":"43651","lat":45.67494693789578,"lon":9.219860217790938,"name":"CARATE BRIANZA S.S.36 SPLUGA KM 10+495","brand":"Q8","address":"S.S.36 SPLUGA KM 10+495  20841, CARATE BRIANZA, MB","prices":[{"type":"petrol","price":1.819,"self":true,"updatedAt":"23/06/2026 07:13:04"},{"type":"diesel","price":1.919,"self":true,"updatedAt":"23/06/2026 07:13:04"},{"type":"lpg","price":0.789,"self":false,"updatedAt":"23/06/2026 07:13:04"}]},{"id":"46534","lat":45.67205225949342,"lon":9.219954758882523,"name":"CARATE OVEST","brand":"Q8","address":"36 del Lago di Como e dello Spluga, Km.  23,470, Sud - 20841, CARATE BRIANZA, MB","prices":[{"type":"petrol","price":1.819,"self":true,"updatedAt":"23/06/2026 07:20:01"},{"type":"diesel","price":1.919,"self":true,"updatedAt":"23/06/2026 07:20:00"}]},{"id":"52238","lat":45.661777676545114,"lon":9.224420286938013,"name":"ip","brand":"Api-Ip","address":"VIA NUOVA VALASSINA 20 20841, CARATE BRIANZA, MB","prices":[{"type":"petrol","price":1.799,"self":true,"updatedAt":"18/06/2026 13:22:51"},{"type":"diesel","price":1.909,"self":true,"updatedAt":"18/06/2026 13:22:51"}]},{"id":"55312","lat":45.67418737168754,"lon":9.242647848863989,"name":"IP 46792","brand":"Api-Ip","address":"Via San Michele al Carso 26 20841, CARATE BRIANZA, MB","prices":[{"type":"petrol","price":1.769,"self":true,"updatedAt":"19/06/2026 17:33:57"},{"type":"diesel","price":1.879,"self":true,"updatedAt":"19/06/2026 17:33:57"}]},{"id":"61203","lat":45.661859798293335,"lon":9.2236751301941,"name":"IP CARATE BRIANZA","brand":"Api-Ip","address":"Via Nuova Valassina 21  20841, CARATE BRIANZA, MB","prices":[{"type":"lpg","price":0.768,"self":false,"updatedAt":"17/06/2026 10:27:05"}]},{"id":"60876","lat":45.66180319794697,"lon":9.223494529724121,"name":"IP CARATE BRIANZA","brand":"Api-Ip","address":"VIA NUOVA VALASSINA 21 20811, CARATE BRIANZA, MB","prices":[{"type":"petrol","price":1.779,"self":true,"updatedAt":"22/06/2026 15:03:45"},{"type":"diesel","price":1.889,"self":true,"updatedAt":"22/06/2026 15:03:45"}]},{"id":"57587","lat":45.6632404,"lon":9.24775868,"name":"SOCOGAS RETE CARATE BRIANZA PV 288061","brand":"Socogas","address":"VIA MOSE' BIANCHI - SP 6   20841, CARATE BRIANZA, MB","prices":[{"type":"lpg","price":0.769,"self":false,"updatedAt":"22/06/2026 23:49:49"}]},{"id":"57917","lat":45.6384647,"lon":9.17927563,"name":"4022","brand":"Tamoil","address":"Via Don L. Viganò, CESANO MADERNO, MB","prices":[{"type":"petrol","price":1.789,"self":true,"updatedAt":"22/06/2026 12:30:16"},{"type":"diesel","price":1.879,"self":true,"updatedAt":"22/06/2026 23:28:57"}]},{"id":"28719","lat":45.625256236011516,"lon":9.167325709821739,"name":"CESANO MADERNO-RESEGONE","brand":"Api-Ip","address":"VIA MONTERESEGONE 67 20031, CESANO MADERNO, MB","prices":[{"type":"petrol","price":1.789,"self":true,"updatedAt":"22/06/2026 09:07:16"},{"type":"diesel","price":1.879,"self":true,"updatedAt":"22/06/2026 09:07:16"}]},{"id":"12717","lat":45.6363123611598,"lon":9.1229827355819,"name":"FABIO AUTOFFICINA","brand":"Esso","address":"VIA VIA SARDEGNA 24 20811, CESANO MADERNO (MB) 24 20811, CESANO MADERNO, MB","prices":[{"type":"petrol","price":1.839,"self":true,"updatedAt":"22/06/2026 08:10:22"},{"type":"diesel","price":1.949,"self":true,"updatedAt":"22/06/2026 08:10:22"}]},{"id":"62911","lat":45.63152380018044,"lon":9.129894707639437,"name":"Iperstaroil Cesano Maderno","brand":"Pompe Bianche","address":"via Friuli 53 20811, CESANO MADERNO, MB","prices":[{"type":"petrol","price":1.789,"self":true,"updatedAt":"22/06/2026 20:17:30"},{"type":"diesel","price":1.879,"self":true,"updatedAt":"22/06/2026 20:17:30"}]},{"id":"7811","lat":45.634011913903244,"lon":9.138087630271912,"name":"Q8 di saetti mara","brand":"Q8","address":"VIA NAZIONALE DEI GIOVI 26 20811, CESANO MADERNO, MB","prices":[{"type":"petrol","price":1.819,"self":true,"updatedAt":"23/06/2026 07:52:05"},{"type":"diesel","price":1.939,"self":true,"updatedAt":"23/06/2026 07:52:05"}]},{"id":"33177","lat":45.64368872008721,"lon":9.079532912897548,"name":"COGLIATE VIA C.BATTISTI","brand":"Q8","address":"VIA C.BATTISTI  20020, COGLIATE, MB","prices":[{"type":"petrol","price":1.819,"self":true,"updatedAt":"19/06/2026 13:07:34"},{"type":"diesel","price":1.939,"self":true,"updatedAt":"19/06/2026 13:07:34"}]},{"id":"7242","lat":45.64970300799577,"lon":9.081969112157822,"name":"TOTALERG","brand":"Api-Ip","address":"VIA CARDINAL MINORETTI 64 20815, COGLIATE, MB","prices":[{"type":"petrol","price":2.029,"self":false,"updatedAt":"18/06/2026 12:02:45"},{"type":"diesel","price":2.159,"self":false,"updatedAt":"18/06/2026 12:02:45"}]},{"id":"38079","lat":45.623904091494055,"lon":9.223982021212578,"name":"BEYFIN DI BALDON FABRIZIO & C.SAS","brand":"Beyfin","address":"NUOVA VALASSINA 133 20832, DESIO, MB","prices":[{"type":"petrol","price":1.809,"self":true,"updatedAt":"20/06/2026 08:33:26"},{"type":"diesel","price":1.939,"self":true,"updatedAt":"20/06/2026 08:33:26"},{"type":"lpg","price":0.769,"self":false,"updatedAt":"20/06/2026 08:33:26"}]},{"id":"53287","lat":45.62623765528265,"lon":9.205926465606694,"name":"Coltro Loredano - P.V. 8046","brand":"Tamoil","address":"MILANO 8 20832, DESIO, MB","prices":[{"type":"petrol","price":1.799,"self":true,"updatedAt":"22/06/2026 14:05:33"},{"type":"diesel","price":1.919,"self":true,"updatedAt":"22/06/2026 14:05:33"}]},{"id":"11642","lat":45.61516903593563,"lon":9.200414927577981,"name":"DESIO-VIA MILANO 165","brand":"Q8","address":"VIA MILANO 165 20033, DESIO, MB","prices":[{"type":"petrol","price":1.789,"self":true,"updatedAt":"23/06/2026 07:12:49"},{"type":"diesel","price":1.899,"self":true,"updatedAt":"23/06/2026 07:12:49"}]},{"id":"11643","lat":45.62338022251562,"lon":9.224793526458711,"name":"DESIO-VIA VALASSINA 144 EST","brand":"Q8","address":"VIA VALASSINA 144 EST 20033, DESIO, MB","prices":[{"type":"petrol","price":1.819,"self":true,"updatedAt":"23/06/2026 07:12:50"},{"type":"diesel","price":1.919,"self":true,"updatedAt":"23/06/2026 07:12:50"}]},{"id":"32877","lat":45.62074583216158,"lon":9.199714064598083,"name":"ENI DESIO","brand":"Agip Eni","address":"via milano 230 20832, DESIO, MB","prices":[{"type":"petrol","price":1.829,"self":true,"updatedAt":"23/06/2026 00:21:21"},{"type":"diesel","price":1.919,"self":true,"updatedAt":"23/06/2026 00:21:21"}]},{"id":"42824","lat":45.62073237215098,"lon":9.223661976686458,"name":"Giuseppe La Marca","brand":"Api-Ip","address":"Via Bergognone, snc  20832, DESIO, MB","prices":[{"type":"lpg","price":0.799,"self":false,"updatedAt":"19/06/2026 10:30:04"}]},{"id":"20022","lat":45.60774196976108,"lon":9.194773435592651,"name":"IP Rossi","brand":"Api-Ip","address":"VIA SABOTINO 53, 20832, DESIO, MB","prices":[{"type":"petrol","price":1.799,"self":true,"updatedAt":"22/06/2026 08:38:30"},{"type":"diesel","price":1.899,"self":true,"updatedAt":"22/06/2026 08:38:30"}]},{"id":"48408","lat":45.60871324729638,"lon":9.217777163194668,"name":"ITALIANA PETROLI","brand":"Api-Ip","address":"VIA MASCAGNI 75 20832, DESIO, MB","prices":[{"type":"petrol","price":1.799,"self":true,"updatedAt":"22/06/2026 15:05:22"},{"type":"diesel","price":1.899,"self":true,"updatedAt":"22/06/2026 15:05:22"}]},{"id":"4028","lat":45.60079619733297,"lon":9.201271237642672,"name":"METANO AUTO DESIO SRL","brand":"Pompe Bianche","address":"AMBROSOLI ANGOLO V. MILANO  20832, DESIO, MB","prices":[{"type":"methane","price":1.599,"self":true,"updatedAt":"23/06/2026 00:30:12"}]},{"id":"14095","lat":45.62368386848299,"lon":9.195360888360597,"name":"NUOVA COMA SRL","brand":"Tamoil","address":"VIA PER CESANO 44 20832, DESIO, MB","prices":[{"type":"petrol","price":1.869,"self":true,"updatedAt":"17/06/2026 19:44:40"},{"type":"diesel","price":1.979,"self":true,"updatedAt":"17/06/2026 19:44:40"}]},{"id":"14629","lat":45.619648203491856,"lon":9.216838628053665,"name":"STAZIONE DI SERVIZIO TAMOIL di MORAMARCO GIACINTO & C. snc","brand":"Tamoil","address":"VIA TAGLIABUE 22 20832, DESIO, MB","prices":[{"type":"petrol","price":1.799,"self":true,"updatedAt":"22/06/2026 14:04:26"},{"type":"diesel","price":1.919,"self":true,"updatedAt":"22/06/2026 14:04:26"}]},{"id":"50331","lat":45.61646218811291,"lon":9.223568613082731,"name":"Tremolada Sas","brand":"Agip Eni","address":"36 del Lago di Como e dello Spluga, Km. snc, Milano - 20832, DESIO, MB","prices":[{"type":"petrol","price":1.829,"self":true,"updatedAt":"23/06/2026 00:19:09"},{"type":"diesel","price":1.919,"self":true,"updatedAt":"23/06/2026 00:19:09"}]},{"id":"28970","lat":45.676595390060406,"lon":9.206816554069519,"name":"4034","brand":"Tamoil","address":"POLA-S.P. 110 - FRAZ.PAINA 10 20833, GIUSSANO, MB","prices":[{"type":"petrol","price":1.749,"self":true,"updatedAt":"22/06/2026 13:42:45"},{"type":"diesel","price":1.849,"self":true,"updatedAt":"22/06/2026 13:42:45"}]},{"id":"56168","lat":45.6960343,"lon":9.2085109,"name":"CARLUCCI STEFANO","brand":"Agip Eni","address":"MILANO 4 20833, GIUSSANO, MB","prices":[{"type":"petrol","price":1.819,"self":true,"updatedAt":"23/06/2026 00:20:17"},{"type":"diesel","price":1.914,"self":true,"updatedAt":"23/06/2026 00:20:17"}]},{"id":"48726","lat":45.690924475926934,"lon":9.209841168619016,"name":"Carrefour IP Giussano","brand":"Api-Ip","address":"Via Prealpi  20034, GIUSSANO, MB","prices":[{"type":"petrol","price":1.799,"self":true,"updatedAt":"22/06/2026 17:20:20"},{"type":"diesel","price":1.899,"self":true,"updatedAt":"22/06/2026 17:20:20"}]},{"id":"28135","lat":45.6887088798866,"lon":9.213966652750969,"name":"ESSO","brand":"Esso","address":"VIA VALASSINA 4 20833, GIUSSANO, MB","prices":[{"type":"petrol","price":1.786,"self":true,"updatedAt":"22/06/2026 16:02:24"},{"type":"diesel","price":1.886,"self":true,"updatedAt":"22/06/2026 16:02:24"}]},{"id":"59920","lat":45.676449211647736,"lon":9.204568862915039,"name":"IP di ALI LAVAGGIO A MANO DI RAZA ALI","brand":"Api-Ip","address":"Via 4 Novembre 1 20833, GIUSSANO, MB","prices":[{"type":"petrol","price":1.779,"self":true,"updatedAt":"19/06/2026 13:30:09"},{"type":"diesel","price":1.879,"self":true,"updatedAt":"19/06/2026 13:30:09"}]},{"id":"32212","lat":45.69665487824729,"lon":9.215196220343614,"name":"LUDOIL","brand":"Pompe Bianche","address":"VIA VIGANO 4 20833, GIUSSANO, MB","prices":[{"type":"petrol","price":1.749,"self":true,"updatedAt":"22/06/2026 19:52:09"},{"type":"diesel","price":1.854,"self":true,"updatedAt":"22/06/2026 19:52:09"}]},{"id":"5160","lat":45.668298036450224,"lon":9.202318489551544,"name":"stazione di servizio Esso Vanoli snc","brand":"Esso","address":"via 4 Novembre, Paina di Giussano  160 20034, GIUSSANO, MB","prices":[{"type":"petrol","price":1.786,"self":true,"updatedAt":"22/06/2026 19:20:56"},{"type":"diesel","price":1.886,"self":true,"updatedAt":"22/06/2026 19:20:56"}]},{"id":"61490","lat":45.667484,"lon":9.083654,"name":"12162 LAZZATE","brand":"Agip Eni","address":"S.P. 133 - VIA ROMA, LAZZATE, MB","prices":[{"type":"petrol","price":1.779,"self":true,"updatedAt":"23/06/2026 00:21:58"},{"type":"diesel","price":1.889,"self":true,"updatedAt":"23/06/2026 00:21:58"}]},{"id":"9755","lat":45.68410526999658,"lon":9.120144763823646,"name":"IP","brand":"Api-Ip","address":"VIA A.DIAZ 37 20823, LENTATE SUL SEVESO, MB","prices":[{"type":"petrol","price":1.779,"self":true,"updatedAt":"22/06/2026 12:21:07"},{"type":"diesel","price":1.889,"self":true,"updatedAt":"22/06/2026 12:21:07"}]},{"id":"11640","lat":45.69114593236457,"lon":9.10531060668609,"name":"LENTATE SUL SEVESO-FZ.COPRENO STATALE DEI GIOVI 262","brand":"Q8","address":"FZ.COPRENO STATALE DEI GIOVI 262 20030, LENTATE SUL SEVESO, MB","prices":[{"type":"petrol","price":1.799,"self":true,"updatedAt":"23/06/2026 07:12:51"},{"type":"diesel","price":1.919,"self":true,"updatedAt":"23/06/2026 07:12:51"}]},{"id":"12872","lat":45.600501986426245,"lon":9.128793612372647,"name":"AGOSTINI O E PIERI G","brand":"Agip Eni","address":"VIALE DEI MILLE 34 20812, LIMBIATE, MB","prices":[{"type":"petrol","price":1.809,"self":true,"updatedAt":"23/06/2026 00:40:00"},{"type":"diesel","price":1.919,"self":true,"updatedAt":"23/06/2026 00:40:00"}]},{"id":"61960","lat":45.58959492390649,"lon":9.119432866573334,"name":"IP LIMBIATE","brand":"Api-Ip","address":"VENTICINQUE APRILE SN 20812, LIMBIATE, MB","prices":[{"type":"petrol","price":1.799,"self":false,"updatedAt":"19/06/2026 12:28:37"},{"type":"diesel","price":1.899,"self":false,"updatedAt":"19/06/2026 12:28:37"}]},{"id":"45383","lat":45.60125590649502,"lon":9.126281657558025,"name":"ITALIANA PETROLI","brand":"Api-Ip","address":"VIA DEI MILLE 22 20812, LIMBIATE, MB","prices":[{"type":"petrol","price":1.819,"self":true,"updatedAt":"22/06/2026 23:29:26"},{"type":"diesel","price":1.919,"self":true,"updatedAt":"22/06/2026 23:29:26"}]},{"id":"6450","lat":45.595337657608255,"lon":9.132589945368977,"name":"LIMBIATE VIA TRIESTE 105 - DISTR. Q8","brand":"Q8","address":"VIA TRIESTE  105 - DISTR. Q8 SNC 20051, LIMBIATE, MB","prices":[{"type":"petrol","price":1.799,"self":true,"updatedAt":"20/06/2026 01:39:06"},{"type":"diesel","price":1.899,"self":true,"updatedAt":"20/06/2026 01:39:06"}]},{"id":"11648","lat":45.59771501375995,"lon":9.138557492065388,"name":"LIMBIATE-VIA DEI MILLE 106","brand":"Q8","address":"VIA DEI MILLE 106 20051, LIMBIATE, MB","prices":[{"type":"petrol","price":1.819,"self":true,"updatedAt":"20/06/2026 08:12:02"},{"type":"diesel","price":1.919,"self":true,"updatedAt":"20/06/2026 08:12:02"}]},{"id":"59967","lat":45.606457,"lon":9.122868,"name":"POMPA BIANCA LIMBIATE VIA MONTE GRAPPA N. 7","brand":"Pompe Bianche","address":"MONTE GRAPPA 1 20812, LIMBIATE, MB","prices":[{"type":"lpg","price":0.699,"self":false,"updatedAt":"23/06/2026 07:30:47"}]},{"id":"44911","lat":45.60680536884407,"lon":9.125187234533996,"name":"RETITALIA LIMBIATE","brand":"Retitalia","address":"527 Bustese, Km. 10+488, Nord  20812, LIMBIATE, MB","prices":[{"type":"petrol","price":1.789,"self":true,"updatedAt":"23/06/2026 00:23:55"},{"type":"diesel","price":1.899,"self":true,"updatedAt":"23/06/2026 00:23:55"}]},{"id":"32684","lat":45.61964253800573,"lon":9.233988001942635,"name":"8049","brand":"Tamoil","address":"COMO ANG. VIA RIVA 112 20851, LISSONE, MB","prices":[{"type":"petrol","price":1.789,"self":true,"updatedAt":"23/06/2026 00:04:40"},{"type":"diesel","price":1.909,"self":true,"updatedAt":"23/06/2026 00:04:40"}]},{"id":"53598","lat":45.60545,"lon":9.22709,"name":"EGI-2GO LISSONE","brand":"Esso","address":"VALASSINA 235 20851, LISSONE, MB","prices":[{"type":"petrol","price":1.869,"self":true,"updatedAt":"09/06/2026 07:53:20"},{"type":"diesel","price":1.999,"self":true,"updatedAt":"09/06/2026 07:53:20"}]},{"id":"63120","lat":45.60525699999999,"lon":9.2270345,"name":"ESSO - LISSONE","brand":"Esso","address":"Via Nuova Valassina 235  20035, LISSONE, MB","prices":[{"type":"petrol","price":1.809,"self":true,"updatedAt":"20/06/2026 22:01:02"},{"type":"diesel","price":1.919,"self":true,"updatedAt":"20/06/2026 22:01:02"}]},{"id":"53118","lat":45.62759023051416,"lon":9.242157735964042,"name":"Esso di Civati Bianca Sala","brand":"Esso","address":"VIALE MARTIRI LIBERTA' 239 20851, LISSONE, MB","prices":[{"type":"petrol","price":1.819,"self":true,"updatedAt":"22/06/2026 07:46:37"},{"type":"diesel","price":1.959,"self":true,"updatedAt":"22/06/2026 07:46:37"}]},{"id":"15439","lat":45.6291135635181,"lon":9.244537680470216,"name":"IP","brand":"Api-Ip","address":"TOTI 17 20851, LISSONE, MB","prices":[{"type":"petrol","price":1.799,"self":true,"updatedAt":"22/06/2026 00:33:45"},{"type":"diesel","price":1.899,"self":true,"updatedAt":"22/06/2026 00:33:45"}]},{"id":"53486","lat":45.622311,"lon":9.239702,"name":"IP","brand":"Api-Ip","address":"BUONARROTI 148 20851, LISSONE, MB","prices":[{"type":"petrol","price":1.849,"self":false,"updatedAt":"16/06/2026 09:32:42"},{"type":"diesel","price":1.969,"self":false,"updatedAt":"16/06/2026 09:32:42"}]},{"id":"62208","lat":45.61322483461354,"lon":9.248893707990646,"name":"KEROPETROL AUTOMOBILE CLUB LISSONE (MB)","brand":"ACI","address":"Viale della Repubblica 13 20851, LISSONE, MB","prices":[{"type":"petrol","price":1.839,"self":true,"updatedAt":"17/06/2026 11:41:52"},{"type":"diesel","price":1.959,"self":true,"updatedAt":"17/06/2026 11:41:52"}]},{"id":"22981","lat":45.602204260983115,"lon":9.229980111122131,"name":"Lissone","brand":"Api-Ip","address":"Via Generale Giardino 1 20851, LISSONE, MB","prices":[{"type":"petrol","price":1.819,"self":true,"updatedAt":"22/06/2026 09:16:41"},{"type":"diesel","price":1.939,"self":true,"updatedAt":"22/06/2026 13:10:45"}]},{"id":"39112","lat":45.60228936339683,"lon":9.231563955545425,"name":"LISSONE S.P.192 VALASSINA","brand":"Q8","address":"S.P.192 VALASSINA  20851, LISSONE, MB","prices":[{"type":"petrol","price":1.819,"self":true,"updatedAt":"23/06/2026 07:13:19"},{"type":"diesel","price":1.919,"self":true,"updatedAt":"23/06/2026 07:13:19"}]},{"id":"11649","lat":45.63615438760353,"lon":9.224526822090183,"name":"LISSONE-SS 36 VALASSINA KM 19+020","brand":"Q8","address":"SS 36 VALASSINA KM 19+020 S/N 20035, LISSONE, MB","prices":[{"type":"petrol","price":1.819,"self":true,"updatedAt":"23/06/2026 07:12:52"},{"type":"diesel","price":1.919,"self":true,"updatedAt":"23/06/2026 07:12:52"}]},{"id":"11645","lat":45.61524052887886,"lon":9.248222974204964,"name":"LISSONE-VIA MARTIRI LIBERTA' 12 / PANZINI","brand":"Q8","address":"VIA MARTIRI LIBERTA'  / PANZINI 12 20035, LISSONE, MB","prices":[{"type":"petrol","price":1.799,"self":true,"updatedAt":"23/06/2026 01:38:33"},{"type":"diesel","price":1.939,"self":true,"updatedAt":"23/06/2026 01:38:33"}]},{"id":"45886","lat":45.618672000123,"lon":9.234296000123,"name":"STAZ. SERV. ENI di Corvino Concetta","brand":"Agip Eni","address":"VIA MATTEOTTI 160 20851, LISSONE, MB","prices":[{"type":"petrol","price":1.809,"self":true,"updatedAt":"22/06/2026 23:33:02"},{"type":"diesel","price":1.919,"self":true,"updatedAt":"22/06/2026 23:33:02"}]},{"id":"12233","lat":45.624253218881876,"lon":9.243964514276286,"name":"TAMOIL","brand":"Tamoil","address":"VIALE MARTIRI DELLA LIBERTA' 114 20851, LISSONE, MB","prices":[{"type":"petrol","price":1.799,"self":true,"updatedAt":"23/06/2026 00:20:32"},{"type":"diesel","price":1.919,"self":true,"updatedAt":"23/06/2026 00:20:32"}]},{"id":"58157","lat":45.6022336,"lon":9.169959,"name":"esso","brand":"Esso","address":"ALESSANDRO VOLTA 2 20846, MACHERIO, MB","prices":[{"type":"petrol","price":1.819,"self":true,"updatedAt":"22/06/2026 20:05:45"},{"type":"diesel","price":1.919,"self":true,"updatedAt":"22/06/2026 20:05:45"}]},{"id":"56831","lat":45.66066287496047,"lon":9.161067777501763,"name":"105217 MEDA","brand":"Esso","address":"BRIANZA 2 20821, MEDA, MB","prices":[{"type":"petrol","price":1.879,"self":true,"updatedAt":"11/06/2026 16:04:54"},{"type":"diesel","price":2.019,"self":true,"updatedAt":"11/06/2026 16:04:54"}]},{"id":"63123","lat":45.66058822006631,"lon":9.161196130914584,"name":"ESSO - MEDA","brand":"Esso","address":"Via Indipendenza  20821, MEDA, MB","prices":[{"type":"petrol","price":1.779,"self":true,"updatedAt":"19/06/2026 11:10:49"},{"type":"diesel","price":1.879,"self":true,"updatedAt":"20/06/2026 10:20:45"}]},{"id":"6432","lat":45.6566811525372,"lon":9.14577267050015,"name":"MEDA S.S.35 DEI GIOVI KM 143+750","brand":"Q8","address":"S.S.35 DEI GIOVI KM 143+750 SNC 20036, MEDA, MB","prices":[{"type":"petrol","price":1.799,"self":true,"updatedAt":"19/06/2026 13:07:32"},{"type":"diesel","price":1.919,"self":true,"updatedAt":"19/06/2026 13:07:32"},{"type":"lpg","price":0.699,"self":false,"updatedAt":"19/06/2026 13:07:32"}]},{"id":"6431","lat":45.65876430474549,"lon":9.164178680950954,"name":"MEDA VIA INDIPENDENZA 71","brand":"Q8","address":"VIA INDIPENDENZA 71 20036, MEDA, MB","prices":[{"type":"petrol","price":1.749,"self":true,"updatedAt":"23/06/2026 01:38:37"},{"type":"diesel","price":1.859,"self":true,"updatedAt":"23/06/2026 01:38:37"}]},{"id":"61867","lat":45.662228,"lon":9.147461,"name":"RETITALIA MEDA","brand":"Retitalia","address":"MILANO - ANG. LIBERTA' 2 20821, MEDA, MB","prices":[{"type":"petrol","price":1.775,"self":true,"updatedAt":"23/06/2026 01:04:12"},{"type":"diesel","price":1.877,"self":true,"updatedAt":"23/06/2026 01:04:12"}]},{"id":"13332","lat":45.658420240375506,"lon":9.163924946696511,"name":"S.S.ENI TOBIA OSVALDO E FIGLI SNC","brand":"Agip Eni","address":"VIA INDIPENDENZA 104 20821, MEDA, MB","prices":[{"type":"petrol","price":1.809,"self":true,"updatedAt":"22/06/2026 23:50:17"},{"type":"diesel","price":1.919,"self":true,"updatedAt":"22/06/2026 23:50:17"}]},{"id":"38524","lat":45.5745145949299,"lon":9.24692600852893,"name":"2172 Monza V. Lombardia","brand":"Agip Eni","address":"Viale Lombardia 166 20052, MONZA, MB","prices":[{"type":"petrol","price":1.809,"self":true,"updatedAt":"23/06/2026 00:34:37"},{"type":"diesel","price":1.919,"self":true,"updatedAt":"23/06/2026 00:34:37"}]},{"id":"54079","lat":45.57082423144908,"lon":9.22737032175064,"name":"eni","brand":"Agip Eni","address":"via ugo foscolo  20900, MONZA, MB","prices":[{"type":"petrol","price":1.818,"self":true,"updatedAt":"19/06/2026 17:18:07"},{"type":"diesel","price":1.914,"self":true,"updatedAt":"19/06/2026 17:18:07"},{"type":"methane","price":1.399,"self":false,"updatedAt":"16/06/2026 09:12:05"},{"type":"lpg","price":0.749,"self":false,"updatedAt":"19/06/2026 10:18:05"}]},{"id":"6254","lat":45.56768653673911,"lon":9.244179725646973,"name":"ENI di BRAMBILLA S.N.C.","brand":"Agip Eni","address":"VIALE LOMBARDIA 224 20052, MONZA, MB","prices":[{"type":"petrol","price":1.809,"self":true,"updatedAt":"22/06/2026 23:51:09"},{"type":"diesel","price":1.919,"self":true,"updatedAt":"22/06/2026 23:51:09"}]},{"id":"6439","lat":45.572231571073054,"lon":9.248283505439758,"name":"MONZA V.LE ROMAGNA 42","brand":"Q8","address":"V.LE ROMAGNA 42 20052, MONZA, MB","prices":[{"type":"petrol","price":1.819,"self":true,"updatedAt":"19/06/2026 13:07:35"},{"type":"diesel","price":1.889,"self":true,"updatedAt":"19/06/2026 13:07:35"}]},{"id":"59331","lat":45.59301,"lon":9.233116,"name":"52020  Muggio","brand":"Agip Eni","address":"S.P.MONZA-SARONNO - V.LE REPUBBLICA ANG. V.MAZZINI, MUGGIÒ, MB","prices":[{"type":"petrol","price":1.809,"self":true,"updatedAt":"22/06/2026 23:34:02"},{"type":"diesel","price":1.919,"self":true,"updatedAt":"22/06/2026 23:34:02"}]},{"id":"63141","lat":45.5928384,"lon":9.2360758,"name":"ESSO - MUGGIO'","brand":"Esso","address":"Via Giuseppe Mazzini 13  20053, MUGGIÒ, MB","prices":[{"type":"petrol","price":1.809,"self":true,"updatedAt":"19/06/2026 09:51:02"},{"type":"diesel","price":1.919,"self":true,"updatedAt":"20/06/2026 09:00:46"}]},{"id":"10320","lat":45.57588091184567,"lon":9.230070086508249,"name":"IP","brand":"Api-Ip","address":"Via Combattenti 4 20835, MUGGIÒ, MB","prices":[{"type":"petrol","price":1.816,"self":true,"updatedAt":"22/06/2026 09:16:44"},{"type":"diesel","price":1.896,"self":true,"updatedAt":"22/06/2026 09:16:44"}]},{"id":"48001","lat":45.59281963065065,"lon":9.236082046627047,"name":"Muggio","brand":"Esso","address":"VIA G. MAZZINI 13 20835, MUGGIÒ, MB","prices":[{"type":"petrol","price":1.849,"self":true,"updatedAt":"09/06/2026 15:36:08"},{"type":"diesel","price":1.999,"self":true,"updatedAt":"09/06/2026 15:36:08"}]},{"id":"63142","lat":45.5926423,"lon":9.195349199999999,"name":"ESSO - NOVA MILANESE","brand":"Esso","address":"Via A. Locatelli 10  20834, NOVA MILANESE, MB","prices":[{"type":"petrol","price":1.799,"self":true,"updatedAt":"20/06/2026 09:50:49"},{"type":"diesel","price":1.899,"self":true,"updatedAt":"20/06/2026 09:50:49"}]},{"id":"25385","lat":45.58543539394178,"lon":9.204874733839233,"name":"F.lli scuratti","brand":"KEROPETROL","address":"VIA PER CINISELLO 8 20834, NOVA MILANESE, MB","prices":[{"type":"petrol","price":1.849,"self":true,"updatedAt":"22/06/2026 17:56:39"},{"type":"diesel","price":1.949,"self":true,"updatedAt":"22/06/2026 17:56:39"}]},{"id":"37257","lat":45.5914146691208,"lon":9.201848411045034,"name":"Italiana Petroli","brand":"Api-Ip","address":"VIA VITTORIO VENETO 25 20834, NOVA MILANESE, MB","prices":[{"type":"petrol","price":1.829,"self":true,"updatedAt":"19/06/2026 08:46:13"},{"type":"diesel","price":1.949,"self":true,"updatedAt":"19/06/2026 08:46:13"}]},{"id":"49204","lat":45.59021508857542,"lon":9.209046421212811,"name":"KEROPETROL SPA NOVA MILANESE","brand":"KEROPETROL","address":"VIA VIA D. ALIGHIERI ANG. VIA FOSCOLO SNC 20834, NOVA MILANESE (MB) 1 20834, NOVA MILANESE, MB","prices":[{"type":"petrol","price":1.849,"self":true,"updatedAt":"19/06/2026 16:51:14"},{"type":"diesel","price":1.919,"self":true,"updatedAt":"19/06/2026 16:51:14"}]},{"id":"51349","lat":45.59991908386896,"lon":9.200262000000015,"name":"Nova Milanese","brand":"Q8","address":"VIA ARMANDO DIAZ 31 20834, NOVA MILANESE, MB","prices":[{"type":"petrol","price":1.779,"self":true,"updatedAt":"23/06/2026 07:10:15"},{"type":"diesel","price":1.889,"self":true,"updatedAt":"23/06/2026 00:05:50"},{"type":"lpg","price":0.739,"self":false,"updatedAt":"23/06/2026 00:05:50"}]},{"id":"48753","lat":45.59261673865961,"lon":9.195352999999997,"name":"Nova Milanese","brand":"Esso","address":"VIA A. LOCATELLI 10 20834, NOVA MILANESE, MB","prices":[{"type":"petrol","price":1.939,"self":true,"updatedAt":"07/06/2026 09:13:36"},{"type":"diesel","price":1.969,"self":true,"updatedAt":"07/06/2026 09:13:36"}]},{"id":"7752","lat":45.585064792838175,"lon":9.195328474204985,"name":"stazione di servizio di padova francesco e matteo","brand":"Q8","address":"VIA GIUSEPPE GARIBALDI 130 20834, NOVA MILANESE, MB","prices":[{"type":"petrol","price":1.839,"self":true,"updatedAt":"22/06/2026 07:19:34"},{"type":"diesel","price":1.929,"self":true,"updatedAt":"22/06/2026 07:19:34"}]},{"id":"57527","lat":45.64954296252504,"lon":9.226242077642958,"name":"105308 SEREGNO","brand":"Esso","address":"DELLA REPUBBLICA SNC 20831, SEREGNO, MB","prices":[{"type":"petrol","price":1.869,"self":true,"updatedAt":"09/06/2026 07:18:17"},{"type":"diesel","price":1.999,"self":true,"updatedAt":"09/06/2026 07:18:17"}]},{"id":"57826","lat":45.639795,"lon":9.20563,"name":"CURIONI GIOVANNI","brand":"Esso","address":"MILANO 81 20831, SEREGNO, MB","prices":[{"type":"petrol","price":1.789,"self":true,"updatedAt":"20/06/2026 12:28:27"},{"type":"diesel","price":1.889,"self":true,"updatedAt":"20/06/2026 12:28:27"}]},{"id":"49133","lat":45.637368850223645,"lon":9.22021315078735,"name":"Eni Seregno 12261","brand":"Agip Eni","address":"Via Macalle' 184 20831, SEREGNO, MB","prices":[{"type":"petrol","price":1.815,"self":true,"updatedAt":"22/06/2026 23:32:30"},{"type":"diesel","price":1.919,"self":true,"updatedAt":"22/06/2026 23:32:30"}]},{"id":"63164","lat":45.648703109119644,"lon":9.226243015905837,"name":"ESSO - SEREGNO","brand":"Esso","address":"Viale della Repubblica  20831, SEREGNO, MB","prices":[{"type":"petrol","price":1.799,"self":true,"updatedAt":"22/06/2026 07:20:51"},{"type":"diesel","price":1.909,"self":true,"updatedAt":"22/06/2026 07:20:51"}]},{"id":"54613","lat":45.6457764,"lon":9.2147448,"name":"IP ENERGON SEREGNO","brand":"Api-Ip","address":"Via Macallè 15  20831, SEREGNO, MB","prices":[{"type":"petrol","price":1.779,"self":true,"updatedAt":"23/06/2026 00:26:17"},{"type":"diesel","price":1.889,"self":true,"updatedAt":"23/06/2026 00:26:17"}]},{"id":"63078","lat":45.6405196574987,"lon":9.20517975648345,"name":"IP SEREGNO","brand":"Api-Ip","address":"SEREGNO Via milano ang. t.a. edison 1 20831, SEREGNO, MB","prices":[{"type":"petrol","price":1.789,"self":true,"updatedAt":"22/06/2026 15:18:03"},{"type":"diesel","price":1.899,"self":true,"updatedAt":"22/06/2026 15:18:03"}]},{"id":"45122","lat":45.64680021281812,"lon":9.211188563276892,"name":"Retitalia 42912","brand":"Retitalia","address":"Via Stefano da Seregno 92 20831, SEREGNO, MB","prices":[{"type":"petrol","price":1.789,"self":true,"updatedAt":"22/06/2026 23:04:16"},{"type":"diesel","price":1.899,"self":true,"updatedAt":"22/06/2026 23:04:16"}]},{"id":"26991","lat":45.66186625769628,"lon":9.216957084655746,"name":"SEREGNO - BRIANTINA","brand":"Api-Ip","address":"Via Briantina  20038, SEREGNO, MB","prices":[{"type":"petrol","price":1.769,"self":true,"updatedAt":"22/06/2026 13:08:16"},{"type":"diesel","price":1.879,"self":true,"updatedAt":"22/06/2026 09:12:16"}]},{"id":"32462","lat":45.649894375078894,"lon":9.221599999999967,"name":"SEREGNO - MONTELLO 69","brand":"Api-Ip","address":"VIA MONTELLO 69 20038, SEREGNO, MB","prices":[{"type":"petrol","price":1.769,"self":true,"updatedAt":"22/06/2026 13:04:10"},{"type":"diesel","price":1.879,"self":true,"updatedAt":"22/06/2026 09:07:02"}]},{"id":"24809","lat":45.65620281214398,"lon":9.184490612268519,"name":"SEREGNO - WAGNER","brand":"Api-Ip","address":"VIA WAGNER  20831, SEREGNO, MB","prices":[{"type":"petrol","price":1.769,"self":true,"updatedAt":"22/06/2026 13:08:00"},{"type":"diesel","price":1.879,"self":true,"updatedAt":"22/06/2026 09:11:43"}]},{"id":"23494","lat":45.641553376210986,"lon":9.204979240894318,"name":"SEREGNO VIA MILANO 20","brand":"Q8","address":"VIA MILANO 20  20831, SEREGNO, MB","prices":[{"type":"petrol","price":1.779,"self":true,"updatedAt":"23/06/2026 01:38:47"},{"type":"diesel","price":1.859,"self":true,"updatedAt":"23/06/2026 01:38:47"}]},{"id":"55962","lat":45.656119049004516,"lon":9.195486426963566,"name":"STAZIONE ESSO","brand":"Esso","address":"ANTONIO STOPPANI 92 20831, SEREGNO, MB","prices":[{"type":"petrol","price":1.799,"self":true,"updatedAt":"20/06/2026 18:28:12"},{"type":"diesel","price":1.899,"self":true,"updatedAt":"20/06/2026 18:28:12"}]},{"id":"51050","lat":45.647692603352894,"lon":9.143256416357655,"name":"Imp. Eni 2520 di Vastola Simone","brand":"Agip Eni","address":"ADUA ANGOLO VIA G. FANTONI SN 20822, SEVESO, MB","prices":[{"type":"petrol","price":1.829,"self":true,"updatedAt":"22/06/2026 23:18:42"},{"type":"diesel","price":1.919,"self":true,"updatedAt":"22/06/2026 23:18:42"}]},{"id":"57915","lat":45.64292,"lon":9.14314,"name":"MORO_SEVESO ISONZO","brand":"Moro","address":"Corso Isonzo 5  20822, SEVESO, MB","prices":[{"type":"petrol","price":1.829,"self":true,"updatedAt":"22/06/2026 23:24:39"},{"type":"diesel","price":1.929,"self":true,"updatedAt":"22/06/2026 23:24:39"}]},{"id":"24181","lat":45.64989895124354,"lon":9.143888851284032,"name":"Moro_Seveso Piazza Del Seminario","brand":"Moro","address":"PIAZZA DEL SEMINARIO  SNC 20822, SEVESO, MB","prices":[{"type":"petrol","price":1.829,"self":true,"updatedAt":"22/06/2026 23:50:40"},{"type":"diesel","price":1.929,"self":true,"updatedAt":"22/06/2026 23:50:40"}]},{"id":"32483","lat":45.64048315913963,"lon":9.157673791050911,"name":"SEVESO S.S.35(EX SP 44 MI-MEDA)DIS.Q8","brand":"Q8","address":"S.S.35(EX SP 44 MI-MEDA)  20822, SEVESO, MB","prices":[{"type":"petrol","price":1.799,"self":true,"updatedAt":"19/06/2026 13:07:31"},{"type":"diesel","price":1.919,"self":true,"updatedAt":"19/06/2026 13:07:31"}]},{"id":"48651","lat":45.598079129122276,"lon":9.16818677389342,"name":"IP","brand":"Api-Ip","address":"527 Bustese, Km. 6+829, Sud-Est  20814, VAREDO, MB","prices":[{"type":"petrol","price":1.799,"self":true,"updatedAt":"22/06/2026 23:25:53"},{"type":"diesel","price":1.899,"self":true,"updatedAt":"22/06/2026 23:25:53"}]},{"id":"48993","lat":45.60393141410619,"lon":9.158191955959492,"name":"LEONE","brand":"LEONE","address":"EX S.S. 527 KM 7+885  20814, VAREDO, MB","prices":[{"type":"petrol","price":1.784,"self":true,"updatedAt":"22/06/2026 11:34:13"},{"type":"diesel","price":1.894,"self":true,"updatedAt":"22/06/2026 11:34:13"},{"type":"methane","price":1.599,"self":false,"updatedAt":"23/06/2026 00:23:26"}]},{"id":"22380","lat":45.60391424697533,"lon":9.153016898147598,"name":"VIA CIRCONVALLAZIONE VAREDO","brand":"Esso","address":"VIA CIRCONVALLAZIONE (EX SS 527 BUSTESE)  20814, VAREDO, MB","prices":[{"type":"petrol","price":1.784,"self":true,"updatedAt":"23/06/2026 05:59:16"},{"type":"diesel","price":1.894,"self":true,"updatedAt":"23/06/2026 05:59:16"}]},{"id":"55102","lat":45.73384155027393,"lon":9.249715026984042,"name":"105052 VEDUGGIO OVEST","brand":"Esso","address":"NUOVA VALASSINA KM 7+500 SNC 20837, VEDUGGIO CON COLZANO, MB","prices":[{"type":"petrol","price":1.849,"self":true,"updatedAt":"21/06/2026 08:41:55"},{"type":"diesel","price":1.999,"self":true,"updatedAt":"21/06/2026 08:41:55"}]},{"id":"55045","lat":45.733736709126774,"lon":9.249757942325072,"name":"108966 VEDUGGIO EST","brand":"Esso","address":"SS 36 KM 31+300 SNC 20837, VEDUGGIO CON COLZANO, MB","prices":[{"type":"petrol","price":1.849,"self":true,"updatedAt":"09/06/2026 15:56:37"},{"type":"diesel","price":1.999,"self":true,"updatedAt":"09/06/2026 15:56:38"}]},{"id":"63174","lat":45.7336107,"lon":9.2497214,"name":"ESSO - VEDUGGIO VALASSINA 31+300","brand":"Esso","address":"Via Nuova Valassina SS 36 Km 31+300  20050, VEDUGGIO CON COLZANO, MB","prices":[{"type":"petrol","price":1.774,"self":true,"updatedAt":"19/06/2026 08:40:59"},{"type":"diesel","price":1.874,"self":true,"updatedAt":"19/06/2026 08:40:59"}]},{"id":"63173","lat":45.73451789467092,"lon":9.24898758249355,"name":"ESSO - VEDUGGIO VALASSINA 7+500","brand":"Esso","address":"Via Nuova Valassina  20050, VEDUGGIO CON COLZANO, MB","prices":[{"type":"petrol","price":1.774,"self":true,"updatedAt":"19/06/2026 22:02:04"},{"type":"diesel","price":1.874,"self":true,"updatedAt":"19/06/2026 22:02:04"}]},{"id":"11220","lat":45.68855167842552,"lon":9.218151569366455,"name":"PERRONE ROBERTO - VERANO BRIANZA","brand":"Esso","address":"Statale 36 del Lago di Como e dello Spluga, Km. 25+000, dir. Milano  20843, VERANO BRIANZA, MB","prices":[{"type":"petrol","price":1.799,"self":false,"updatedAt":"23/06/2026 06:24:05"},{"type":"diesel","price":1.909,"self":false,"updatedAt":"23/06/2026 06:24:05"}]},{"id":"5636","lat":45.69678383208968,"lon":9.227552711963654,"name":"Q8 di Flli Carlucci snc","brand":"Q8","address":"Statale 36 del Lago di Como e dello Spluga, Km. 26, dir. Lecco  20843, VERANO BRIANZA, MB","prices":[{"type":"petrol","price":1.819,"self":true,"updatedAt":"19/06/2026 12:20:08"},{"type":"diesel","price":1.919,"self":true,"updatedAt":"19/06/2026 12:20:08"},{"type":"lpg","price":0.759,"self":false,"updatedAt":"19/06/2026 12:20:08"}]},{"id":"11650","lat":45.68822505244049,"lon":9.21897469444275,"name":"VERANO BRIANZA-SP. NUOVA VALASSINA","brand":"Q8","address":"SP. NUOVA VALASSINA S/N 20050, VERANO BRIANZA, MB","prices":[{"type":"petrol","price":1.819,"self":true,"updatedAt":"23/06/2026 07:13:00"},{"type":"diesel","price":1.919,"self":true,"updatedAt":"23/06/2026 07:13:00"}]},{"id":"34745","lat":45.68472718085179,"lon":9.230643957853317,"name":"VIA CAVOUR - VERANO BRIANZA","brand":"Giap","address":"VIA CAVOUR 14 20050, VERANO BRIANZA, MB","prices":[{"type":"petrol","price":1.779,"self":true,"updatedAt":"23/06/2026 05:59:15"},{"type":"diesel","price":1.889,"self":true,"updatedAt":"23/06/2026 05:59:15"}]},{"id":"30892","lat":45.56176087890731,"lon":9.053292274475098,"name":"Iper Station Arese","brand":"Iper Station","address":"Via Luraghi sn 20020, ARESE, MI","prices":[{"type":"petrol","price":1.779,"self":true,"updatedAt":"23/06/2026 00:27:59"},{"type":"diesel","price":1.855,"self":true,"updatedAt":"23/06/2026 00:27:59"},{"type":"methane","price":1.449,"self":true,"updatedAt":"22/06/2026 23:44:09"}]},{"id":"37165","lat":45.554359877008466,"lon":9.052507728338242,"name":"MC SERVIZI SAS","brand":"Api-Ip","address":"VIA PER PASSIRANA   20020, ARESE, MI","prices":[{"type":"petrol","price":1.789,"self":true,"updatedAt":"22/06/2026 09:15:13"},{"type":"diesel","price":1.859,"self":true,"updatedAt":"22/06/2026 09:15:13"}]},{"id":"12065","lat":45.55094687828335,"lon":9.080279892030717,"name":"VIA DEGASP.ARESE","brand":"Esso","address":"VIA DE GASPERI 23 20020, ARESE, MI","prices":[{"type":"petrol","price":1.788,"self":true,"updatedAt":"23/06/2026 05:59:27"},{"type":"diesel","price":1.858,"self":true,"updatedAt":"23/06/2026 05:59:27"}]},{"id":"11713","lat":45.534472181444706,"lon":9.106058031320572,"name":"BARANZATE-VIA FALZAREGO","brand":"Q8","address":"VIA FALZAREGO S/N 20021, BARANZATE, MI","prices":[{"type":"petrol","price":1.759,"self":true,"updatedAt":"23/06/2026 01:38:37"},{"type":"diesel","price":1.859,"self":true,"updatedAt":"23/06/2026 01:38:37"}]},{"id":"54078","lat":45.52791858942426,"lon":9.11178076282215,"name":"Irfan di Ali Irfan","brand":"Esso","address":"233 Varesina, Km. 0000, varese - 20021, BARANZATE, MI","prices":[{"type":"petrol","price":1.799,"self":true,"updatedAt":"22/06/2026 09:19:54"},{"type":"diesel","price":1.919,"self":true,"updatedAt":"22/06/2026 09:19:54"}]},{"id":"31656","lat":45.53491875810432,"lon":9.105639606714249,"name":"KEROPETROL SPA BARANZATE GPL","brand":"KEROPETROL","address":"FALZAREGO SS VARESINA 1 20021, BARANZATE, MI","prices":[{"type":"lpg","price":0.759,"self":false,"updatedAt":"22/06/2026 15:54:45"}]},{"id":"46839","lat":45.54182715694789,"lon":9.111826769940535,"name":"8483","brand":"Tamoil","address":"DELLA REPUBBLICA 6 20021, BOLLATE, MI","prices":[{"type":"petrol","price":1.799,"self":true,"updatedAt":"22/06/2026 12:32:14"},{"type":"diesel","price":1.889,"self":true,"updatedAt":"22/06/2026 23:17:09"}]},{"id":"6447","lat":45.546976439492525,"lon":9.144175796364607,"name":"BOLLATE VIA OSPITALETTO","brand":"Q8","address":"VIA OSPITALETTO SNC 20021, BOLLATE, MI","prices":[{"type":"petrol","price":1.779,"self":true,"updatedAt":"20/06/2026 01:39:05"},{"type":"diesel","price":1.869,"self":true,"updatedAt":"20/06/2026 01:39:05"}]},{"id":"11699","lat":45.54173005746877,"lon":9.105332186508122,"name":"BOLLATE-FZ. OSPIATE VIA REPUBBLICA 16","brand":"Q8","address":"FZ. OSPIATE VIA REPUBBLICA 16 20021, BOLLATE, MI","prices":[{"type":"petrol","price":1.779,"self":true,"updatedAt":"23/06/2026 07:13:01"},{"type":"diesel","price":1.869,"self":true,"updatedAt":"23/06/2026 07:13:01"}]},{"id":"59187","lat":45.559090151829714,"lon":9.130011658999626,"name":"Green Fuel Company S.p.A. - Bollate","brand":"GreenFuelCompany","address":"VIA PACE 50 20021, BOLLATE, MI","prices":[{"type":"methane","price":1.499,"self":false,"updatedAt":"22/06/2026 09:24:32"},{"type":"lpg","price":0.799,"self":false,"updatedAt":"22/06/2026 09:24:32"}]},{"id":"17687","lat":45.53660751505031,"lon":9.104994635581988,"name":"MI BOLLATE","brand":"Api-Ip","address":"VIA MILANO 75 20021, BOLLATE, MI","prices":[{"type":"petrol","price":1.759,"self":true,"updatedAt":"22/06/2026 13:05:40"},{"type":"diesel","price":1.879,"self":true,"updatedAt":"22/06/2026 13:05:40"}]},{"id":"28598","lat":45.55917463931419,"lon":9.131144732236862,"name":"VIA PACE BOLLATE","brand":"Esso","address":"VIA PACE 38 20021, BOLLATE, MI","prices":[{"type":"petrol","price":1.779,"self":true,"updatedAt":"23/06/2026 05:59:30"},{"type":"diesel","price":1.869,"self":true,"updatedAt":"23/06/2026 05:59:30"}]},{"id":"12069","lat":45.54511030892274,"lon":9.130003201223417,"name":"VIA PELLICO BOLL","brand":"Esso","address":"VIA S. PELLICO 20 20021, BOLLATE, MI","prices":[{"type":"petrol","price":1.779,"self":true,"updatedAt":"23/06/2026 05:59:28"},{"type":"diesel","price":1.869,"self":true,"updatedAt":"23/06/2026 05:59:28"}]},{"id":"8741","lat":45.547483103026394,"lon":9.112569093704224,"name":"via verdi","brand":"Esso","address":"VIA G. VERDI angolo vai cilea snc 20021, BOLLATE, MI","prices":[{"type":"petrol","price":1.799,"self":true,"updatedAt":"20/06/2026 07:08:13"},{"type":"diesel","price":1.899,"self":true,"updatedAt":"20/06/2026 07:08:13"}]},{"id":"6442","lat":45.52954012900832,"lon":9.200026722090115,"name":"BRESSO VIA XX SETTEMBRE","brand":"Q8","address":"VIA XX SETTEMBRE SNC 20091, BRESSO, MI","prices":[{"type":"petrol","price":1.769,"self":true,"updatedAt":"23/06/2026 01:38:44"},{"type":"diesel","price":1.859,"self":true,"updatedAt":"23/06/2026 01:38:44"}]},{"id":"11687","lat":45.53619539306639,"lon":9.198049620866755,"name":"BRESSO-VIA MATTEOTTI","brand":"Q8","address":"VIA MATTEOTTI S/N 20091, BRESSO, MI","prices":[{"type":"petrol","price":1.789,"self":true,"updatedAt":"23/06/2026 07:13:02"},{"type":"diesel","price":1.889,"self":true,"updatedAt":"23/06/2026 07:13:02"}]},{"id":"12442","lat":45.54247778006184,"lon":9.190016507283502,"name":"ENI","brand":"Agip Eni","address":"VIA DON MINZONI SNC 20091, BRESSO, MI","prices":[{"type":"petrol","price":1.819,"self":true,"updatedAt":"23/06/2026 00:26:52"},{"type":"diesel","price":1.919,"self":true,"updatedAt":"23/06/2026 00:26:52"}]},{"id":"49812","lat":45.52885812097869,"lon":9.189595364418013,"name":"Retitalia PV 48619","brand":"Retitalia","address":"Via Papa Giovanni XXIII,  26 20091, BRESSO, MI","prices":[{"type":"petrol","price":1.799,"self":true,"updatedAt":"22/06/2026 23:04:46"},{"type":"diesel","price":1.909,"self":true,"updatedAt":"22/06/2026 23:04:46"}]},{"id":"13164","lat":45.53213298472479,"lon":9.19575110077858,"name":"Stazione Servizio Eni F.lli Sartorato s.n.c.","brand":"Agip Eni","address":"PIAZZA ITALIA  20091, BRESSO, MI","prices":[{"type":"petrol","price":1.819,"self":true,"updatedAt":"22/06/2026 05:46:08"},{"type":"diesel","price":1.919,"self":true,"updatedAt":"22/06/2026 05:46:08"}]},{"id":"29239","lat":45.5327732952849,"lon":9.20464069428715,"name":"TOREGAS","brand":"Api-Ip","address":"VIA CARDUCCI SNC 20091, BRESSO, MI","prices":[{"type":"petrol","price":1.799,"self":true,"updatedAt":"23/06/2026 06:29:29"},{"type":"diesel","price":1.879,"self":true,"updatedAt":"23/06/2026 06:29:29"},{"type":"lpg","price":0.789,"self":false,"updatedAt":"23/06/2026 06:29:29"}]},{"id":"11703","lat":45.59066381652534,"lon":9.078240991401685,"name":"CESATE-VIA ROMA 43","brand":"Q8","address":"VIA ROMA 43 20020, CESATE, MI","prices":[{"type":"petrol","price":1.859,"self":true,"updatedAt":"23/06/2026 07:41:41"},{"type":"diesel","price":1.979,"self":true,"updatedAt":"23/06/2026 07:41:41"}]},{"id":"35748","lat":45.59531739094676,"lon":9.095667153596878,"name":"Tamoil","brand":"Tamoil","address":"VIA XIV STRADA 10 20020, CESATE, MI","prices":[{"type":"petrol","price":1.799,"self":true,"updatedAt":"22/06/2026 23:28:47"},{"type":"diesel","price":1.879,"self":true,"updatedAt":"22/06/2026 23:28:47"}]},{"id":"31194","lat":45.54780119027294,"lon":9.233167916536331,"name":"ALCA s.n.c.","brand":"Q8","address":"VIALE FULVIO TESTI 214 20092, CINISELLO BALSAMO, MI","prices":[{"type":"petrol","price":1.769,"self":true,"updatedAt":"23/06/2026 07:17:05"},{"type":"diesel","price":1.849,"self":true,"updatedAt":"23/06/2026 07:17:05"}]},{"id":"5529","lat":45.546577027436676,"lon":9.229324635581975,"name":"CINISELLO BALSAMO","brand":"Api-Ip","address":"Via Fulvio Testi 196 20092, CINISELLO BALSAMO, MI","prices":[{"type":"petrol","price":1.759,"self":true,"updatedAt":"22/06/2026 13:09:52"},{"type":"diesel","price":1.844,"self":true,"updatedAt":"22/06/2026 13:09:52"}]},{"id":"28047","lat":45.54258215365598,"lon":9.220614752149572,"name":"CINISELLO BALSAMO - FULVIO TESTI 51","brand":"Api-Ip","address":"VIALE FULVIO TESTI  51 20092, CINISELLO BALSAMO, MI","prices":[{"type":"petrol","price":1.769,"self":true,"updatedAt":"22/06/2026 13:05:39"},{"type":"diesel","price":1.854,"self":true,"updatedAt":"22/06/2026 13:05:39"}]},{"id":"29861","lat":45.55392629457841,"lon":9.202316093254126,"name":"CINISELLO BALSAMO - TOGLIATTI","brand":"Api-Ip","address":"VIA  TOGLIATTI 2 20092, CINISELLO BALSAMO, MI","prices":[{"type":"petrol","price":1.759,"self":true,"updatedAt":"22/06/2026 13:05:42"},{"type":"diesel","price":1.859,"self":true,"updatedAt":"22/06/2026 13:05:42"}]},{"id":"6449","lat":45.5589375284437,"lon":9.22493409451215,"name":"CINISELLO BALSAMO ROBECCO 69","brand":"Q8","address":"VIA ROBECCO 69 20092, CINISELLO BALSAMO, MI","prices":[{"type":"petrol","price":1.759,"self":true,"updatedAt":"20/06/2026 01:39:06"},{"type":"diesel","price":1.859,"self":true,"updatedAt":"20/06/2026 01:39:06"}]},{"id":"6434","lat":45.559275424392986,"lon":9.211831747221368,"name":"CINISELLO BALSAMO VIA MONTE ORTIGARA 19","brand":"Q8","address":"VIA MONTE ORTIGARA 19 20092, CINISELLO BALSAMO, MI","prices":[{"type":"petrol","price":1.759,"self":true,"updatedAt":"23/06/2026 01:38:40"},{"type":"diesel","price":1.839,"self":true,"updatedAt":"23/06/2026 01:38:40"}]},{"id":"42916","lat":45.555156760928725,"lon":9.23242891226846,"name":"CINISELLO BALSAMO VIA PELIZZA DA VOLPEDO","brand":"Q8","address":"VIA PELIZZA DA VOLPEDO  20092, CINISELLO BALSAMO, MI","prices":[{"type":"petrol","price":1.769,"self":true,"updatedAt":"23/06/2026 07:13:28"},{"type":"diesel","price":1.869,"self":true,"updatedAt":"23/06/2026 07:13:28"}]},{"id":"11680","lat":45.55971971323913,"lon":9.227057084655826,"name":"CINISELLO BALSAMO-VIA LINCOLN ANG.VIA ROBECCO","brand":"Q8","address":"VIA LINCOLN ANG.VIA ROBECCO S/N 20092, CINISELLO BALSAMO, MI","prices":[{"type":"petrol","price":1.759,"self":true,"updatedAt":"20/06/2026 01:38:55"},{"type":"diesel","price":1.859,"self":true,"updatedAt":"20/06/2026 01:38:55"}]},{"id":"11709","lat":45.5656530402386,"lon":9.211318192625072,"name":"CINISELLO BALSAMO-VIA RISORGIMENTO 120","brand":"Q8","address":"VIA RISORGIMENTO 120 20092, CINISELLO BALSAMO, MI","prices":[{"type":"petrol","price":1.789,"self":true,"updatedAt":"23/06/2026 07:13:07"},{"type":"diesel","price":1.889,"self":true,"updatedAt":"23/06/2026 07:13:07"}]},{"id":"11676","lat":45.558550242536306,"lon":9.219528746032665,"name":"CINISELLO BALSAMO-VIA U.GIORDANO","brand":"Q8","address":"VIA U.GIORDANO S/N 20092, CINISELLO BALSAMO, MI","prices":[{"type":"petrol","price":1.759,"self":true,"updatedAt":"20/06/2026 01:38:53"},{"type":"diesel","price":1.859,"self":true,"updatedAt":"20/06/2026 01:38:53"}]},{"id":"11681","lat":45.54087659053977,"lon":9.220952885913903,"name":"CINISELLO BALSAMO-VIALE F.TESTI 132","brand":"Q8","address":"VIALE F.TESTI 132 20092, CINISELLO BALSAMO, MI","prices":[{"type":"petrol","price":1.759,"self":true,"updatedAt":"23/06/2026 01:38:42"},{"type":"diesel","price":1.839,"self":true,"updatedAt":"23/06/2026 01:38:42"}]},{"id":"48139","lat":45.55346798912397,"lon":9.196240983221191,"name":"COMMERCIALE PAGANONI PC18","brand":"Pompe Bianche","address":"VIA XXV APRILE 245 20092, CINISELLO BALSAMO, MI","prices":[{"type":"petrol","price":1.755,"self":true,"updatedAt":"22/06/2026 00:16:31"},{"type":"diesel","price":1.835,"self":true,"updatedAt":"22/06/2026 00:16:31"}]},{"id":"40748","lat":45.55809624391139,"lon":9.220705364417995,"name":"eni","brand":"Agip Eni","address":"via robecco  27 20092, CINISELLO BALSAMO, MI","prices":[{"type":"petrol","price":1.814,"self":true,"updatedAt":"22/06/2026 23:31:25"},{"type":"diesel","price":1.875,"self":true,"updatedAt":"22/06/2026 23:31:25"}]},{"id":"46435","lat":45.55619380216169,"lon":9.200220039963824,"name":"IP t","brand":"Api-Ip","address":"VIA TOGLIATTI 43 20092, CINISELLO BALSAMO, MI","prices":[{"type":"petrol","price":1.779,"self":true,"updatedAt":"22/06/2026 08:53:30"},{"type":"diesel","price":1.879,"self":true,"updatedAt":"22/06/2026 08:53:30"}]},{"id":"50704","lat":45.55229444729481,"lon":9.238035920077321,"name":"iperstaroil CINISELLO","brand":"Pompe Bianche","address":"viale Brianza 31 20092, CINISELLO BALSAMO, MI","prices":[{"type":"petrol","price":1.749,"self":true,"updatedAt":"22/06/2026 17:35:29"},{"type":"diesel","price":1.839,"self":true,"updatedAt":"22/06/2026 17:35:29"}]},{"id":"40566","lat":45.54521808386223,"lon":9.225009977817535,"name":"KEROPETROL SPA CINISELLO BALSAMO","brand":"KEROPETROL","address":"VIA VIALE FULVIO TESTI 0 20092, CINISELLO BALSAMO (MI) 0 20092, CINISELLO BALSAMO, MI","prices":[{"type":"petrol","price":1.819,"self":true,"updatedAt":"19/06/2026 14:57:15"},{"type":"diesel","price":1.919,"self":true,"updatedAt":"19/06/2026 14:57:15"}]},{"id":"55859","lat":45.5514068604,"lon":9.2167654037,"name":"Keropetrol Via Monfalcone","brand":"KEROPETROL","address":"VIA VIA MONFALCONE SNC 20092, CINISELLO BALSAMO (MI) SNC 20092, CINISELLO BALSAMO, MI","prices":[{"type":"petrol","price":1.899,"self":true,"updatedAt":"18/06/2026 15:43:13"},{"type":"diesel","price":1.999,"self":true,"updatedAt":"18/06/2026 15:43:13"}]},{"id":"36458","lat":45.54869436492454,"lon":9.207860525131196,"name":"LAMBRO NORD","brand":"Api-Ip","address":"Autostrada A4 MILANO-BRESCIA, Km. 383, dir. Torino - 15077, CINISELLO BALSAMO, MI","prices":[{"type":"petrol","price":1.879,"self":true,"updatedAt":"22/06/2026 19:05:44"},{"type":"diesel","price":1.979,"self":true,"updatedAt":"22/06/2026 19:05:44"}]},{"id":"3548","lat":45.54819602199825,"lon":9.208756966934175,"name":"LAMBRO SUD","brand":"Api-Ip","address":"A4 MILANO-BRESCIA, Km. 133+599, Est - 20092, CINISELLO BALSAMO, MI","prices":[{"type":"petrol","price":1.894,"self":true,"updatedAt":"22/06/2026 22:00:06"},{"type":"diesel","price":1.964,"self":true,"updatedAt":"22/06/2026 22:00:07"}]},{"id":"27082","lat":45.54084405659239,"lon":9.22249250118864,"name":"LEONE CINISELLO BALSAMO","brand":"LEONE","address":"Via Saint Denis 1 20092, CINISELLO BALSAMO, MI","prices":[{"type":"petrol","price":1.764,"self":true,"updatedAt":"22/06/2026 23:52:01"},{"type":"diesel","price":1.864,"self":true,"updatedAt":"22/06/2026 23:52:01"}]},{"id":"52380","lat":45.55231374762712,"lon":9.205456817550953,"name":"Micals","brand":"Api-Ip","address":"Via marconi 8 20092, CINISELLO BALSAMO, MI","prices":[{"type":"petrol","price":1.769,"self":false,"updatedAt":"22/06/2026 16:19:20"},{"type":"diesel","price":1.869,"self":false,"updatedAt":"22/06/2026 16:19:20"}]},{"id":"53552","lat":45.55348689715942,"lon":9.21478271484375,"name":"noman khalil","brand":"Agip Eni","address":"VIA LINCOLN 69 20092, CINISELLO BALSAMO, MI","prices":[{"type":"petrol","price":1.824,"self":true,"updatedAt":"22/06/2026 23:48:34"},{"type":"diesel","price":1.914,"self":true,"updatedAt":"22/06/2026 23:48:34"}]},{"id":"57478","lat":45.5562651,"lon":9.227482,"name":"pv 42861","brand":"Retitalia","address":"ABRAMO LINCOLN 7 20092, CINISELLO BALSAMO, MI","prices":[{"type":"petrol","price":1.789,"self":true,"updatedAt":"22/06/2026 00:10:30"},{"type":"diesel","price":1.899,"self":true,"updatedAt":"22/06/2026 00:10:30"}]},{"id":"53892","lat":45.560417,"lon":9.231626,"name":"q8 1061","brand":"Q8","address":"VIGANO' DE' VIZZI 36 20092, CINISELLO BALSAMO, MI","prices":[{"type":"petrol","price":1.779,"self":true,"updatedAt":"22/06/2026 08:33:21"},{"type":"diesel","price":1.869,"self":true,"updatedAt":"22/06/2026 08:33:21"}]},{"id":"8744","lat":45.55304702467864,"lon":9.209659200663737,"name":"Stazione di servizio IP d","brand":"Api-Ip","address":"VIA DANTE ALIGHIERI 84 20092, CINISELLO BALSAMO, MI","prices":[{"type":"petrol","price":1.779,"self":true,"updatedAt":"22/06/2026 08:53:03"},{"type":"diesel","price":1.879,"self":true,"updatedAt":"22/06/2026 08:53:03"}]},{"id":"20204","lat":45.546465100148346,"lon":9.226262989549241,"name":"Stazione di servizio snc","brand":"Esso","address":"Viale fulvio testi 141 20092, CINISELLO BALSAMO, MI","prices":[{"type":"petrol","price":1.829,"self":true,"updatedAt":"22/06/2026 14:54:31"},{"type":"diesel","price":1.939,"self":true,"updatedAt":"22/06/2026 14:54:31"}]},{"id":"56611","lat":45.5395079,"lon":9.1682944,"name":"Ciarcia Sabato","brand":"Q8","address":"ANTONIO GRAMSCI 29 20032, CORMANO, MI","prices":[{"type":"petrol","price":1.849,"self":true,"updatedAt":"22/06/2026 07:02:57"},{"type":"diesel","price":1.979,"self":true,"updatedAt":"22/06/2026 07:02:57"}]},{"id":"27528","lat":45.542915967691464,"lon":9.184189271163973,"name":"CORMANO - CADORNA","brand":"Api-Ip","address":"VIA LUIGI CADORNA  20032, CORMANO, MI","prices":[{"type":"petrol","price":1.759,"self":true,"updatedAt":"22/06/2026 13:01:55"},{"type":"diesel","price":1.859,"self":true,"updatedAt":"22/06/2026 13:01:55"}]},{"id":"51187","lat":45.55296297937115,"lon":9.164995610692491,"name":"CORMANO S.PROV. 44 MILANO-MEDA","brand":"Q8","address":"S.PROV. 44  MILANO-MEDA  20032, CORMANO, MI","prices":[{"type":"petrol","price":1.799,"self":true,"updatedAt":"19/06/2026 13:07:33"},{"type":"diesel","price":1.919,"self":true,"updatedAt":"19/06/2026 13:07:33"},{"type":"lpg","price":0.699,"self":false,"updatedAt":"19/06/2026 13:07:33"}]},{"id":"12665","lat":45.54489498527752,"lon":9.166926741600037,"name":"NIGRO SNC Cormano","brand":"Agip Eni","address":"VIA F. FILZI 9 20032, CORMANO, MI","prices":[{"type":"petrol","price":1.81,"self":true,"updatedAt":"22/06/2026 04:54:01"},{"type":"diesel","price":1.919,"self":true,"updatedAt":"22/06/2026 04:54:01"}]},{"id":"62287","lat":45.50019280000001,"lon":9.0306381,"name":"IP CORNAREDO","brand":"Api-Ip","address":"Via Giuseppe Mazzini 34  20007, CORNAREDO, MI","prices":[{"type":"petrol","price":1.799,"self":true,"updatedAt":"22/06/2026 09:32:20"},{"type":"diesel","price":1.899,"self":true,"updatedAt":"22/06/2026 09:32:20"}]},{"id":"59586","lat":45.54929,"lon":9.185919,"name":"2159  CUSANO MILANINO","brand":"Agip Eni","address":"VIA SORMANI  29, CUSANO MILANINO, MI","prices":[{"type":"petrol","price":1.809,"self":true,"updatedAt":"22/06/2026 23:27:50"},{"type":"diesel","price":1.919,"self":true,"updatedAt":"22/06/2026 23:27:50"}]},{"id":"27870","lat":45.54620994598323,"lon":9.17568951845169,"name":"2517","brand":"Tamoil","address":"MANZONI - ANG. VIA MARCONI . 20095, CUSANO MILANINO, MI","prices":[{"type":"petrol","price":1.769,"self":true,"updatedAt":"22/06/2026 13:42:32"},{"type":"diesel","price":1.839,"self":true,"updatedAt":"22/06/2026 13:42:32"}]},{"id":"50046","lat":45.555949923215685,"lon":9.172633886337275,"name":"stazione di servizio Q8 di mauro Munari","brand":"Q8","address":"SEVESO snc 20095, CUSANO MILANINO, MI","prices":[{"type":"petrol","price":1.829,"self":true,"updatedAt":"23/06/2026 07:37:51"},{"type":"diesel","price":1.949,"self":true,"updatedAt":"23/06/2026 07:37:51"}]},{"id":"15514","lat":45.55366889427864,"lon":9.186291620135307,"name":"Tamoil","brand":"Tamoil","address":"VIA SORMANI 38 20095, CUSANO MILANINO, MI","prices":[{"type":"petrol","price":1.959,"self":true,"updatedAt":"22/06/2026 14:06:28"},{"type":"diesel","price":2.079,"self":true,"updatedAt":"22/06/2026 14:06:28"}]},{"id":"12068","lat":45.5546165379325,"lon":9.174054974204978,"name":"VIA SEVESO CUSAN","brand":"Giap","address":"VIA SEVESO ANG. VIA LIBERTA' SNC 20095, CUSANO MILANINO, MI","prices":[{"type":"petrol","price":1.798,"self":true,"updatedAt":"23/06/2026 05:59:24"},{"type":"diesel","price":1.898,"self":true,"updatedAt":"23/06/2026 05:59:24"}]},{"id":"58158","lat":45.5755493,"lon":9.0738034,"name":"AUTO SERVICE PIRO","brand":"Api-Ip","address":"VARESE 56 20024, GARBAGNATE MILANESE, MI","prices":[{"type":"petrol","price":1.819,"self":true,"updatedAt":"22/06/2026 16:36:47"},{"type":"diesel","price":1.989,"self":true,"updatedAt":"22/06/2026 00:57:34"}]},{"id":"28454","lat":45.578883991894855,"lon":9.057772904634476,"name":"EKOPOINT","brand":"EKOpoint","address":"VIA TRATTATI DI ROMA  20024, GARBAGNATE MILANESE, MI","prices":[{"type":"petrol","price":1.799,"self":true,"updatedAt":"23/06/2026 00:11:51"},{"type":"diesel","price":1.889,"self":true,"updatedAt":"23/06/2026 00:11:51"},{"type":"methane","price":1.499,"self":false,"updatedAt":"23/06/2026 00:11:51"},{"type":"lpg","price":0.759,"self":false,"updatedAt":"23/06/2026 00:11:51"}]},{"id":"53471","lat":45.559829295598284,"lon":9.08206045092621,"name":"ENI 59066 Collu Saturnino","brand":"Agip Eni","address":"VARESINA KM 13+77 20024, GARBAGNATE MILANESE, MI","prices":[{"type":"petrol","price":1.829,"self":true,"updatedAt":"22/06/2026 07:08:32"},{"type":"diesel","price":1.919,"self":true,"updatedAt":"22/06/2026 07:08:32"}]},{"id":"27947","lat":45.57460538609306,"lon":9.067463880850141,"name":"Esso","brand":"Esso","address":"VIA PELORITANA 0056 20024, GARBAGNATE MILANESE, MI","prices":[{"type":"petrol","price":1.819,"self":true,"updatedAt":"23/06/2026 05:01:51"},{"type":"diesel","price":1.929,"self":true,"updatedAt":"23/06/2026 05:01:51"}]},{"id":"42136","lat":45.56543979927998,"lon":9.076157453967426,"name":"Esso Garbagnate","brand":"Esso","address":"Via Giuseppe Garibaldi 132 20024, GARBAGNATE MILANESE, MI","prices":[{"type":"petrol","price":1.819,"self":true,"updatedAt":"23/06/2026 07:42:21"},{"type":"diesel","price":1.919,"self":true,"updatedAt":"23/06/2026 07:42:21"}]},{"id":"11689","lat":45.5674187773307,"lon":9.07466973743442,"name":"GARBAGNATE-VIA GARIBALDI 89 FZ. S MARIA ROSSA","brand":"Q8","address":"VIA GARIBALDI FZ. S MARIA ROSSA 89 20024, GARBAGNATE MILANESE, MI","prices":[{"type":"petrol","price":1.819,"self":true,"updatedAt":"23/06/2026 07:13:07"},{"type":"diesel","price":1.899,"self":true,"updatedAt":"23/06/2026 07:13:07"}]},{"id":"57020","lat":45.562627,"lon":9.07063,"name":"Gas Auto","brand":"GasAuto","address":"JOHN FITZGERALD KENNEDY 61 20024, GARBAGNATE MILANESE, MI","prices":[{"type":"lpg","price":0.739,"self":false,"updatedAt":"22/06/2026 11:09:46"}]},{"id":"12063","lat":45.57874058957802,"lon":9.07853596808809,"name":"V.GAVINANA GARBA","brand":"Giap","address":"VIA GAVINANA 18 20024, GARBAGNATE MILANESE, MI","prices":[{"type":"petrol","price":1.818,"self":true,"updatedAt":"23/06/2026 05:59:23"},{"type":"diesel","price":1.918,"self":true,"updatedAt":"23/06/2026 05:59:23"}]},{"id":"57362","lat":45.562653,"lon":9.014879,"name":"12446  LAINATE","brand":"Agip Eni","address":"SP101, LAINATE, MI","prices":[{"type":"petrol","price":1.809,"self":true,"updatedAt":"22/06/2026 23:36:04"},{"type":"diesel","price":1.889,"self":true,"updatedAt":"22/06/2026 23:36:04"}]},{"id":"49834","lat":45.570493303074755,"lon":9.021091798244976,"name":"2247 – Lainate","brand":"Agip Eni","address":"Viale Italia 2 20020, LAINATE, MI","prices":[{"type":"petrol","price":1.809,"self":true,"updatedAt":"22/06/2026 00:17:06"},{"type":"diesel","price":1.889,"self":true,"updatedAt":"22/06/2026 00:17:06"}]},{"id":"35445","lat":45.55220869339715,"lon":9.029793441295624,"name":"3537","brand":"Tamoil","address":"RHO 93 20045, LAINATE, MI","prices":[{"type":"petrol","price":1.769,"self":true,"updatedAt":"22/06/2026 23:19:40"},{"type":"diesel","price":1.819,"self":true,"updatedAt":"22/06/2026 13:40:32"}]},{"id":"11685","lat":45.57374541847877,"lon":9.042500000000018,"name":"LAINATE-VIA GARBAGNATE 58/60","brand":"Q8","address":"VIA GARBAGNATE 58/60 20020, LAINATE, MI","prices":[{"type":"petrol","price":1.819,"self":true,"updatedAt":"23/06/2026 07:13:09"},{"type":"diesel","price":1.899,"self":true,"updatedAt":"23/06/2026 07:13:09"}]},{"id":"3555","lat":45.55996995230018,"lon":9.039123033065835,"name":"VILLORESI EST","brand":"Q8","address":"Autostrada A8-A9 MILANO-LAGHI, Km. 7+600, dir. Nord - 20020, LAINATE, MI","prices":[{"type":"petrol","price":1.859,"self":true,"updatedAt":"20/06/2026 19:30:08"},{"type":"diesel","price":1.949,"self":true,"updatedAt":"20/06/2026 19:30:09"},{"type":"methane","price":1.699,"self":false,"updatedAt":"20/06/2026 19:30:14"},{"type":"lpg","price":0.899,"self":false,"updatedAt":"20/06/2026 19:30:11"}]},{"id":"3927","lat":45.55834880837939,"lon":9.040143933868421,"name":"VILLORESI OVEST","brand":"Esso","address":"Autostrada A8-A9 MILANO-LAGHI, Km. 7+600, dir. Sud - 20020, LAINATE, MI","prices":[{"type":"petrol","price":2.5,"self":true,"updatedAt":"22/06/2026 09:36:08"},{"type":"diesel","price":2.5,"self":true,"updatedAt":"22/06/2026 09:36:08"},{"type":"methane","price":1.993,"self":false,"updatedAt":"22/06/2026 09:36:08"},{"type":"lpg","price":0.91,"self":false,"updatedAt":"22/06/2026 09:36:08"}]},{"id":"55271","lat":45.6659596,"lon":9.1650898,"name":"Moro_Mediglia","brand":"Agip Eni","address":"V. PAULLESE VECCHIA 0 20076, MEDIGLIA, MI","prices":[{"type":"petrol","price":1.825,"self":true,"updatedAt":"22/06/2026 23:47:57"},{"type":"diesel","price":1.914,"self":true,"updatedAt":"22/06/2026 23:47:57"}]},{"id":"61108","lat":45.5259828,"lon":9.19339387,"name":"2918","brand":"Tamoil","address":"VIA ORNATO, MILANO, MI","prices":[{"type":"petrol","price":1.759,"self":true,"updatedAt":"22/06/2026 13:42:40"},{"type":"diesel","price":1.859,"self":true,"updatedAt":"22/06/2026 13:42:40"}]},{"id":"59566","lat":45.50075,"lon":9.228815,"name":"56805 MILANO","brand":"Agip Eni","address":"Via Stamira d'Ancona  20127, MILANO, MI","prices":[{"type":"petrol","price":1.799,"self":true,"updatedAt":"23/06/2026 00:36:03"},{"type":"diesel","price":1.909,"self":true,"updatedAt":"23/06/2026 00:36:03"}]},{"id":"24527","lat":45.52284512806989,"lon":9.159154501480089,"name":"8050","brand":"Tamoil","address":"LITTA MODIGNANI ALESSANDRO 50 20161, MILANO, MI","prices":[{"type":"petrol","price":1.759,"self":true,"updatedAt":"22/06/2026 13:40:54"},{"type":"diesel","price":1.869,"self":true,"updatedAt":"22/06/2026 13:40:54"}]},{"id":"35639","lat":45.51190589544868,"lon":9.128024652600288,"name":"8053","brand":"Tamoil","address":"GRASSI GIOVANNI BATTISTA 10 20157, MILANO, MI","prices":[{"type":"petrol","price":1.769,"self":true,"updatedAt":"22/06/2026 13:41:52"},{"type":"diesel","price":1.919,"self":true,"updatedAt":"22/06/2026 13:41:52"}]},{"id":"44713","lat":45.50603037189844,"lon":9.237241180391266,"name":"Car & service di Ciurleo Michelangelo","brand":"Esso","address":"Via Ponte Nuovo 15 20128, MILANO, MI","prices":[{"type":"petrol","price":1.799,"self":true,"updatedAt":"22/06/2026 09:48:52"},{"type":"diesel","price":1.899,"self":true,"updatedAt":"22/06/2026 09:48:52"}]},{"id":"15350","lat":45.506036549658646,"lon":9.197736606001854,"name":"COLELLA RAFFAELE","brand":"Esso","address":"VIALE SUZZANI 12 20126, MILANO, MI","prices":[{"type":"petrol","price":1.809,"self":true,"updatedAt":"22/06/2026 21:57:02"},{"type":"diesel","price":1.979,"self":true,"updatedAt":"22/06/2026 21:57:02"}]},{"id":"25256","lat":45.501951819680386,"lon":9.143400355225367,"name":"CONSOLE MARCELLO 41 MILANO","brand":"Q8","address":"CONSOLE MARCELLO 41 20156, MILANO, MI","prices":[{"type":"petrol","price":1.739,"self":true,"updatedAt":"23/06/2026 01:38:49"},{"type":"diesel","price":1.914,"self":true,"updatedAt":"23/06/2026 01:38:49"}]},{"id":"33491","lat":45.522697716219355,"lon":9.174699949737487,"name":"COSTANTIN MILANO","brand":"Costantin","address":"Vincenzo da Seregno 38 20161, MILANO, MI","prices":[{"type":"petrol","price":1.789,"self":true,"updatedAt":"20/06/2026 08:49:02"}]},{"id":"61168","lat":45.50167256930689,"lon":9.139522029474128,"name":"Distributore ip","brand":"Api-Ip","address":"VARESINA 107 20156, MILANO, MI","prices":[{"type":"petrol","price":1.829,"self":true,"updatedAt":"16/06/2026 13:46:48"},{"type":"diesel","price":1.959,"self":true,"updatedAt":"16/06/2026 13:46:48"}]},{"id":"53665","lat":45.53061,"lon":9.16406,"name":"EGI-2GO MI RUBICONE 30","brand":"Esso","address":"RUBICONE 30 20161, MILANO, MI","prices":[{"type":"petrol","price":1.799,"self":true,"updatedAt":"23/06/2026 05:55:07"},{"type":"diesel","price":1.899,"self":true,"updatedAt":"23/06/2026 05:55:07"},{"type":"lpg","price":0.739,"self":false,"updatedAt":"23/06/2026 05:55:07"}]},{"id":"52180","lat":45.50131339732586,"lon":9.209562057691526,"name":"ENI","brand":"Agip Eni","address":"VIA EMILIO DE MARCHI 37 20125, MILANO, MI","prices":[{"type":"petrol","price":1.817,"self":true,"updatedAt":"22/06/2026 23:30:54"},{"type":"diesel","price":1.907,"self":true,"updatedAt":"22/06/2026 23:30:54"}]},{"id":"45219","lat":45.511988580308376,"lon":9.13694977760315,"name":"Eni","brand":"Agip Eni","address":"ERITREA 65 20157, MILANO, MI","prices":[{"type":"petrol","price":1.769,"self":true,"updatedAt":"22/06/2026 23:32:24"},{"type":"diesel","price":1.904,"self":true,"updatedAt":"22/06/2026 23:32:24"}]},{"id":"35348","lat":45.52429645902771,"lon":9.165810948410012,"name":"ENI","brand":"Agip Eni","address":"VIA COMASINA 19 20161, MILANO, MI","prices":[{"type":"petrol","price":1.799,"self":true,"updatedAt":"23/06/2026 00:26:34"},{"type":"diesel","price":1.909,"self":true,"updatedAt":"23/06/2026 00:26:34"}]},{"id":"44907","lat":45.520849000123,"lon":9.227576000123,"name":"ENI di manfredi luca","brand":"Agip Eni","address":"VIALE MONZA 316 20128, MILANO, MI","prices":[{"type":"petrol","price":1.809,"self":true,"updatedAt":"22/06/2026 23:32:51"},{"type":"diesel","price":1.909,"self":true,"updatedAt":"22/06/2026 23:32:51"}]},{"id":"12747","lat":45.50724104566137,"lon":9.223346854631018,"name":"ENI DI ZAMBELLI ROBERTO","brand":"Agip Eni","address":"VIALE MONZA 166 20127, MILANO, MI","prices":[{"type":"petrol","price":1.809,"self":true,"updatedAt":"22/06/2026 07:46:37"},{"type":"diesel","price":1.909,"self":true,"updatedAt":"22/06/2026 07:46:37"}]},{"id":"58356","lat":45.50475411873274,"lon":9.169067475979599,"name":"ESSO","brand":"Esso","address":"DON G. MINZONI 1 20158, MILANO, MI","prices":[{"type":"petrol","price":1.809,"self":true,"updatedAt":"23/06/2026 07:07:56"},{"type":"diesel","price":1.929,"self":true,"updatedAt":"23/06/2026 07:07:56"}]},{"id":"63204","lat":45.51656780089884,"lon":9.206924666375096,"name":"ESSO - MILANO FULVIO TESTI","brand":"Esso","address":"Viale Fulvio Testi 200  20126, MILANO, MI","prices":[{"type":"petrol","price":1.799,"self":true,"updatedAt":"22/06/2026 09:10:53"},{"type":"diesel","price":1.879,"self":true,"updatedAt":"20/06/2026 08:11:00"}]},{"id":"63129","lat":45.5211488,"lon":9.1925857,"name":"ESSO - MILANO ORNATO","brand":"Esso","address":"Via Luigi Ornato 84  20162, MILANO, MI","prices":[{"type":"petrol","price":1.799,"self":true,"updatedAt":"22/06/2026 11:40:46"},{"type":"diesel","price":1.879,"self":true,"updatedAt":"20/06/2026 22:01:06"}]},{"id":"63127","lat":45.50231118296708,"lon":9.198780018522738,"name":"ESSO - MILANO PIAZZALE ISTRIA","brand":"Esso","address":"Piazzale Istria 14  20159, MILANO, MI","prices":[{"type":"petrol","price":1.799,"self":true,"updatedAt":"22/06/2026 09:50:47"},{"type":"diesel","price":1.879,"self":true,"updatedAt":"20/06/2026 08:30:46"}]},{"id":"49381","lat":45.503031593640934,"lon":9.13876233862311,"name":"ESSO DI MOHAMED ASHRAF","brand":"Esso","address":"via varesina 169 20156, MILANO, MI","prices":[{"type":"petrol","price":1.789,"self":true,"updatedAt":"20/06/2026 09:32:08"},{"type":"diesel","price":1.929,"self":true,"updatedAt":"20/06/2026 09:32:08"}]},{"id":"55574","lat":45.5016973,"lon":9.1821861,"name":"Esso Imbonati","brand":"Esso","address":"Via Carlo Imbonati 70 20159, MILANO, MI","prices":[{"type":"petrol","price":1.819,"self":true,"updatedAt":"19/06/2026 07:57:00"},{"type":"diesel","price":1.939,"self":true,"updatedAt":"19/06/2026 07:57:00"}]},{"id":"47681","lat":45.521098633172315,"lon":9.148152916455397,"name":"HYDRO CAR SRL","brand":"Socogas","address":"VIA CARLO AMORETTI  93 20157, MILANO, MI","prices":[{"type":"petrol","price":1.749,"self":true,"updatedAt":"19/06/2026 09:30:17"},{"type":"diesel","price":1.849,"self":true,"updatedAt":"19/06/2026 09:30:17"},{"type":"lpg","price":0.805,"self":false,"updatedAt":"19/06/2026 09:30:17"}]},{"id":"54594","lat":45.52040884082528,"lon":9.176931226261836,"name":"IP","brand":"Api-Ip","address":"FERMI ENRICO 130 20161, MILANO, MI","prices":[{"type":"petrol","price":1.779,"self":true,"updatedAt":"22/06/2026 23:28:16"},{"type":"diesel","price":1.879,"self":true,"updatedAt":"22/06/2026 23:28:16"},{"type":"lpg","price":0.742,"self":false,"updatedAt":"22/06/2026 23:28:16"}]},{"id":"18478","lat":45.517475312413836,"lon":9.209502987036103,"name":"IP LAVAGGIO SARCA SAS","brand":"KEROPETROL","address":"VIALE SARCA 199/B 20126, MILANO, MI","prices":[{"type":"petrol","price":1.908,"self":false,"updatedAt":"18/06/2026 17:15:10"},{"type":"diesel","price":2.02,"self":false,"updatedAt":"18/06/2026 17:15:10"}]},{"id":"9046","lat":45.52648018196772,"lon":9.17459785938263,"name":"ITALIANA PETROLI","brand":"Api-Ip","address":"VIA MARCHIONNI 14 20161, MILANO, MI","prices":[{"type":"petrol","price":1.789,"self":true,"updatedAt":"22/06/2026 07:48:34"},{"type":"diesel","price":1.899,"self":true,"updatedAt":"22/06/2026 07:48:34"}]},{"id":"7908","lat":45.50381188643153,"lon":9.164146879832856,"name":"KE.RO IMPIANTI VIA DURANDO","brand":"KEROPETROL","address":"DURANDO GIOVANNI 3 20158, MILANO, MI","prices":[{"type":"petrol","price":1.799,"self":true,"updatedAt":"22/06/2026 17:45:29"},{"type":"diesel","price":1.959,"self":true,"updatedAt":"22/06/2026 17:45:29"}]},{"id":"33361","lat":45.51531583271674,"lon":9.225765606151526,"name":"LEONE  Milano Viale Monza n. 254","brand":"LEONE","address":"VIALE MONZA 254 20128, MILANO, MI","prices":[{"type":"petrol","price":1.794,"self":true,"updatedAt":"22/06/2026 15:57:50"},{"type":"diesel","price":1.894,"self":true,"updatedAt":"22/06/2026 15:57:50"},{"type":"methane","price":1.549,"self":false,"updatedAt":"22/06/2026 15:57:50"}]},{"id":"24317","lat":45.506485252405575,"lon":9.096813797950745,"name":"M.A.S. S.r.l.","brand":"Pompe Bianche","address":"GALLARATE 437 20151, MILANO, MI","prices":[{"type":"petrol","price":1.936,"self":true,"updatedAt":"22/06/2026 20:40:02"},{"type":"diesel","price":1.999,"self":true,"updatedAt":"22/06/2026 20:40:02"},{"type":"methane","price":1.699,"self":false,"updatedAt":"22/06/2026 23:37:31"},{"type":"lpg","price":0.779,"self":false,"updatedAt":"22/06/2026 23:37:31"}]},{"id":"48154","lat":45.52110848287962,"lon":9.192438058283793,"name":"Mi - Ornato","brand":"Esso","address":"VIA ORNATO LUIGI 84 20162, MILANO, MI","prices":[{"type":"petrol","price":1.859,"self":true,"updatedAt":"09/06/2026 08:06:27"},{"type":"diesel","price":2.009,"self":true,"updatedAt":"09/06/2026 08:06:27"}]},{"id":"62305","lat":45.5026717,"lon":9.1648729,"name":"Milano - Brofferio","brand":"Api-Ip","address":"ANGELO BROFFERIO 7P 20158, MILANO, MI","prices":[{"type":"petrol","price":1.799,"self":true,"updatedAt":"22/06/2026 09:08:43"},{"type":"diesel","price":1.939,"self":true,"updatedAt":"22/06/2026 09:08:43"}]},{"id":"23117","lat":45.50462255797407,"lon":9.23822950429917,"name":"MILANO VIA ARICI Ang. VIA BELLI","brand":"Api-Ip","address":"VIA ARICI Ang. VIA BELLI  20127, MILANO, MI","prices":[{"type":"petrol","price":1.759,"self":true,"updatedAt":"22/06/2026 13:02:02"},{"type":"diesel","price":1.859,"self":true,"updatedAt":"22/06/2026 13:02:02"}]},{"id":"43279","lat":45.512615521526854,"lon":9.136708201223428,"name":"MILANO VIA ERITREA, 71","brand":"Q8","address":"VIA ERITREA 71 20157, MILANO, MI","prices":[{"type":"petrol","price":1.749,"self":true,"updatedAt":"23/06/2026 07:13:06"},{"type":"diesel","price":1.924,"self":true,"updatedAt":"23/06/2026 07:13:06"}]},{"id":"24668","lat":45.51461428840631,"lon":9.137596786022186,"name":"Milano Via Trilussa","brand":"Api-Ip","address":"Via Trilussa 3 20157, MILANO, MI","prices":[{"type":"petrol","price":1.779,"self":true,"updatedAt":"22/06/2026 13:09:53"},{"type":"diesel","price":1.929,"self":true,"updatedAt":"22/06/2026 13:09:53"}]},{"id":"57108","lat":45.5226835,"lon":9.1744284,"name":"Milano Via Vincenzo da Seregno","brand":"Retitalia","address":"via V. Da Seregno  2 20161, MILANO, MI","prices":[{"type":"petrol","price":1.819,"self":true,"updatedAt":"23/06/2026 00:24:14"},{"type":"diesel","price":1.949,"self":true,"updatedAt":"23/06/2026 00:24:14"}]},{"id":"62648","lat":45.516499,"lon":9.225471,"name":"milano viale monza","brand":"Retitalia","address":"MONZA 305 20126, MILANO, MI","prices":[{"type":"petrol","price":1.799,"self":true,"updatedAt":"22/06/2026 11:58:17"},{"type":"diesel","price":1.919,"self":true,"updatedAt":"22/06/2026 11:58:17"}]},{"id":"22494","lat":45.5144954436484,"lon":9.224946963134698,"name":"Milano Viale Monza","brand":"Api-Ip","address":"Viale Monza 285 20128, MILANO, MI","prices":[{"type":"petrol","price":1.799,"self":true,"updatedAt":"22/06/2026 13:10:38"},{"type":"diesel","price":1.899,"self":true,"updatedAt":"22/06/2026 13:10:38"}]},{"id":"11701","lat":45.50007519935568,"lon":9.130870144844039,"name":"MILANO-V.LE CERTOSA 228","brand":"Q8","address":"V.LE CERTOSA 228 20156, MILANO, MI","prices":[{"type":"petrol","price":1.799,"self":true,"updatedAt":"20/06/2026 08:12:31"},{"type":"diesel","price":1.899,"self":true,"updatedAt":"20/06/2026 08:12:31"}]},{"id":"11694","lat":45.50515304444358,"lon":9.10516619682312,"name":"MILANO-VIA GALLARATE 400","brand":"Q8","address":"VIA GALLARATE 400 20151, MILANO, MI","prices":[{"type":"petrol","price":1.768,"self":true,"updatedAt":"23/06/2026 01:38:46"},{"type":"diesel","price":1.878,"self":true,"updatedAt":"23/06/2026 01:38:46"}]},{"id":"11660","lat":45.51233157028877,"lon":9.174989271163895,"name":"MILANO-VIA PELLEGRINO ROSSI 60","brand":"Q8","address":"VIA PELLEGRINO ROSSI 60 20161, MILANO, MI","prices":[{"type":"petrol","price":1.829,"self":true,"updatedAt":"20/06/2026 08:12:23"},{"type":"diesel","price":1.939,"self":true,"updatedAt":"20/06/2026 08:12:23"}]},{"id":"24108","lat":45.515414405098035,"lon":9.17249386683261,"name":"Moro _ Distributore IP_ Milano","brand":"Api-Ip","address":"VIA PELLEGRINO ROSSI  93 20161, MILANO, MI","prices":[{"type":"petrol","price":1.819,"self":true,"updatedAt":"22/06/2026 23:50:25"},{"type":"diesel","price":1.919,"self":true,"updatedAt":"22/06/2026 16:32:13"}]},{"id":"18802","lat":45.50513991554254,"lon":9.10411467909853,"name":"OILONE","brand":"OIL ONE","address":"VIA GALLARATE 417 20151, MILANO, MI","prices":[{"type":"petrol","price":1.788,"self":true,"updatedAt":"22/06/2026 15:38:32"},{"type":"diesel","price":1.898,"self":true,"updatedAt":"22/06/2026 15:38:32"}]},{"id":"48002","lat":45.50224604966351,"lon":9.198785752149572,"name":"piazzale Istria","brand":"Esso","address":"PIAZZALE ISTRIA 14 20125, MILANO, MI","prices":[{"type":"petrol","price":1.889,"self":true,"updatedAt":"09/06/2026 09:33:46"},{"type":"diesel","price":1.989,"self":true,"updatedAt":"09/06/2026 08:18:34"}]},{"id":"29891","lat":45.50035452509578,"lon":9.139705586193259,"name":"POMPA BIANCA","brand":"Sommese Petroli","address":"piazzale santorre di santarosa 2 20156, MILANO, MI","prices":[{"type":"petrol","price":1.799,"self":true,"updatedAt":"20/06/2026 09:04:02"},{"type":"diesel","price":1.919,"self":true,"updatedAt":"20/06/2026 09:04:02"}]},{"id":"51445","lat":45.53091671775437,"lon":9.162883186898924,"name":"RUBICONE 31","brand":"Esso","address":"VIALE RUBICONE 31 20161, MILANO, MI","prices":[{"type":"petrol","price":1.799,"self":true,"updatedAt":"23/06/2026 05:35:10"},{"type":"diesel","price":1.899,"self":true,"updatedAt":"23/06/2026 05:35:10"}]},{"id":"23486","lat":45.500427559988715,"lon":9.235876947641373,"name":"TAMOIL","brand":"Tamoil","address":"VIA PADOVA 172 20127, MILANO, MI","prices":[{"type":"petrol","price":1.759,"self":true,"updatedAt":"22/06/2026 14:06:15"},{"type":"diesel","price":1.859,"self":true,"updatedAt":"22/06/2026 14:06:15"}]},{"id":"18859","lat":45.51816621244278,"lon":9.226599896958987,"name":"TECNISERVICE SNC","brand":"Api-Ip","address":"MONZA 0280 20128, MILANO, MI","prices":[{"type":"petrol","price":1.819,"self":true,"updatedAt":"22/06/2026 12:59:51"},{"type":"diesel","price":1.919,"self":true,"updatedAt":"22/06/2026 12:59:51"}]},{"id":"32264","lat":45.521042620331485,"lon":9.148189007409655,"name":"X3CNG ITALIA SRL - AMORETTI","brand":"Pompe Bianche","address":"VIA AMORETTI CARLO 93 20157, MILANO, MI","prices":[{"type":"methane","price":1.699,"self":true,"updatedAt":"22/06/2026 22:00:20"}]},{"id":"39752","lat":45.53384295647024,"lon":9.146490320563316,"name":"NOVATE MILANESE","brand":"Api-Ip","address":"VIA BRODOLINI 14 20026, NOVATE MILANESE, MI","prices":[{"type":"petrol","price":1.749,"self":true,"updatedAt":"22/06/2026 13:06:45"},{"type":"diesel","price":1.849,"self":true,"updatedAt":"22/06/2026 13:06:45"}]},{"id":"11675","lat":45.521260136836915,"lon":9.149742915344177,"name":"NOVATE MILANESE-VIA AMORETTI","brand":"Q8","address":"VIA AMORETTI S/N 20026, NOVATE MILANESE, MI","prices":[{"type":"petrol","price":1.759,"self":true,"updatedAt":"20/06/2026 08:12:34"},{"type":"diesel","price":1.859,"self":true,"updatedAt":"20/06/2026 08:12:34"}]},{"id":"6440","lat":45.5207109449471,"lon":9.150898711045102,"name":"NOVATE VIA BOVISASCA","brand":"Q8","address":"VIA BOVISASCA SNC 20026, NOVATE MILANESE, MI","prices":[{"type":"petrol","price":1.749,"self":true,"updatedAt":"20/06/2026 01:38:57"},{"type":"diesel","price":1.849,"self":true,"updatedAt":"20/06/2026 01:38:57"}]},{"id":"56886","lat":45.5271489,"lon":9.1348981,"name":"Stazione di servizio Agip","brand":"Agip Eni","address":"VIA VIALBA 34, 20026  20026, NOVATE MILANESE, MI","prices":[{"type":"petrol","price":1.825,"self":true,"updatedAt":"22/06/2026 23:17:34"},{"type":"diesel","price":1.914,"self":true,"updatedAt":"22/06/2026 23:17:34"}]},{"id":"30023","lat":45.53807566917228,"lon":9.130849689245224,"name":"Stazione di Servizio n° 1131 Q8 Outlet","brand":"Agip Eni","address":"VIA BOLLATE 68 20026, NOVATE MILANESE, MI","prices":[{"type":"petrol","price":1.769,"self":true,"updatedAt":"22/06/2026 19:10:49"},{"type":"diesel","price":1.889,"self":true,"updatedAt":"22/06/2026 19:10:49"}]},{"id":"54059","lat":45.575832961571116,"lon":9.14686913844121,"name":"105238 EGI-2GO PADERNO","brand":"Esso","address":"REALI 106 20037, PADERNO DUGNANO, MI","prices":[{"type":"petrol","price":1.799,"self":true,"updatedAt":"23/06/2026 05:58:57"},{"type":"diesel","price":1.919,"self":true,"updatedAt":"23/06/2026 05:58:57"}]},{"id":"58358","lat":45.583664,"lon":9.175366,"name":"2168","brand":"Tamoil","address":"SP44, PADERNO DUGNANO, MI","prices":[{"type":"petrol","price":1.789,"self":true,"updatedAt":"22/06/2026 13:40:34"},{"type":"diesel","price":1.899,"self":true,"updatedAt":"22/06/2026 13:40:34"}]},{"id":"39823","lat":45.56218994770809,"lon":9.154717186508151,"name":"AGIP DI VAGO STEFANO","brand":"Agip Eni","address":"VIA ROMA 171 20037, PADERNO DUGNANO, MI","prices":[{"type":"petrol","price":1.989,"self":true,"updatedAt":"22/06/2026 09:00:06"},{"type":"diesel","price":2.109,"self":true,"updatedAt":"22/06/2026 09:00:06"}]},{"id":"48742","lat":45.574291657480615,"lon":9.17677844662704,"name":"Carrefour Q8 Paderno","brand":"Q8","address":"S.S. 35 dei Giovi  20037, PADERNO DUGNANO, MI","prices":[{"type":"petrol","price":1.789,"self":true,"updatedAt":"22/06/2026 17:21:27"},{"type":"diesel","price":1.899,"self":true,"updatedAt":"22/06/2026 17:21:27"}]},