[{"id":"55432","lat":45.7094917,"lon":11.3621406,"name":"stazione di servizio FIORIN FANNY","brand":"Agip Eni","address":"Via Marinoni 130 30030, PIANIGA, VE","prices":[{"type":"petrol","price":1.844,"self":true,"updatedAt":"21/06/2026 00:23:37"},{"type":"diesel","price":1.969,"self":true,"updatedAt":"21/06/2026 00:23:37"},{"type":"methane","price":1.318,"self":false,"updatedAt":"21/06/2026 00:23:37"},{"type":"lpg","price":0.782,"self":false,"updatedAt":"21/06/2026 00:23:37"}]},{"id":"46939","lat":45.51349052585548,"lon":11.479957848787308,"name":"BENZA ALTAVILLA VICENTINA","brand":"Benza","address":"VIA VICENZA 30/D 36077, ALTAVILLA VICENTINA, VI","prices":[{"type":"petrol","price":1.799,"self":true,"updatedAt":"21/06/2026 00:19:10"},{"type":"diesel","price":1.899,"self":true,"updatedAt":"21/06/2026 00:19:10"}]},{"id":"46869","lat":45.51954359892238,"lon":11.476193989011904,"name":"Bianco Altavilla","brand":"Bianco Carburanti","address":"Via Olmo 59 36077, ALTAVILLA VICENTINA, VI","prices":[{"type":"petrol","price":1.779,"self":true,"updatedAt":"20/06/2026 09:28:43"},{"type":"diesel","price":1.869,"self":true,"updatedAt":"20/06/2026 09:28:43"},{"type":"methane","price":1.569,"self":false,"updatedAt":"20/06/2026 09:28:43"},{"type":"lpg","price":0.789,"self":false,"updatedAt":"20/06/2026 09:28:43"}]},{"id":"57963","lat":45.510094668129945,"lon":11.453427755002975,"name":"VEGA ALTAVILLA","brand":"Vega","address":"Via Lonigo  36077, ALTAVILLA VICENTINA, VI","prices":[{"type":"petrol","price":1.779,"self":true,"updatedAt":"20/06/2026 07:50:45"},{"type":"diesel","price":1.879,"self":true,"updatedAt":"19/06/2026 07:50:49"},{"type":"lpg","price":0.789,"self":false,"updatedAt":"18/06/2026 15:20:45"}]},{"id":"3841","lat":45.51195736853455,"lon":11.483319997787476,"name":"VILLA MOROSINI NORD","brand":"Agip Eni","address":"Autostrada A4 BRESCIA--PADOVA,  Km. 200.3, dir. Ovest -, ALTAVILLA VICENTINA, VI","prices":[{"type":"petrol","price":1.972,"self":true,"updatedAt":"21/06/2026 00:04:32"},{"type":"diesel","price":2.094,"self":true,"updatedAt":"21/06/2026 00:04:32"},{"type":"lpg","price":0.942,"self":false,"updatedAt":"21/06/2026 00:04:32"}]},{"id":"59326","lat":45.524803,"lon":11.364252,"name":"23967 ARZIGNANO","brand":"Agip Eni","address":"LOC. COSTO VIA TRISSINO  8, ARZIGNANO, VI","prices":[{"type":"petrol","price":1.809,"self":true,"updatedAt":"21/06/2026 00:46:33"},{"type":"diesel","price":1.919,"self":true,"updatedAt":"21/06/2026 00:46:33"},{"type":"lpg","price":0.797,"self":false,"updatedAt":"20/06/2026 23:55:02"}]},{"id":"62438","lat":45.513195,"lon":11.337217,"name":"55824 ARZIGNANO","brand":"Agip Eni","address":"VIA TIRO A SEGNO  50, ARZIGNANO, VI","prices":[{"type":"petrol","price":1.809,"self":true,"updatedAt":"21/06/2026 00:35:36"},{"type":"diesel","price":1.919,"self":true,"updatedAt":"21/06/2026 00:35:36"}]},{"id":"59367","lat":45.5149657,"lon":11.3390837,"name":"AF IMPIANTI di Fortuna Andrea","brand":"Esso","address":"Via dell'Industria 26  36071, ARZIGNANO, VI","prices":[{"type":"petrol","price":1.819,"self":true,"updatedAt":"19/06/2026 12:21:27"},{"type":"diesel","price":1.899,"self":true,"updatedAt":"19/06/2026 12:21:27"}]},{"id":"45465","lat":45.513407590760984,"lon":11.359487513491786,"name":"ARZIGNANO V.LE VICENZA N.60/B -STAZ.Q8","brand":"Q8","address":"V.LE VICENZA N.60/B -STAZ.Q8  36071, ARZIGNANO, VI","prices":[{"type":"petrol","price":1.809,"self":true,"updatedAt":"20/06/2026 08:14:03"},{"type":"diesel","price":1.929,"self":true,"updatedAt":"20/06/2026 08:14:03"}]},{"id":"55850","lat":45.5274,"lon":11.31739,"name":"Bernar Francesco","brand":"Agip Eni","address":"CHIAMPO 19 36071, ARZIGNANO, VI","prices":[{"type":"petrol","price":1.809,"self":true,"updatedAt":"21/06/2026 00:27:27"},{"type":"diesel","price":1.919,"self":true,"updatedAt":"21/06/2026 00:27:27"}]},{"id":"56566","lat":45.5943371,"lon":11.3647469,"name":"FRATELLI PERIN SAS DI PERIN TIBERIO & C.","brand":"Api-Ip","address":"GUGLIELMO MARCONI 27 36070, BROGLIANO, VI","prices":[{"type":"petrol","price":1.819,"self":true,"updatedAt":"18/06/2026 16:34:56"},{"type":"diesel","price":1.919,"self":true,"updatedAt":"18/06/2026 16:34:56"}]},{"id":"32604","lat":45.6325243,"lon":11.4910657,"name":"BOGONI ALFONSO & C. - SAS DI BOGONI CARLO & C. (CALDOGNO)","brand":"Bogoni","address":"Via Pontaron 83 36030, CALDOGNO, VI","prices":[{"type":"petrol","price":1.795,"self":true,"updatedAt":"19/06/2026 19:08:55"},{"type":"diesel","price":1.895,"self":true,"updatedAt":"19/06/2026 19:08:55"}]},{"id":"12522","lat":45.74474423088775,"lon":11.458943440475423,"name":"CORTESE SNC","brand":"Agip Eni","address":"VIA FONDOVILLA 63 36010, CARRE' (VI) 63 36010, CARRÈ, VI","prices":[{"type":"petrol","price":1.825,"self":true,"updatedAt":"21/06/2026 00:42:14"},{"type":"diesel","price":1.914,"self":true,"updatedAt":"21/06/2026 00:42:14"}]},{"id":"55649","lat":45.58494241651783,"lon":11.398745375118809,"name":"COSTANTIN - Facci Emilio SRL Castelgomberto","brand":"Costantin","address":"CHIUSE 44 36070, CASTELGOMBERTO, VI","prices":[{"type":"petrol","price":1.819,"self":true,"updatedAt":"21/06/2026 00:44:54"},{"type":"diesel","price":1.929,"self":true,"updatedAt":"21/06/2026 00:44:54"}]},{"id":"25628","lat":45.57102367075678,"lon":11.38412232275391,"name":"ENI","brand":"Agip Eni","address":"VIA PECORI GIRALDI 63, 36070 - -, CASTELGOMBERTO, VI","prices":[{"type":"petrol","price":1.829,"self":true,"updatedAt":"20/06/2026 08:28:09"},{"type":"diesel","price":1.929,"self":true,"updatedAt":"20/06/2026 08:28:09"},{"type":"methane","price":1.569,"self":false,"updatedAt":"20/06/2026 23:33:02"},{"type":"lpg","price":0.789,"self":false,"updatedAt":"20/06/2026 08:28:09"}]},{"id":"59213","lat":45.58032520963243,"lon":11.396934084472647,"name":"italiana petroli","brand":"Api-Ip","address":"PECORI GIRALDI 26 36070, CASTELGOMBERTO, VI","prices":[{"type":"petrol","price":1.819,"self":true,"updatedAt":"19/06/2026 19:19:31"},{"type":"diesel","price":1.919,"self":true,"updatedAt":"19/06/2026 19:19:31"}]},{"id":"39987","lat":45.535833625520226,"lon":11.297768270266715,"name":"BENZA CHIAMPO (VI)","brand":"Benza","address":"ARZIGNANO 30 36072, CHIAMPO, VI","prices":[{"type":"petrol","price":1.789,"self":true,"updatedAt":"21/06/2026 00:19:24"},{"type":"diesel","price":1.899,"self":true,"updatedAt":"21/06/2026 00:19:24"}]},{"id":"54911","lat":45.5489306,"lon":11.2776049,"name":"BUSSINELLO SRL","brand":"Esso","address":"Via T. Dal Molin 98  37030, CHIAMPO, VI","prices":[{"type":"petrol","price":1.789,"self":true,"updatedAt":"21/06/2026 00:13:27"},{"type":"diesel","price":1.899,"self":true,"updatedAt":"21/06/2026 00:13:27"}]},{"id":"24552","lat":45.53981257311986,"lon":11.290249253967318,"name":"LORO F.LLI SPA-CHIAMPO","brand":"Loro","address":"VIA PACE 11 36072, CHIAMPO, VI","prices":[{"type":"petrol","price":1.789,"self":true,"updatedAt":"21/06/2026 05:23:10"},{"type":"diesel","price":1.899,"self":true,"updatedAt":"21/06/2026 05:23:10"}]},{"id":"15874","lat":45.5632842285358,"lon":11.267264038324356,"name":"Pieropan Elisa","brand":"Pieropan Elisa","address":"VIA ARSO 46 36072, CHIAMPO, VI","prices":[{"type":"petrol","price":1.798,"self":true,"updatedAt":"19/06/2026 14:48:17"},{"type":"diesel","price":1.898,"self":true,"updatedAt":"19/06/2026 14:48:17"}]},{"id":"60467","lat":45.60341,"lon":11.354378,"name":"56032 CORNEDO VICENTINO","brand":"Agip Eni","address":"Via Monte Cengio 64  36073, CORNEDO VICENTINO, VI","prices":[{"type":"petrol","price":1.829,"self":true,"updatedAt":"21/06/2026 00:46:53"},{"type":"diesel","price":1.919,"self":true,"updatedAt":"21/06/2026 00:46:53"}]},{"id":"12600","lat":45.62317490235096,"lon":11.316844677246081,"name":"ENI di ZORZI RAFFAELLA","brand":"Agip Eni","address":"Via Monte Ortigara, 24 SPAGNAGO di CORNEDO VIC., CORNEDO VICENTINO, VI","prices":[{"type":"petrol","price":1.844,"self":true,"updatedAt":"21/06/2026 00:45:21"},{"type":"diesel","price":1.944,"self":true,"updatedAt":"21/06/2026 00:45:21"}]},{"id":"26606","lat":45.61686630930356,"lon":11.32714639683877,"name":"IP","brand":"Api-Ip","address":"MONTE CIMONE 9 36073, CORNEDO VICENTINO, VI","prices":[{"type":"petrol","price":1.839,"self":true,"updatedAt":"19/06/2026 10:02:43"},{"type":"diesel","price":1.939,"self":true,"updatedAt":"19/06/2026 10:02:44"},{"type":"lpg","price":0.849,"self":false,"updatedAt":"19/06/2026 10:02:44"}]},{"id":"7285","lat":45.6015928603193,"lon":11.4940483558197,"name":"COSTABISSARA - FRAZIONE MOTTA","brand":"Q8","address":"FZ. MOTTA SN 36030, COSTABISSARA, VI","prices":[{"type":"petrol","price":1.777,"self":true,"updatedAt":"20/06/2026 01:39:51"},{"type":"diesel","price":1.879,"self":true,"updatedAt":"20/06/2026 01:39:51"},{"type":"lpg","price":0.799,"self":false,"updatedAt":"20/06/2026 01:39:51"}]},{"id":"35203","lat":45.60537337153068,"lon":11.492526358273494,"name":"LORO F.LLI SPA - COSTABISSARA","brand":"Loro","address":"VIA C. BATTISTI 7 36030, COSTABISSARA, VI","prices":[{"type":"petrol","price":1.799,"self":true,"updatedAt":"19/06/2026 11:29:49"},{"type":"diesel","price":1.899,"self":true,"updatedAt":"19/06/2026 11:29:49"}]},{"id":"53580","lat":45.5824826,"lon":11.4821065,"name":"PERIN CARBURANTI","brand":"Pompe Bianche","address":"CAVOUR 20 36030, COSTABISSARA, VI","prices":[{"type":"petrol","price":1.779,"self":true,"updatedAt":"19/06/2026 19:25:46"},{"type":"diesel","price":1.869,"self":true,"updatedAt":"19/06/2026 19:25:46"}]},{"id":"19628","lat":45.527051888813574,"lon":11.495316412897523,"name":"bruno pegoraro","brand":"Pompe Bianche","address":"VIA OLMO 29 36051, CREAZZO, VI","prices":[{"type":"petrol","price":1.789,"self":false,"updatedAt":"20/06/2026 08:03:59"},{"type":"diesel","price":1.889,"self":false,"updatedAt":"20/06/2026 08:03:59"}]},{"id":"52076","lat":45.53026706551182,"lon":11.485072855589781,"name":"Pv 3929","brand":"Agip Eni","address":"VIALE ITALIA 180 36051, CREAZZO, VI","prices":[{"type":"petrol","price":1.789,"self":true,"updatedAt":"20/06/2026 23:51:23"},{"type":"diesel","price":1.864,"self":true,"updatedAt":"20/06/2026 23:51:23"}]},{"id":"57962","lat":45.52446650154586,"lon":11.455219835042953,"name":"VEGA CREAZZO","brand":"Vega","address":"VIA DELL'INDUSTRIA  36051, CREAZZO, VI","prices":[{"type":"petrol","price":1.779,"self":true,"updatedAt":"20/06/2026 08:00:45"},{"type":"diesel","price":1.859,"self":true,"updatedAt":"20/06/2026 08:00:45"},{"type":"lpg","price":0.789,"self":false,"updatedAt":"18/06/2026 11:50:45"}]},{"id":"53832","lat":45.6170504,"lon":11.4642079,"name":"4716","brand":"Tamoil","address":"VICENZA 11 36033, ISOLA VICENTINA, VI","prices":[{"type":"petrol","price":1.819,"self":true,"updatedAt":"21/06/2026 00:15:19"},{"type":"diesel","price":1.919,"self":true,"updatedAt":"21/06/2026 00:15:19"}]},{"id":"60649","lat":45.66426,"lon":11.39806,"name":"BUSSINELLO SRL MALO","brand":"Retitalia","address":"TRENTO 45 36034, MALO, VI","prices":[{"type":"petrol","price":1.799,"self":true,"updatedAt":"20/06/2026 23:28:59"},{"type":"diesel","price":1.889,"self":true,"updatedAt":"20/06/2026 23:28:59"}]},{"id":"4067","lat":45.671324479860054,"lon":11.405417919158936,"name":"COSTANTIN MALO","brand":"Costantin","address":"VIA SCHIO 48 36034, MALO, VI","prices":[{"type":"petrol","price":1.795,"self":true,"updatedAt":"19/06/2026 18:56:55"},{"type":"diesel","price":1.875,"self":true,"updatedAt":"19/06/2026 18:56:55"}]},{"id":"62083","lat":45.6652835325987,"lon":11.407180215938562,"name":"ENI PV 23918","brand":"Agip Eni","address":"PASUBIO 4 SS46 36034, MALO, VI","prices":[{"type":"petrol","price":1.85,"self":true,"updatedAt":"20/06/2026 12:42:41"},{"type":"diesel","price":1.949,"self":true,"updatedAt":"20/06/2026 12:42:41"}]},{"id":"4489","lat":45.6811342271649,"lon":11.40056848526001,"name":"NOALOIL PV6","brand":"Noaloil","address":"Statale 46 del Pasubio, Km. 20, dir. schio - 36034, MALO, VI","prices":[{"type":"petrol","price":1.799,"self":true,"updatedAt":"19/06/2026 09:01:27"},{"type":"diesel","price":1.879,"self":true,"updatedAt":"19/06/2026 09:01:27"}]},{"id":"9157","lat":45.65069300283764,"lon":11.421355796958892,"name":"STECCA S.N.C. DI STECCA SERGIO & C.","brand":"Q8","address":"VIA LEONARDO DA VINCI 33 36034, MALO, VI","prices":[{"type":"petrol","price":1.829,"self":true,"updatedAt":"20/06/2026 13:03:37"},{"type":"diesel","price":1.929,"self":true,"updatedAt":"20/06/2026 13:03:37"},{"type":"lpg","price":0.829,"self":false,"updatedAt":"20/06/2026 13:03:37"}]},{"id":"58186","lat":45.695213,"lon":11.446152,"name":"23953  MARANO VICENTINO","brand":"Agip Eni","address":"VIALE EUROPA  4, MARANO VICENTINO, VI","prices":[{"type":"petrol","price":1.829,"self":true,"updatedAt":"21/06/2026 00:46:12"},{"type":"diesel","price":1.919,"self":true,"updatedAt":"21/06/2026 00:46:12"}]},{"id":"61548","lat":45.68007,"lon":11.4541,"name":"A.F. PETROLI MARANO VICENTINO","brand":"AF Petroli","address":"Via Antonio Volpato 98 36035, MARANO VICENTINO, VI","prices":[{"type":"petrol","price":1.795,"self":true,"updatedAt":"18/06/2026 17:36:40"},{"type":"diesel","price":1.875,"self":true,"updatedAt":"18/06/2026 17:36:40"},{"type":"methane","price":1.699,"self":false,"updatedAt":"18/06/2026 17:36:40"},{"type":"lpg","price":0.699,"self":false,"updatedAt":"18/06/2026 17:36:40"}]},{"id":"11146","lat":45.69199810346484,"lon":11.426649623348226,"name":"BC","brand":"BC","address":"VIA MONTE PASUBIO 3 36035, MARANO VICENTINO, VI","prices":[{"type":"petrol","price":1.845,"self":true,"updatedAt":"18/06/2026 08:27:04"},{"type":"diesel","price":1.845,"self":true,"updatedAt":"18/06/2026 08:27:04"}]},{"id":"23954","lat":45.64798050705363,"lon":11.385445355819684,"name":"martini federico","brand":"Agip Eni","address":"CALCARA BORO 18 36030, MONTE DI MALO, VI","prices":[{"type":"petrol","price":1.849,"self":true,"updatedAt":"20/06/2026 08:22:09"},{"type":"diesel","price":1.949,"self":true,"updatedAt":"20/06/2026 08:22:09"}]},{"id":"30314","lat":45.509679637070874,"lon":11.396526450540136,"name":"BENZA MONTECCHIO MAGGIORE","brand":"Benza","address":"VIA BIVIO SAN VITALE 2 36075, MONTECCHIO MAGGIORE, VI","prices":[{"type":"petrol","price":1.799,"self":true,"updatedAt":"21/06/2026 00:18:58"},{"type":"diesel","price":1.899,"self":true,"updatedAt":"21/06/2026 00:18:58"}]},{"id":"58387","lat":45.510408992175286,"lon":11.43367014363862,"name":"beyfin  montecchio maggiore","brand":"Beyfin","address":"Via Vittorio Lombardi 40  36075, MONTECCHIO MAGGIORE, VI","prices":[{"type":"petrol","price":1.809,"self":true,"updatedAt":"19/06/2026 11:50:26"},{"type":"diesel","price":1.889,"self":true,"updatedAt":"19/06/2026 11:50:26"}]},{"id":"46870","lat":45.51019069300748,"lon":11.382870944092701,"name":"Bianco Montecchio","brand":"Bianco Carburanti","address":"via Molinetto 32  36075, MONTECCHIO MAGGIORE, VI","prices":[{"type":"petrol","price":1.779,"self":true,"updatedAt":"20/06/2026 09:29:38"},{"type":"diesel","price":1.869,"self":true,"updatedAt":"20/06/2026 09:29:38"}]},{"id":"30384","lat":45.510145131248116,"lon":11.392306315869178,"name":"CUCAGAS MONTECCHIO","brand":"Cucagas","address":"VIA MOLINETTO S.P. ARZIGNANESE  13 36075, MONTECCHIO MAGGIORE, VI","prices":[{"type":"petrol","price":1.779,"self":true,"updatedAt":"19/06/2026 16:02:54"},{"type":"diesel","price":1.869,"self":true,"updatedAt":"19/06/2026 16:02:54"},{"type":"methane","price":1.569,"self":false,"updatedAt":"19/06/2026 16:02:54"},{"type":"lpg","price":0.789,"self":false,"updatedAt":"19/06/2026 16:02:54"}]},{"id":"5663","lat":45.50476139386472,"lon":11.440124640985895,"name":"LORO F.LLI SPA - ALTE","brand":"Loro","address":"VIA TRIESTE  36075, MONTECCHIO MAGGIORE, VI","prices":[{"type":"petrol","price":1.799,"self":true,"updatedAt":"19/06/2026 08:17:49"},{"type":"diesel","price":1.899,"self":true,"updatedAt":"19/06/2026 08:17:49"}]},{"id":"57964","lat":45.5485017496392,"lon":11.496893987059593,"name":"VEGA MONTEVIALE","brand":"Vega","address":"Viale Zileri  36050, MONTEVIALE, VI","prices":[{"type":"petrol","price":1.759,"self":true,"updatedAt":"20/06/2026 07:40:46"},{"type":"diesel","price":1.859,"self":true,"updatedAt":"20/06/2026 07:40:46"},{"type":"lpg","price":0.789,"self":false,"updatedAt":"18/06/2026 12:40:46"}]},{"id":"58032","lat":45.584602508140605,"lon":11.256749614411762,"name":"LORO F.LLI SPA - SAN PIETRO MUSSOLINO","brand":"Loro","address":"RISORGIMENTO 40 36070, SAN PIETRO MUSSOLINO, VI","prices":[{"type":"petrol","price":1.779,"self":true,"updatedAt":"19/06/2026 15:46:51"},{"type":"diesel","price":1.889,"self":true,"updatedAt":"19/06/2026 15:46:51"}]},{"id":"58240","lat":45.688194,"lon":11.377462,"name":"23964  SAN VITO DI LEGUZZANO","brand":"Agip Eni","address":"VIA MARTIRI DELLA LIBERTA'  43, SAN VITO DI LEGUZZANO, VI","prices":[{"type":"petrol","price":1.829,"self":true,"updatedAt":"21/06/2026 01:03:24"},{"type":"diesel","price":1.919,"self":true,"updatedAt":"21/06/2026 01:03:23"},{"type":"methane","price":1.418,"self":false,"updatedAt":"20/06/2026 23:17:44"},{"type":"lpg","price":0.807,"self":false,"updatedAt":"20/06/2026 23:17:44"}]},{"id":"49675","lat":45.694177349652534,"lon":11.387637158469962,"name":"ECOFUEL","brand":"Eco Fuel","address":"VIA VICENZA 59 36030, SAN VITO DI LEGUZZANO, VI","prices":[{"type":"petrol","price":1.859,"self":true,"updatedAt":"19/06/2026 12:10:02"},{"type":"diesel","price":1.949,"self":true,"updatedAt":"19/06/2026 12:10:02"},{"type":"lpg","price":0.779,"self":false,"updatedAt":"19/06/2026 12:10:02"}]},{"id":"60560","lat":45.7369653,"lon":11.385703,"name":"6265","brand":"Tamoil","address":"Via Marzari  36014, SANTORSO, VI","prices":[{"type":"petrol","price":1.829,"self":true,"updatedAt":"21/06/2026 00:28:11"},{"type":"diesel","price":1.889,"self":true,"updatedAt":"21/06/2026 00:28:11"}]},{"id":"62931","lat":45.731500262432455,"lon":11.384798233304613,"name":"GNP SANTORSO","brand":"GNP","address":"IV NOVEMBRE 58 36014, SANTORSO, VI","prices":[{"type":"petrol","price":1.797,"self":true,"updatedAt":"21/06/2026 01:00:58"},{"type":"diesel","price":1.897,"self":true,"updatedAt":"21/06/2026 01:00:58"},{"type":"lpg","price":0.785,"self":false,"updatedAt":"21/06/2026 00:24:02"}]},{"id":"48345","lat":45.74230997502372,"lon":11.416421635581976,"name":"LGS DISTRIBUTION SNC","brand":"Beyfin","address":"Via Martiri della Libertà 43 36014, SANTORSO, VI","prices":[{"type":"petrol","price":1.829,"self":true,"updatedAt":"19/06/2026 07:15:53"},{"type":"diesel","price":1.909,"self":true,"updatedAt":"19/06/2026 07:15:53"},{"type":"methane","price":1.599,"self":false,"updatedAt":"19/06/2026 07:15:53"},{"type":"lpg","price":0.799,"self":false,"updatedAt":"19/06/2026 07:15:53"}]},{"id":"34731","lat":45.705061002673496,"lon":11.372433453798294,"name":"8288","brand":"Tamoil","address":"VICENZA 82 36015, SCHIO, VI","prices":[{"type":"petrol","price":1.839,"self":true,"updatedAt":"20/06/2026 23:16:50"},{"type":"diesel","price":1.919,"self":true,"updatedAt":"20/06/2026 23:16:50"}]},{"id":"29632","lat":45.72390338637874,"lon":11.416640281677246,"name":"BC SCHIO","brand":"BC","address":"VIA DELL'INDUSTRIA 251 36015, SCHIO, VI","prices":[{"type":"petrol","price":1.837,"self":true,"updatedAt":"19/06/2026 16:08:14"},{"type":"diesel","price":1.939,"self":true,"updatedAt":"19/06/2026 16:08:14"},{"type":"methane","price":1.599,"self":false,"updatedAt":"19/06/2026 09:21:05"},{"type":"lpg","price":0.799,"self":false,"updatedAt":"19/06/2026 09:21:05"}]},{"id":"50829","lat":45.70467218841831,"lon":11.400852203369135,"name":"BEYFIN SCHIO","brand":"Beyfin","address":"VIA VIA S.P.  N. 122- KM 5+800 -- 36015, SCHIO (VI) 135 36015, SCHIO, VI","prices":[{"type":"petrol","price":1.829,"self":true,"updatedAt":"21/06/2026 00:43:59"},{"type":"diesel","price":1.909,"self":true,"updatedAt":"21/06/2026 00:43:59"},{"type":"lpg","price":0.799,"self":false,"updatedAt":"21/06/2026 00:43:59"}]},{"id":"45892","lat":45.69426475222619,"lon":11.388540330210162,"name":"ECO FUEL","brand":"Pompe Bianche","address":"VIA PASUBIO -  LOC.PONTE D'ORO 46 36015, SCHIO, VI","prices":[{"type":"petrol","price":1.859,"self":true,"updatedAt":"19/06/2026 12:09:40"},{"type":"diesel","price":1.949,"self":true,"updatedAt":"19/06/2026 12:09:40"},{"type":"methane","price":1.419,"self":false,"updatedAt":"19/06/2026 12:09:40"},{"type":"lpg","price":0.779,"self":false,"updatedAt":"19/06/2026 12:09:40"}]},{"id":"51129","lat":45.71007667387028,"lon":11.371371400003305,"name":"ENI 3926 DI LGS DISTRIBUTION SNC","brand":"Agip Eni","address":"VIA PARAISO 50 36015, SCHIO, VI","prices":[{"type":"petrol","price":1.784,"self":true,"updatedAt":"21/06/2026 00:20:10"},{"type":"diesel","price":1.859,"self":true,"updatedAt":"21/06/2026 00:20:10"}]},{"id":"20690","lat":45.71480647147049,"lon":11.345557876844168,"name":"ENI ROSSETTO","brand":"Agip Eni","address":"P.MARASCHIN,50 50 36015, SCHIO, VI","prices":[{"type":"petrol","price":1.849,"self":true,"updatedAt":"21/06/2026 01:04:22"},{"type":"diesel","price":1.949,"self":true,"updatedAt":"21/06/2026 01:04:22"}]},{"id":"62118","lat":45.7069,"lon":11.35347,"name":"Kingo - Facci Emilio S.r.l.","brand":"KINGO CARBURANTI","address":"PIO X 44 36015, SCHIO, VI","prices":[{"type":"petrol","price":1.839,"self":true,"updatedAt":"21/06/2026 00:16:38"},{"type":"diesel","price":1.919,"self":true,"updatedAt":"21/06/2026 00:16:38"}]},{"id":"16344","lat":45.717627448774344,"lon":11.39199519416502,"name":"MANTESE MORENO LUIGI","brand":"Agip Eni","address":"VIALE DELL'INDUSTRIA 140 36015, SCHIO, VI","prices":[{"type":"petrol","price":1.874,"self":true,"updatedAt":"21/06/2026 00:43:36"},{"type":"diesel","price":1.984,"self":true,"updatedAt":"21/06/2026 00:43:36"},{"type":"methane","price":1.463,"self":false,"updatedAt":"20/06/2026 23:39:54"}]},{"id":"10083","lat":45.71130196117102,"lon":11.373284531740296,"name":"SCHIO","brand":"Api-Ip","address":"Viale dell'Industria  36015, SCHIO, VI","prices":[{"type":"petrol","price":1.839,"self":true,"updatedAt":"20/06/2026 09:14:35"},{"type":"diesel","price":1.919,"self":true,"updatedAt":"20/06/2026 09:14:35"}]},{"id":"6511","lat":45.71580785628785,"lon":11.341600164067586,"name":"SCHIO VIA ROVERETO 140","brand":"Q8","address":"VIA ROVERETO 140 36015, SCHIO, VI","prices":[{"type":"petrol","price":1.849,"self":true,"updatedAt":"19/06/2026 01:40:52"},{"type":"diesel","price":1.949,"self":true,"updatedAt":"19/06/2026 01:40:52"}]},{"id":"13368","lat":45.52939797402042,"lon":11.450578272342682,"name":"COSTANTIN","brand":"Costantin","address":"VIA ROMA 8 36050, SOVIZZO, VI","prices":[{"type":"petrol","price":1.839,"self":true,"updatedAt":"17/06/2026 07:56:01"},{"type":"diesel","price":1.999,"self":true,"updatedAt":"17/06/2026 07:56:01"},{"type":"lpg","price":0.799,"self":false,"updatedAt":"17/06/2026 07:56:01"}]},{"id":"16931","lat":45.529038597463284,"lon":11.446493644180237,"name":"Energy Station","brand":"Energy Station","address":"VIA GUGLIELMO MARCONI 12 36049, SOVIZZO, VI","prices":[{"type":"petrol","price":1.729,"self":true,"updatedAt":"19/06/2026 09:56:51"},{"type":"diesel","price":1.849,"self":true,"updatedAt":"19/06/2026 09:56:51"}]},{"id":"24903","lat":45.51298662034807,"lon":11.45374059677124,"name":"PV 13983","brand":"Agip Eni","address":"VIA CORDELLINA 6, 36050 - -, SOVIZZO, VI","prices":[{"type":"petrol","price":1.789,"self":true,"updatedAt":"20/06/2026 23:53:52"},{"type":"diesel","price":1.854,"self":true,"updatedAt":"20/06/2026 23:53:52"}]},{"id":"59730","lat":45.69588,"lon":11.483205,"name":"3965 THIENE","brand":"Agip Eni","address":"VIA MARCONI  123/A, THIENE, VI","prices":[{"type":"petrol","price":1.829,"self":true,"updatedAt":"21/06/2026 00:48:05"},{"type":"diesel","price":1.919,"self":true,"updatedAt":"21/06/2026 00:48:05"}]},{"id":"53204","lat":45.681619,"lon":11.4852449,"name":"6990","brand":"Tamoil","address":"CA' BEREGANE 12 36016, THIENE, VI","prices":[{"type":"petrol","price":1.789,"self":true,"updatedAt":"20/06/2026 23:38:55"},{"type":"diesel","price":1.869,"self":true,"updatedAt":"20/06/2026 23:38:54"}]},{"id":"39144","lat":45.68994028207477,"lon":11.46874166928103,"name":"bc thiene","brand":"BC","address":"via dell autosdrada 11/13 36016, THIENE, VI","prices":[{"type":"petrol","price":1.837,"self":true,"updatedAt":"19/06/2026 16:15:06"},{"type":"diesel","price":1.939,"self":true,"updatedAt":"20/06/2026 10:51:05"},{"type":"lpg","price":0.698,"self":false,"updatedAt":"18/06/2026 18:09:05"}]},{"id":"46105","lat":45.7090180202388,"lon":11.489540628636746,"name":"BC THIENE 2","brand":"BC","address":"VIALE EUROPA 32 36016, THIENE, VI","prices":[{"type":"petrol","price":1.797,"self":true,"updatedAt":"19/06/2026 11:48:07"},{"type":"diesel","price":1.899,"self":true,"updatedAt":"19/06/2026 11:48:07"}]},{"id":"43531","lat":45.69727765903291,"lon":11.481399536132812,"name":"BENZA THIENE","brand":"Benza","address":"via G. Marconi 66 36016, THIENE, VI","prices":[{"type":"petrol","price":1.797,"self":true,"updatedAt":"21/06/2026 00:18:33"},{"type":"diesel","price":1.899,"self":true,"updatedAt":"21/06/2026 00:18:33"}]},{"id":"41146","lat":45.71597794168131,"lon":11.471289134987614,"name":"Eni Metano","brand":"Agip Eni","address":"VIA DEL COSTO 132 36016, THIENE, VI","prices":[{"type":"petrol","price":1.849,"self":true,"updatedAt":"21/06/2026 01:02:53"},{"type":"diesel","price":1.949,"self":true,"updatedAt":"21/06/2026 01:02:53"},{"type":"methane","price":1.599,"self":false,"updatedAt":"20/06/2026 23:33:19"},{"type":"lpg","price":0.799,"self":false,"updatedAt":"20/06/2026 23:33:19"}]},{"id":"33945","lat":45.70049063360411,"lon":11.468254402446746,"name":"THIENE - CAPPUCCINI 1","brand":"Api-Ip","address":"VIA CAPPUCCINI 1 36016, THIENE, VI","prices":[{"type":"petrol","price":1.799,"self":true,"updatedAt":"20/06/2026 09:09:39"},{"type":"diesel","price":1.889,"self":true,"updatedAt":"20/06/2026 09:09:39"}]},{"id":"8770","lat":45.694423954206925,"lon":11.463338664417961,"name":"THIENE VIA DELL'AUTOSTRADA","brand":"Q8","address":"VIA DELL'AUTOSTRADA  36016, THIENE, VI","prices":[{"type":"petrol","price":1.837,"self":true,"updatedAt":"20/06/2026 01:39:52"},{"type":"diesel","price":1.949,"self":true,"updatedAt":"20/06/2026 01:39:52"}]},{"id":"11954","lat":45.69337494075931,"lon":11.479456677246162,"name":"THIENE-VIA GOMBE SNC","brand":"Q8","address":"VIA GOMBE SNC 36016, THIENE, VI","prices":[{"type":"petrol","price":1.798,"self":true,"updatedAt":"19/06/2026 01:40:56"},{"type":"diesel","price":1.889,"self":true,"updatedAt":"19/06/2026 01:40:56"}]},{"id":"14156","lat":45.71733657899927,"lon":11.324177618200565,"name":"ENI TORREBELVICINO","brand":"Agip Eni","address":"VIA GALILEO GALILEI 98 36036, TORREBELVICINO, VI","prices":[{"type":"petrol","price":1.849,"self":true,"updatedAt":"21/06/2026 00:35:16"},{"type":"diesel","price":1.949,"self":true,"updatedAt":"21/06/2026 00:35:16"}]},{"id":"51346","lat":45.55479978712534,"lon":11.37890239964209,"name":"AD SNC DI NICOLETTI & C","brand":"Esso","address":"VIALE DELL'INDUSTRIA 42 36070, TRISSINO, VI","prices":[{"type":"petrol","price":1.829,"self":true,"updatedAt":"20/06/2026 23:42:46"},{"type":"diesel","price":1.899,"self":true,"updatedAt":"20/06/2026 23:42:46"}]},{"id":"7440","lat":45.64119011838926,"lon":11.303893977589837,"name":"ENI VALDAGNO","brand":"Agip Eni","address":"VIA SETTE MARTIRI 2 36078, VALDAGNO, VI","prices":[{"type":"petrol","price":1.844,"self":true,"updatedAt":"21/06/2026 00:19:16"},{"type":"diesel","price":1.944,"self":true,"updatedAt":"21/06/2026 00:19:16"}]},{"id":"25163","lat":45.62756953493453,"lon":11.306942397108173,"name":"VALDAGNO GASDOTTO","brand":"Q8","address":"VIA GASDOTTO  36078, VALDAGNO, VI","prices":[{"type":"petrol","price":1.814,"self":true,"updatedAt":"20/06/2026 01:39:50"},{"type":"diesel","price":1.924,"self":true,"updatedAt":"20/06/2026 01:39:50"}]},{"id":"11122","lat":45.63542321402894,"lon":11.306841373443604,"name":"valdagnocarburanti","brand":"Esso","address":"via settemartiri 125 36078, VALDAGNO, VI","prices":[{"type":"petrol","price":1.849,"self":true,"updatedAt":"19/06/2026 18:42:00"},{"type":"diesel","price":1.949,"self":true,"updatedAt":"19/06/2026 18:42:00"}]},{"id":"42365","lat":45.73992338680016,"lon":11.262653260465981,"name":"Costantin/Facci Emilio srl Valli","brand":"Costantin","address":"VIA BRANDELERO 48/C 36030, VALLI DEL PASUBIO, VI","prices":[{"type":"petrol","price":1.839,"self":true,"updatedAt":"20/06/2026 08:54:09"},{"type":"diesel","price":1.949,"self":true,"updatedAt":"20/06/2026 08:54:09"}]},{"id":"28258","lat":45.7409244815862,"lon":11.260059721050766,"name":"PETROLSBERZE","brand":"Pompe Bianche","address":"VIA ROMA 22 36030, VALLI DEL PASUBIO, VI","prices":[{"type":"petrol","price":1.829,"self":false,"updatedAt":"20/06/2026 15:26:22"},{"type":"diesel","price":1.939,"self":false,"updatedAt":"20/06/2026 15:26:22"}]},{"id":"30333","lat":45.63896509227841,"lon":11.492186710238457,"name":"eni","brand":"Agip Eni","address":"Via Roma 87 36030, VILLAVERLA, VI","prices":[{"type":"petrol","price":1.849,"self":true,"updatedAt":"21/06/2026 00:48:16"},{"type":"diesel","price":1.949,"self":true,"updatedAt":"21/06/2026 00:48:16"},{"type":"lpg","price":0.799,"self":false,"updatedAt":"20/06/2026 23:24:25"}]},{"id":"55734","lat":45.72367159505651,"lon":11.450492574748642,"name":"BOGONI ALFONSO & C. - S.A.S. DI BOGONI CARLO & C. (ZANE')","brand":"Bogoni","address":"VIA PALLADIO 35 36010, ZANÈ, VI","prices":[{"type":"petrol","price":1.795,"self":true,"updatedAt":"19/06/2026 19:09:56"},{"type":"diesel","price":1.895,"self":true,"updatedAt":"19/06/2026 19:09:56"},{"type":"lpg","price":0.785,"self":false,"updatedAt":"19/06/2026 19:09:56"}]},{"id":"38857","lat":45.72947056460799,"lon":11.465564928759022,"name":"BC ZANE'","brand":"BC","address":"VIA DEL COSTO SP 116 SNC 36010, ZANÈ, VI","prices":[{"type":"petrol","price":1.779,"self":true,"updatedAt":"20/06/2026 08:39:06"},{"type":"diesel","price":1.868,"self":true,"updatedAt":"20/06/2026 08:39:06"},{"type":"lpg","price":0.799,"self":false,"updatedAt":"17/06/2026 10:36:06"}]},{"id":"56808","lat":45.7199748,"lon":11.4450538,"name":"Benza Zanè","brand":"Benza","address":"Via Monte Pasubio 75 36010, ZANÈ, VI","prices":[{"type":"petrol","price":1.797,"self":true,"updatedAt":"20/06/2026 23:15:52"},{"type":"diesel","price":1.899,"self":true,"updatedAt":"20/06/2026 23:15:52"}]},{"id":"5554","lat":45.72304147028821,"lon":11.432711830688504,"name":"ZANE'","brand":"Api-Ip","address":"Via Monte Pasubio 166 36100, ZANÈ, VI","prices":[{"type":"petrol","price":1.819,"self":true,"updatedAt":"20/06/2026 09:16:18"},{"type":"diesel","price":1.919,"self":true,"updatedAt":"20/06/2026 09:16:18"}]},{"id":"53073","lat":45.721589,"lon":11.491602,"name":"6992","brand":"Tamoil","address":"S. ANASTASIA 5 36030, ZUGLIANO, VI","prices":[{"type":"petrol","price":1.819,"self":true,"updatedAt":"20/06/2026 23:39:14"},{"type":"diesel","price":1.899,"self":true,"updatedAt":"20/06/2026 23:39:14"}]}]