[{"id":"25446","lat":45.509800878379934,"lon":10.396779924631119,"name":"BEDIZZOLE VIA BRESCIA 3","brand":"Q8","address":"VIA BRESCIA 3 25080, BEDIZZOLE, BS","prices":[{"type":"petrol","price":1.769,"self":true,"updatedAt":"01/07/2026 01:40:16"},{"type":"diesel","price":1.819,"self":true,"updatedAt":"01/07/2026 01:40:16"}]},{"id":"38381","lat":45.5013168,"lon":10.4519536,"name":"ESSO","brand":"Esso","address":"Via Caselle 32 25081, BEDIZZOLE, BS","prices":[{"type":"petrol","price":1.829,"self":true,"updatedAt":"30/06/2026 12:03:59"},{"type":"diesel","price":1.919,"self":true,"updatedAt":"30/06/2026 12:03:59"}]},{"id":"8064","lat":45.511692346305196,"lon":10.40475681424141,"name":"PASQUATO FAUSTINO","brand":"Agip Eni","address":"VIA G.GARIBALDI 17/B 25081, BEDIZZOLE, BS","prices":[{"type":"petrol","price":1.825,"self":true,"updatedAt":"29/06/2026 11:49:50"},{"type":"diesel","price":1.884,"self":true,"updatedAt":"29/06/2026 11:49:50"}]},{"id":"28972","lat":45.50800471990399,"lon":10.435564347221316,"name":"Sia Fuel Bedizzole","brand":"Sia fuel","address":"VIA BENACO 2 25081, BEDIZZOLE, BS","prices":[{"type":"petrol","price":1.805,"self":true,"updatedAt":"30/06/2026 17:06:12"},{"type":"diesel","price":1.899,"self":true,"updatedAt":"30/06/2026 17:06:12"}]},{"id":"39758","lat":45.531552397909294,"lon":10.295958369970322,"name":"BOTTICINO - CAVOUR","brand":"Api-Ip","address":"VIA CAVOUR 141 25080, BOTTICINO, BS","prices":[{"type":"petrol","price":1.689,"self":true,"updatedAt":"30/06/2026 09:04:02"},{"type":"diesel","price":1.799,"self":true,"updatedAt":"30/06/2026 19:01:31"}]},{"id":"37502","lat":45.5257875411437,"lon":10.305080562829971,"name":"PV 55973","brand":"Agip Eni","address":"VIA GARIBALDI 18 25080, BOTTICINO, BS","prices":[{"type":"petrol","price":1.809,"self":true,"updatedAt":"30/06/2026 23:33:10"},{"type":"diesel","price":1.884,"self":true,"updatedAt":"30/06/2026 07:04:24"}]},{"id":"55435","lat":45.5859942,"lon":10.2511547,"name":"STAZIONE DI SERVIZIO RETITALIA DI ADONI GIULIANO","brand":"Retitalia","address":"VIA G. VERDI 15 25073, BOVEZZO, BS","prices":[{"type":"petrol","price":1.829,"self":true,"updatedAt":"30/06/2026 12:32:57"},{"type":"diesel","price":1.919,"self":true,"updatedAt":"30/06/2026 12:32:57"}]},{"id":"59522","lat":45.5245824,"lon":10.2760448,"name":"1774","brand":"Q8","address":"SANT'EUFEMIA 52/B 25135, BRESCIA, BS","prices":[{"type":"petrol","price":1.769,"self":true,"updatedAt":"26/06/2026 16:45:06"},{"type":"diesel","price":1.849,"self":true,"updatedAt":"30/06/2026 18:15:05"}]},{"id":"63225","lat":45.5203719,"lon":10.2737365,"name":"1774","brand":"Q8","address":"Viale Sant'Eufemia 52  25135, BRESCIA, BS","prices":[{"type":"petrol","price":1.769,"self":true,"updatedAt":"30/06/2026 20:16:11"},{"type":"diesel","price":1.849,"self":true,"updatedAt":"30/06/2026 18:15:16"}]},{"id":"38321","lat":45.52985145139713,"lon":10.252656223278791,"name":"B & O","brand":"Esso","address":"VIALE DELLA BORNATA 18 25123, BRESCIA, BS","prices":[{"type":"petrol","price":1.799,"self":true,"updatedAt":"30/06/2026 07:45:05"},{"type":"diesel","price":1.889,"self":true,"updatedAt":"30/06/2026 07:45:05"}]},{"id":"56791","lat":45.5276349,"lon":10.2595778,"name":"ENI STATION","brand":"Agip Eni","address":"Viale della Bornata 30, BRESCIA, BS","prices":[{"type":"petrol","price":1.804,"self":true,"updatedAt":"30/06/2026 00:08:56"},{"type":"diesel","price":1.884,"self":true,"updatedAt":"30/06/2026 00:08:56"}]},{"id":"62288","lat":45.5051316,"lon":10.2755275,"name":"Esso","brand":"Esso","address":"Via Serenissima 19  25135, BRESCIA, BS","prices":[{"type":"petrol","price":1.769,"self":true,"updatedAt":"30/06/2026 15:04:16"},{"type":"diesel","price":1.849,"self":true,"updatedAt":"30/06/2026 15:04:16"},{"type":"methane","price":1.499,"self":false,"updatedAt":"30/06/2026 23:25:42"},{"type":"lpg","price":0.659,"self":false,"updatedAt":"30/06/2026 09:10:11"}]},{"id":"41090","lat":45.52756881708899,"lon":10.293906807918006,"name":"IP BRESCIA","brand":"Api-Ip","address":"via Carlo Goldoni 71 25135, BRESCIA, BS","prices":[{"type":"petrol","price":1.699,"self":true,"updatedAt":"30/06/2026 19:11:46"},{"type":"diesel","price":1.809,"self":true,"updatedAt":"30/06/2026 19:11:46"}]},{"id":"61544","lat":45.50902614074304,"lon":10.27651727199553,"name":"Retitalia","brand":"Retitalia","address":"Via Serenissima  25135, BRESCIA, BS","prices":[{"type":"petrol","price":1.799,"self":true,"updatedAt":"30/06/2026 18:50:10"},{"type":"diesel","price":1.899,"self":true,"updatedAt":"30/06/2026 18:50:10"},{"type":"lpg","price":0.649,"self":false,"updatedAt":"30/06/2026 18:50:10"}]},{"id":"55951","lat":45.50352387625947,"lon":10.259555005383291,"name":"SHELL BRESCIA VIA BETTOLE - LOC. SAN POLO 26","brand":"Shell","address":"BETTOLE - LOC. S. POLO 26 25134, BRESCIA, BS","prices":[{"type":"petrol","price":1.719,"self":true,"updatedAt":"01/07/2026 07:27:48"},{"type":"diesel","price":1.849,"self":true,"updatedAt":"01/07/2026 07:27:48"}]},{"id":"30943","lat":45.51495246243551,"lon":10.250853874868767,"name":"Sia Fuel Brescia","brand":"Sia fuel","address":"VIA S. POLO 193 25100, BRESCIA, BS","prices":[{"type":"petrol","price":1.759,"self":true,"updatedAt":"30/06/2026 17:05:33"},{"type":"diesel","price":1.879,"self":true,"updatedAt":"30/06/2026 17:05:33"}]},{"id":"48582","lat":45.52040672456007,"lon":10.273741530552316,"name":"SIA FUEL BRESCIA 2","brand":"Sia fuel","address":"Viale Sant'Eufemia 5 25125, BRESCIA, BS","prices":[{"type":"petrol","price":1.759,"self":true,"updatedAt":"30/06/2026 17:05:45"},{"type":"diesel","price":1.879,"self":true,"updatedAt":"30/06/2026 17:05:45"},{"type":"methane","price":1.459,"self":false,"updatedAt":"30/06/2026 17:05:45"}]},{"id":"50121","lat":45.508535223492515,"lon":10.253864371130755,"name":"Stazione di Servizio ESSO","brand":"Esso","address":"VIA SAN POLO 170 25124, BRESCIA, BS","prices":[{"type":"petrol","price":1.929,"self":true,"updatedAt":"30/06/2026 08:19:13"},{"type":"diesel","price":1.999,"self":true,"updatedAt":"30/06/2026 08:19:13"}]},{"id":"45480","lat":45.60580169284167,"lon":10.310346222220769,"name":"Beyfin Future Fuels","brand":"Beyfin","address":"Via Nazionale 1/M 25070, CAINO, BS","prices":[{"type":"petrol","price":1.809,"self":false,"updatedAt":"29/06/2026 12:02:39"},{"type":"diesel","price":1.919,"self":false,"updatedAt":"29/06/2026 12:02:39"},{"type":"lpg","price":0.799,"self":false,"updatedAt":"29/06/2026 12:02:39"}]},{"id":"57468","lat":45.5416,"lon":10.4462,"name":"TAMOIL-FRAMOR","brand":"Tamoil","address":"MARCONI 23 25080, CALVAGESE DELLA RIVIERA, BS","prices":[{"type":"petrol","price":1.849,"self":true,"updatedAt":"27/06/2026 07:37:53"},{"type":"diesel","price":1.979,"self":true,"updatedAt":"27/06/2026 07:37:53"}]},{"id":"58775","lat":45.69502,"lon":10.3239,"name":"CARROZZERIA FUTURA DI PERONI CHRISTIAN E C SAS","brand":"Esso","address":"Via Roma 50  25070, CASTO, BS","prices":[{"type":"petrol","price":1.849,"self":true,"updatedAt":"29/06/2026 09:46:30"},{"type":"diesel","price":1.939,"self":true,"updatedAt":"29/06/2026 09:46:30"}]},{"id":"45063","lat":45.57773893869388,"lon":10.444866364417976,"name":"8974","brand":"Tamoil","address":"CONTER - 25085, GAVARDO, BS","prices":[{"type":"petrol","price":1.729,"self":true,"updatedAt":"30/06/2026 15:46:09"},{"type":"diesel","price":1.819,"self":true,"updatedAt":"30/06/2026 15:46:09"}]},{"id":"28272","lat":45.583105789894674,"lon":10.450049936771393,"name":"eni","brand":"Agip Eni","address":"Statale 45 bis Gardesana Occidentale, Km. 1, dir. brescia - 25085, GAVARDO, BS","prices":[{"type":"petrol","price":1.819,"self":true,"updatedAt":"30/06/2026 23:44:44"},{"type":"diesel","price":1.889,"self":true,"updatedAt":"30/06/2026 06:32:06"},{"type":"lpg","price":0.712,"self":false,"updatedAt":"30/06/2026 23:44:44"}]},{"id":"59761","lat":45.578325,"lon":10.437278,"name":"SHELL GAVARDO VIA QUARENA 165","brand":"Shell","address":"GIOVANNI QUARENA 165 25085, GAVARDO, BS","prices":[{"type":"petrol","price":1.759,"self":true,"updatedAt":"01/07/2026 07:32:50"},{"type":"diesel","price":1.879,"self":true,"updatedAt":"01/07/2026 07:32:50"}]},{"id":"42425","lat":45.576549820341164,"lon":10.4371377825737,"name":"stazione rifornimento Q8 Remi Federica","brand":"Q8","address":"VIA G. QUARENA 179 25085, GAVARDO, BS","prices":[{"type":"petrol","price":1.759,"self":true,"updatedAt":"01/07/2026 07:06:16"},{"type":"diesel","price":1.859,"self":true,"updatedAt":"01/07/2026 07:06:16"}]},{"id":"15922","lat":45.74094063247999,"lon":10.480794922097175,"name":"DISTRIBUTORE IP","brand":"Esso","address":"VIA LUNGO LAGO VITTORIA 3 25074, IDRO, BS","prices":[{"type":"petrol","price":2.029,"self":true,"updatedAt":"30/06/2026 06:35:52"},{"type":"diesel","price":2.129,"self":true,"updatedAt":"30/06/2026 06:35:52"}]},{"id":"59290","lat":45.71489099995194,"lon":10.280992054546173,"name":"LODRINO","brand":"Retitalia","address":"Via Kennedy, LODRINO, BS","prices":[{"type":"petrol","price":1.819,"self":true,"updatedAt":"30/06/2026 14:34:38"},{"type":"diesel","price":1.899,"self":true,"updatedAt":"30/06/2026 14:34:39"}]},{"id":"61956","lat":45.648297130219255,"lon":10.268851965665776,"name":"DISTRIBUTORE DA TASSO DI TASSONE ANTONIO","brand":"Agip Eni","address":"MONSUELLO 37 25065, LUMEZZANE, BS","prices":[{"type":"petrol","price":1.81,"self":true,"updatedAt":"30/06/2026 00:10:13"},{"type":"diesel","price":1.889,"self":true,"updatedAt":"30/06/2026 23:31:40"}]},{"id":"55860","lat":45.6493898,"lon":10.2708927,"name":"ESSO","brand":"Esso","address":"MONTINI 199 25065, LUMEZZANE, BS","prices":[{"type":"petrol","price":1.849,"self":true,"updatedAt":"24/06/2026 00:01:13"},{"type":"diesel","price":1.959,"self":true,"updatedAt":"24/06/2026 00:01:13"}]},{"id":"21363","lat":45.65323686440314,"lon":10.286774110450096,"name":"IES","brand":"Costantin","address":"VALLESABBIA 173 25065, LUMEZZANE, BS","prices":[{"type":"petrol","price":1.889,"self":true,"updatedAt":"25/06/2026 14:34:40"},{"type":"diesel","price":2.009,"self":true,"updatedAt":"25/06/2026 14:34:40"},{"type":"lpg","price":0.739,"self":false,"updatedAt":"25/06/2026 14:34:40"}]},{"id":"11540","lat":45.649673008333096,"lon":10.250773876905441,"name":"LUMEZZANE DI ROSAGHE-VIA MONTESUELLO","brand":"Q8","address":"VIA MONTESUELLO - LUMEZZANE DI ROSAGHE S/N 25065, LUMEZZANE, BS","prices":[{"type":"petrol","price":1.779,"self":true,"updatedAt":"01/07/2026 07:43:10"},{"type":"diesel","price":1.879,"self":true,"updatedAt":"01/07/2026 07:43:10"}]},{"id":"27423","lat":45.65384535830375,"lon":10.252373327200416,"name":"Rossetti Anna Farida","brand":"Esso","address":"VIA S. FILIPPO 137 25065, LUMEZZANE, BS","prices":[{"type":"petrol","price":1.829,"self":true,"updatedAt":"29/06/2026 11:41:57"},{"type":"diesel","price":1.909,"self":true,"updatedAt":"29/06/2026 11:41:57"}]},{"id":"48636","lat":45.6500885132299,"lon":10.257501602172846,"name":"STAZIONE DI SERVIZIO Q8 DI PACE LUCA","brand":"Q8","address":"VIA MONSUELLO 170 25065, LUMEZZANE, BS","prices":[{"type":"petrol","price":1.779,"self":true,"updatedAt":"30/06/2026 07:48:17"},{"type":"diesel","price":1.879,"self":true,"updatedAt":"30/06/2026 07:48:17"}]},{"id":"26469","lat":45.50233757802413,"lon":10.351803302764893,"name":"DISTRIBUTORE G-STATION MOLINETTO DI MAZZANO","brand":"Pompe Bianche","address":"viale brescia snc 25080, MAZZANO, BS","prices":[{"type":"petrol","price":1.759,"self":true,"updatedAt":"30/06/2026 10:00:03"},{"type":"diesel","price":1.869,"self":true,"updatedAt":"30/06/2026 10:00:03"},{"type":"lpg","price":0.699,"self":false,"updatedAt":"30/06/2026 10:00:03"}]},{"id":"49401","lat":45.512634894365384,"lon":10.35428798982847,"name":"G&GR SRL","brand":"Esso","address":"45 bis Gardesana Occidentale, Km. 51+510, salò - 25080, MAZZANO, BS","prices":[{"type":"petrol","price":1.829,"self":true,"updatedAt":"30/06/2026 08:51:12"},{"type":"diesel","price":1.919,"self":true,"updatedAt":"30/06/2026 08:51:12"},{"type":"lpg","price":0.749,"self":false,"updatedAt":"30/06/2026 08:51:12"}]},{"id":"49402","lat":45.51314989233319,"lon":10.354073413107278,"name":"G&GR SRL","brand":"Esso","address":"45 bis Gardesana Occidentale, Km. 51+510, BRESCIA - 25080, MAZZANO, BS","prices":[{"type":"petrol","price":1.829,"self":true,"updatedAt":"30/06/2026 08:51:29"},{"type":"diesel","price":1.919,"self":true,"updatedAt":"30/06/2026 08:51:29"},{"type":"lpg","price":0.749,"self":false,"updatedAt":"30/06/2026 08:51:29"}]},{"id":"61661","lat":45.50279986125751,"lon":10.349321207220154,"name":"Stazione Servizio Metano","brand":"Pompe Bianche","address":"Viale Brescia 128  25080, MAZZANO, BS","prices":[{"type":"methane","price":1.297,"self":false,"updatedAt":"30/06/2026 06:21:25"}]},{"id":"44215","lat":45.583998667813,"lon":10.266643730163537,"name":"DISTRIBUTORE ENI","brand":"Agip Eni","address":"VIA BRESCIA SP 237 NAVE SNC 25075, NAVE, BS","prices":[{"type":"petrol","price":1.809,"self":true,"updatedAt":"01/07/2026 00:27:21"},{"type":"diesel","price":1.889,"self":true,"updatedAt":"01/07/2026 00:27:21"}]},{"id":"59724","lat":45.5843862,"lon":10.2768425,"name":"Esso","brand":"Esso","address":"Via Brescia 142  25075, NAVE, BS","prices":[{"type":"petrol","price":1.829,"self":true,"updatedAt":"29/06/2026 09:48:07"},{"type":"diesel","price":1.919,"self":true,"updatedAt":"29/06/2026 09:48:08"}]},{"id":"9117","lat":45.53944078616598,"lon":10.383841769975334,"name":"NUVOLENTO S.P. 116 - V. TRENTO 44","brand":"Q8","address":"S.P. 116 - V. TRENTO 44 25080, NUVOLENTO, BS","prices":[{"type":"petrol","price":1.839,"self":true,"updatedAt":"30/06/2026 01:12:10"},{"type":"diesel","price":1.889,"self":true,"updatedAt":"30/06/2026 01:12:10"}]},{"id":"47073","lat":45.50929969521869,"lon":10.384182193401008,"name":"AGIP DI CONFORTI CESARE","brand":"Shell","address":"VIA VALTENESI 31 25080, NUVOLERA, BS","prices":[{"type":"petrol","price":1.769,"self":true,"updatedAt":"01/07/2026 07:11:56"},{"type":"diesel","price":1.859,"self":true,"updatedAt":"01/07/2026 07:11:56"},{"type":"lpg","price":0.689,"self":false,"updatedAt":"01/07/2026 07:11:56"}]},{"id":"50744","lat":45.52786043829772,"lon":10.388382970930476,"name":"DISTRIBUTORE IP","brand":"Api-Ip","address":"VIA S.S. 45BIS KM 54+760 0 25080, NUVOLERA (BS) SNC 25080, NUVOLERA, BS","prices":[{"type":"petrol","price":1.728,"self":true,"updatedAt":"01/07/2026 08:01:22"},{"type":"diesel","price":1.808,"self":true,"updatedAt":"01/07/2026 08:01:22"},{"type":"methane","price":1.289,"self":false,"updatedAt":"01/07/2026 08:01:22"},{"type":"lpg","price":0.689,"self":false,"updatedAt":"01/07/2026 08:01:22"}]},{"id":"63061","lat":45.528871,"lon":10.371641,"name":"TAMOIL NUVOLERA VIA GARDESANA 22","brand":"Tamoil","address":"VIA GARDESANA 22 25080, NUVOLERA, BS","prices":[{"type":"petrol","price":1.779,"self":true,"updatedAt":"01/07/2026 07:33:52"},{"type":"diesel","price":1.889,"self":true,"updatedAt":"01/07/2026 07:33:52"}]},{"id":"56786","lat":45.55032655164582,"lon":10.39899542927742,"name":"ENI CAFE DI MASSARDI SERGIO E MARCO & C. s.n.c.","brand":"Agip Eni","address":"ITALIA 5 25080, PAITONE, BS","prices":[{"type":"petrol","price":1.829,"self":true,"updatedAt":"01/07/2026 00:33:03"},{"type":"diesel","price":1.889,"self":true,"updatedAt":"01/07/2026 00:33:03"}]},{"id":"34227","lat":45.55320963660337,"lon":10.40591150522232,"name":"FERRARI CARBURANTI","brand":"Pompe Bianche","address":"via Italia 42 25080, PAITONE, BS","prices":[{"type":"petrol","price":1.779,"self":true,"updatedAt":"29/06/2026 09:17:26"},{"type":"diesel","price":1.889,"self":true,"updatedAt":"29/06/2026 09:17:26"}]},{"id":"62402","lat":45.6551901,"lon":10.3798441,"name":"M.L.L. Impianti","brand":"Retitalia","address":"SP79, PRESEGLIE, BS","prices":[{"type":"petrol","price":1.839,"self":true,"updatedAt":"30/06/2026 09:09:34"},{"type":"diesel","price":1.939,"self":true,"updatedAt":"30/06/2026 09:09:34"},{"type":"lpg","price":0.769,"self":false,"updatedAt":"30/06/2026 09:09:34"}]},{"id":"60519","lat":45.5540736,"lon":10.4103936,"name":"EFFEGI SRL","brand":"Pompe Bianche","address":"SP 116 - VIA INDUSTRIALE 17 25080, PREVALLE, BS","prices":[{"type":"petrol","price":1.779,"self":true,"updatedAt":"29/06/2026 09:18:29"},{"type":"diesel","price":1.889,"self":true,"updatedAt":"29/06/2026 09:18:29"},{"type":"lpg","price":0.769,"self":false,"updatedAt":"29/06/2026 09:18:29"}]},{"id":"15431","lat":45.55069343610309,"lon":10.421676814839088,"name":"GOSETTI F.LLI","brand":"Pompe Bianche","address":"VIA GARDESANA 1 25080, PREVALLE, BS","prices":[{"type":"petrol","price":1.844,"self":false,"updatedAt":"26/06/2026 21:49:46"},{"type":"diesel","price":1.959,"self":false,"updatedAt":"26/06/2026 21:49:46"}]},{"id":"3999","lat":45.51376931596884,"lon":10.305287005642196,"name":"3G Carburanti","brand":"Pompe Bianche","address":"11 Padana Superiore, Km. 182, brescia - 25086, REZZATO, BS","prices":[{"type":"petrol","price":1.783,"self":true,"updatedAt":"29/06/2026 10:39:04"},{"type":"diesel","price":1.899,"self":true,"updatedAt":"27/06/2026 10:51:05"},{"type":"lpg","price":0.749,"self":false,"updatedAt":"25/06/2026 10:03:05"}]},{"id":"49147","lat":45.5118534777418,"lon":10.312029325849894,"name":"ENI REZZATO","brand":"Agip Eni","address":"VIA MAZZINI 9 25086, REZZATO, BS","prices":[{"type":"petrol","price":1.804,"self":true,"updatedAt":"30/06/2026 23:31:56"},{"type":"diesel","price":1.884,"self":true,"updatedAt":"30/06/2026 23:31:56"}]},{"id":"62198","lat":45.50022616277758,"lon":10.333042802069077,"name":"IP","brand":"Api-Ip","address":"S.S. 45 BIS KM.49+290 S.N. 25086, REZZATO, BS","prices":[{"type":"petrol","price":1.699,"self":true,"updatedAt":"25/06/2026 12:49:06"},{"type":"diesel","price":1.849,"self":true,"updatedAt":"25/06/2026 12:49:06"}]},{"id":"50291","lat":45.50433539992479,"lon":10.339803655722147,"name":"Rezzato","brand":"Auchan","address":"VIA TREPONTI SNC 25086, REZZATO, BS","prices":[{"type":"petrol","price":1.689,"self":true,"updatedAt":"29/06/2026 20:16:27"},{"type":"diesel","price":1.794,"self":true,"updatedAt":"29/06/2026 20:16:27"},{"type":"methane","price":1.297,"self":true,"updatedAt":"29/06/2026 20:16:27"}]},{"id":"11532","lat":45.50332031208248,"lon":10.343303440475438,"name":"REZZATO-VIA TREPONTI 75 LOC.DUE PORTE","brand":"Q8","address":"VIA TREPONTI  LOC.DUE PORTE 75 25080, REZZATO, BS","prices":[{"type":"petrol","price":1.719,"self":true,"updatedAt":"01/07/2026 01:40:23"},{"type":"diesel","price":1.799,"self":true,"updatedAt":"01/07/2026 01:40:23"}]},{"id":"60158","lat":45.50983,"lon":10.32188,"name":"SHELL DISTRIBUTORE DI GILL BALRAJ","brand":"Shell","address":"VIA GARIBALDI 54 25086, REZZATO, BS","prices":[{"type":"petrol","price":1.789,"self":true,"updatedAt":"29/06/2026 15:34:37"},{"type":"diesel","price":1.919,"self":true,"updatedAt":"29/06/2026 15:34:37"},{"type":"lpg","price":0.739,"self":false,"updatedAt":"29/06/2026 15:34:37"}]},{"id":"10010","lat":45.50738415039266,"lon":10.330750644207,"name":"Stazione di rifornimento ESSO","brand":"Esso","address":"VIA GARIBALDI 134 25086, REZZATO, BS","prices":[{"type":"petrol","price":1.729,"self":true,"updatedAt":"29/06/2026 10:51:11"},{"type":"diesel","price":1.889,"self":true,"updatedAt":"29/06/2026 10:51:11"}]},{"id":"33480","lat":45.61654167216947,"lon":10.483494400978088,"name":"Q8 DI JOLLY CAR SNC","brand":"Q8","address":"VIA ROMA 32/A 25077, ROÈ VOLCIANO, BS","prices":[{"type":"petrol","price":1.809,"self":true,"updatedAt":"26/06/2026 11:23:30"},{"type":"diesel","price":1.919,"self":true,"updatedAt":"26/06/2026 11:23:30"}]},{"id":"13374","lat":45.652023810384996,"lon":10.431674122810364,"name":"Franzoni Giulio Distributore Carburanti","brand":"Pompe Bianche","address":"VIA XX SETTEMBRE 70 25070, SABBIO CHIESE, BS","prices":[{"type":"petrol","price":1.859,"self":true,"updatedAt":"30/06/2026 13:26:36"},{"type":"diesel","price":1.909,"self":true,"updatedAt":"30/06/2026 13:26:36"},{"type":"lpg","price":0.789,"self":false,"updatedAt":"30/06/2026 13:26:36"}]},{"id":"40597","lat":45.65771160082998,"lon":10.421348288655281,"name":"Sia Fuel Sabbio Chiese","brand":"Sia fuel","address":"Via XX Settembre 97 25070, SABBIO CHIESE, BS","prices":[{"type":"petrol","price":1.879,"self":true,"updatedAt":"30/06/2026 17:04:21"},{"type":"diesel","price":1.985,"self":true,"updatedAt":"30/06/2026 17:04:21"}]},{"id":"26321","lat":45.66104649202135,"lon":10.415577253967285,"name":"Stazione di servizio ESSO di Beltrami Luisa","brand":"Esso","address":"VIA XX SETTEMBRE 22 25070, SABBIO CHIESE, BS","prices":[{"type":"petrol","price":1.824,"self":true,"updatedAt":"01/07/2026 07:53:03"},{"type":"diesel","price":1.909,"self":true,"updatedAt":"01/07/2026 07:53:03"}]},{"id":"13679","lat":45.56410485215264,"lon":10.371078997850418,"name":"Zanetti fabrizio","brand":"Pompe Bianche","address":"VIA XXIV MAGGIO 3 25080, SERLE, BS","prices":[{"type":"petrol","price":1.799,"self":false,"updatedAt":"25/06/2026 18:08:33"},{"type":"diesel","price":1.899,"self":false,"updatedAt":"25/06/2026 18:08:33"}]},{"id":"39953","lat":45.60973405411735,"lon":10.40378250181675,"name":"NEBOLI CLAUDIO","brand":"Api-Ip","address":"ROMA 139 25080, VALLIO TERME, BS","prices":[{"type":"petrol","price":1.739,"self":true,"updatedAt":"01/07/2026 07:39:31"},{"type":"diesel","price":1.839,"self":true,"updatedAt":"01/07/2026 07:39:31"}]},{"id":"58518","lat":45.707903223329915,"lon":10.402256302485776,"name":"BS CARBURANTI DI ALI SAFIAN","brand":"Agip Eni","address":"GUGLIELMO MARCONI 16 25078, VESTONE, BS","prices":[{"type":"petrol","price":1.849,"self":true,"updatedAt":"29/06/2026 08:37:50"},{"type":"diesel","price":1.919,"self":true,"updatedAt":"29/06/2026 08:37:50"}]},{"id":"55952","lat":45.70012767518269,"lon":10.387896657818517,"name":"SHELL VESTONE VIA TITA SECCHI N.66 - FRAZ. NOZZA","brand":"Shell","address":"TITA SECCHI - FRAZ. NOZZA 66 25078, VESTONE, BS","prices":[{"type":"petrol","price":1.849,"self":true,"updatedAt":"01/07/2026 07:36:32"},{"type":"diesel","price":1.919,"self":true,"updatedAt":"01/07/2026 07:36:32"}]},{"id":"48669","lat":45.70737567979032,"lon":10.401598597553239,"name":"VESTONE","brand":"Esso","address":"PIAZZALE PERLASCA 6 25078, VESTONE, BS","prices":[{"type":"petrol","price":1.849,"self":true,"updatedAt":"30/06/2026 08:18:45"},{"type":"diesel","price":1.919,"self":true,"updatedAt":"30/06/2026 08:18:45"}]},{"id":"16792","lat":45.599699884691375,"lon":10.451122630024656,"name":"STAZIONE RIFORNIMENTO ESSO REMI MAURO","brand":"Esso","address":"VIA BRESCIA 17 25089, VILLANUOVA SUL CLISI, BS","prices":[{"type":"petrol","price":1.769,"self":true,"updatedAt":"30/06/2026 08:04:59"},{"type":"diesel","price":1.889,"self":true,"updatedAt":"30/06/2026 08:04:59"}]}]