[{"id":"61910","lat":45.809334,"lon":10.790424,"name":"TAMOIL LIMONE SUL GARDA VIA IV NOVEMBRE","brand":"Tamoil","address":"IV NOVEMBRE 20 25010, LIMONE SUL GARDA, BS","prices":[{"type":"petrol","price":1.929,"self":true,"updatedAt":"21/06/2026 07:14:12"},{"type":"diesel","price":1.979,"self":true,"updatedAt":"21/06/2026 07:14:12"}]},{"id":"45300","lat":45.77202664449546,"lon":10.76039507513326,"name":"M.C.M. GROUP STATION","brand":"Pompe Bianche","address":"PIAZZA FOSSATO 18 25010, TREMOSINE SUL GARDA, BS","prices":[{"type":"petrol","price":1.898,"self":true,"updatedAt":"20/06/2026 00:05:19"},{"type":"diesel","price":1.986,"self":true,"updatedAt":"20/06/2026 00:05:19"}]},{"id":"59391","lat":45.7573701,"lon":10.9969887,"name":"Ala Petrolvilla Ferrari","brand":"Pompe Bianche","address":"PASSO BOULE 28 38061, ALA, TN","prices":[{"type":"petrol","price":1.843,"self":true,"updatedAt":"17/06/2026 09:50:10"},{"type":"diesel","price":1.943,"self":true,"updatedAt":"17/06/2026 09:50:10"}]},{"id":"55786","lat":45.93521,"lon":10.897986,"name":"13548 Arco","brand":"Agip Eni","address":"Loc. Maso Giare, ARCO, TN","prices":[{"type":"petrol","price":1.829,"self":true,"updatedAt":"21/06/2026 00:09:36"},{"type":"diesel","price":1.919,"self":true,"updatedAt":"21/06/2026 00:09:36"}]},{"id":"31086","lat":45.90630746548659,"lon":10.866300000000024,"name":"ARCO - SANTA CATERINA 87","brand":"Api-Ip","address":"VIA CATERINA 87 38062, ARCO, TN","prices":[{"type":"petrol","price":1.849,"self":true,"updatedAt":"20/06/2026 09:09:34"},{"type":"diesel","price":1.889,"self":true,"updatedAt":"20/06/2026 09:09:34"}]},{"id":"61212","lat":45.91119551253663,"lon":10.87141348410339,"name":"DELTA ENERGY - ARCO (TN)","brand":"Delta energy","address":"Via S. Caterina 76  38062, ARCO, TN","prices":[{"type":"petrol","price":1.819,"self":true,"updatedAt":"21/06/2026 01:10:14"},{"type":"diesel","price":1.859,"self":true,"updatedAt":"21/06/2026 01:10:15"}]},{"id":"8977","lat":45.90872213595787,"lon":10.869021521881905,"name":"GNP ARCO","brand":"GNP","address":"VIA S.CATERINA 86 38062, ARCO (TN) 86 38062, ARCO, TN","prices":[{"type":"petrol","price":1.847,"self":true,"updatedAt":"21/06/2026 00:52:13"},{"type":"diesel","price":1.877,"self":true,"updatedAt":"21/06/2026 00:52:13"}]},{"id":"5360","lat":45.91774544499981,"lon":10.868236484655768,"name":"pederzolli mauro","brand":"Esso","address":"via degasperi 59 38062, ARCO, TN","prices":[{"type":"petrol","price":1.839,"self":true,"updatedAt":"20/06/2026 06:33:26"},{"type":"diesel","price":1.899,"self":true,"updatedAt":"20/06/2026 06:33:26"}]},{"id":"60021","lat":45.916054909526856,"lon":10.879176557064056,"name":"Q8 ARCO","brand":"Q8","address":"Via S. Caterina 10 38062, ARCO, TN","prices":[{"type":"petrol","price":1.979,"self":true,"updatedAt":"20/06/2026 08:25:39"},{"type":"diesel","price":1.999,"self":true,"updatedAt":"20/06/2026 08:25:39"}]},{"id":"38292","lat":45.87599852223023,"lon":10.871277451515198,"name":"SHELL","brand":"Shell","address":"GARDESANA 2 38062, ARCO, TN","prices":[{"type":"petrol","price":1.899,"self":true,"updatedAt":"20/06/2026 17:30:34"},{"type":"diesel","price":1.999,"self":true,"updatedAt":"20/06/2026 17:30:35"}]},{"id":"57935","lat":45.818685,"lon":10.957233,"name":"FIRMIN","brand":"Firmin","address":"Viale San Rocco 1 38060, BRENTONICO, TN","prices":[{"type":"petrol","price":1.859,"self":true,"updatedAt":"20/06/2026 18:08:20"},{"type":"diesel","price":1.999,"self":true,"updatedAt":"20/06/2026 18:08:20"}]},{"id":"59775","lat":45.996097767580515,"lon":10.976688791213988,"name":"B-Petrol CAVEDINE (TN)","brand":"bpetrol","address":"Viale A. De Gasperi 1  38073, CAVEDINE, TN","prices":[{"type":"petrol","price":1.819,"self":true,"updatedAt":"20/06/2026 23:35:23"}]},{"id":"60681","lat":45.98273261833498,"lon":10.92544767976225,"name":"Road Runner snc","brand":"Agip Eni","address":"LAGO 10 38074, DRO, TN","prices":[{"type":"petrol","price":1.845,"self":true,"updatedAt":"20/06/2026 23:40:20"},{"type":"diesel","price":1.944,"self":true,"updatedAt":"20/06/2026 23:40:20"}]},{"id":"15325","lat":45.87205442723665,"lon":10.7708032077403,"name":"OFFICINA MAZZOLA SNC","brand":"Api-Ip","address":"Statale 240 di Loppio e di Val di Ledro, Km. 29, dir. LOPPIO  38067, LEDRO, TN","prices":[{"type":"petrol","price":1.859,"self":true,"updatedAt":"18/06/2026 12:41:55"},{"type":"diesel","price":1.929,"self":true,"updatedAt":"18/06/2026 12:41:55"}]},{"id":"33745","lat":45.85120226583009,"lon":10.977961644530296,"name":"DISTRIBUTORE Q8","brand":"Q8","address":"VIA MARCONI 5 38065, MORI, TN","prices":[{"type":"petrol","price":1.859,"self":true,"updatedAt":"19/06/2026 08:13:48"},{"type":"diesel","price":1.949,"self":true,"updatedAt":"19/06/2026 08:13:48"}]},{"id":"7078","lat":45.875978354405746,"lon":10.932689309120178,"name":"STAZIONE SERVIZIO Q8","brand":"Q8","address":"VIA CASTELLO 1 38065, MORI, TN","prices":[{"type":"petrol","price":1.889,"self":true,"updatedAt":"19/06/2026 09:01:21"},{"type":"diesel","price":1.999,"self":true,"updatedAt":"19/06/2026 09:01:21"}]},{"id":"23431","lat":45.877976019743414,"lon":10.895707784061415,"name":"52652 menegatti maurizio","brand":"Agip Eni","address":"Statale 240 di Loppio e di Val di Ledro, Km. 35, dir. nord - 38069, NAGO-TORBOLE, TN","prices":[{"type":"petrol","price":1.859,"self":true,"updatedAt":"21/06/2026 00:58:10"},{"type":"diesel","price":1.969,"self":true,"updatedAt":"21/06/2026 00:58:10"}]},{"id":"7887","lat":45.8785710806997,"lon":10.889567202377293,"name":"dusatti sas imp. AGIP - ENI","brand":"Agip Eni","address":"STRADA RIVANA 1 38060, NAGO-TORBOLE, TN","prices":[{"type":"petrol","price":1.86,"self":true,"updatedAt":"21/06/2026 00:12:06"},{"type":"diesel","price":1.969,"self":true,"updatedAt":"21/06/2026 00:12:06"}]},{"id":"11848","lat":45.87127279369916,"lon":10.875515735145541,"name":"NAGO TORBOLE-VIA MATTEOTTI 11","brand":"Q8","address":"VIA MATTEOTTI 11 38069, NAGO-TORBOLE, TN","prices":[{"type":"petrol","price":1.844,"self":true,"updatedAt":"20/06/2026 08:13:19"},{"type":"diesel","price":1.958,"self":true,"updatedAt":"20/06/2026 08:13:19"}]},{"id":"48083","lat":45.89396899238126,"lon":10.848843670011776,"name":"ALU' VINCENZO","brand":"Q8","address":"VIALE TRENTO 28 38066, RIVA DEL GARDA, TN","prices":[{"type":"petrol","price":1.899,"self":true,"updatedAt":"19/06/2026 07:13:27"},{"type":"diesel","price":1.959,"self":true,"updatedAt":"19/06/2026 07:13:27"}]},{"id":"23663","lat":45.88525757531165,"lon":10.847718854422737,"name":"ENI DI PALMA PETROLI","brand":"Agip Eni","address":"CARDUCCI 12 38066, RIVA DEL GARDA, TN","prices":[{"type":"petrol","price":1.879,"self":true,"updatedAt":"20/06/2026 23:56:31"},{"type":"diesel","price":1.989,"self":true,"updatedAt":"20/06/2026 23:56:31"}]},{"id":"23578","lat":45.896426256887,"lon":10.843922942876816,"name":"piva servizi","brand":"Agip Eni","address":"Statale 421 dei Laghi di Molveno e Tenno, Km. 63, dir. tenno - 38066, RIVA DEL GARDA, TN","prices":[{"type":"petrol","price":1.849,"self":true,"updatedAt":"21/06/2026 00:59:03"},{"type":"diesel","price":1.949,"self":true,"updatedAt":"21/06/2026 00:59:03"}]},{"id":"24278","lat":45.900855394789495,"lon":10.85785299539566,"name":"RIVA DEL GARDA - SAN TOMASO","brand":"Api-Ip","address":"LOCALITA' SAN TOMASO, RIVA DEL GARDA, TN","prices":[{"type":"petrol","price":1.839,"self":true,"updatedAt":"20/06/2026 09:05:12"},{"type":"diesel","price":1.879,"self":true,"updatedAt":"20/06/2026 09:05:12"},{"type":"lpg","price":0.799,"self":false,"updatedAt":"20/06/2026 09:05:12"}]},{"id":"23059","lat":45.88078443744142,"lon":10.855138599872589,"name":"RIVA DEL GARDA VIALE ROVERETO S.S. 240","brand":"Q8","address":"VIALE ROVERETO S.S. 240, RIVA DEL GARDA, TN","prices":[{"type":"petrol","price":1.819,"self":true,"updatedAt":"20/06/2026 01:39:28"},{"type":"diesel","price":1.859,"self":true,"updatedAt":"20/06/2026 01:39:28"}]},{"id":"9426","lat":45.765209957793566,"lon":10.810924233319497,"name":"muhammad zia","brand":"Firmin","address":"VIA GARDESANA CENTRO 284 37018, MALCESINE, VR","prices":[{"type":"petrol","price":1.918,"self":true,"updatedAt":"16/06/2026 08:30:39"},{"type":"diesel","price":2.068,"self":true,"updatedAt":"16/06/2026 08:30:39"}]},{"id":"45181","lat":45.766797000123,"lon":10.811554000123,"name":"Staz.Serv. Q8","brand":"Q8","address":"249 Gardesana Orientale, Km. 83, Nord - 37018, MALCESINE, VR","prices":[{"type":"petrol","price":1.948,"self":true,"updatedAt":"20/06/2026 07:21:23"},{"type":"diesel","price":2.088,"self":true,"updatedAt":"20/06/2026 07:21:23"}]}]