[{"id":"63200","lat":45.783522067952816,"lon":9.573694631928644,"name":"IPERSTAROIL CAPIZZONE","brand":"Pompe Bianche","address":"Corso Italia 37a  24030, CAPIZZONE, BG","prices":[{"type":"petrol","price":1.819,"self":true,"updatedAt":"25/06/2026 20:18:22"},{"type":"diesel","price":1.909,"self":true,"updatedAt":"25/06/2026 20:18:22"}]},{"id":"38317","lat":45.8028966216658,"lon":9.503219100802653,"name":"COMUNE COSTA","brand":"Pompe Bianche","address":"VIA ROMA  24030, COSTA VALLE IMAGNA, BG","prices":[{"type":"petrol","price":1.829,"self":true,"updatedAt":"20/06/2026 08:59:28"},{"type":"diesel","price":1.969,"self":true,"updatedAt":"20/06/2026 08:59:28"}]},{"id":"19202","lat":45.92810443367174,"lon":9.66786834369429,"name":"01532","brand":"Agip Eni","address":"VIA SCALVINO 97 24010, LENNA, BG","prices":[{"type":"petrol","price":1.859,"self":true,"updatedAt":"25/06/2026 01:17:07"},{"type":"diesel","price":1.949,"self":true,"updatedAt":"25/06/2026 01:17:07"}]},{"id":"51652","lat":45.96831480794584,"lon":9.649204217429736,"name":"Matteo Mismetti","brand":"Esso","address":"470 della Val Brembana, Km. 41, Passo San Marco  - 24010, OLMO AL BREMBO, BG","prices":[{"type":"petrol","price":1.815,"self":true,"updatedAt":"25/06/2026 15:18:39"},{"type":"diesel","price":1.895,"self":true,"updatedAt":"25/06/2026 15:18:39"}]},{"id":"37379","lat":45.97454318735367,"lon":9.654710590839386,"name":"MOLINARI","brand":"Pompe Bianche","address":"Statale 470 della Val Brembana, Km. 43, dir. PASSO SAN MARCO - 24010, OLMO AL BREMBO, BG","prices":[{"type":"petrol","price":1.859,"self":true,"updatedAt":"21/06/2026 18:48:14"},{"type":"diesel","price":1.979,"self":true,"updatedAt":"21/06/2026 18:48:14"}]},{"id":"51750","lat":45.8706014,"lon":9.6518631,"name":"Retitalia","brand":"Retitalia","address":"Via P. Boselli 47 24015, SAN GIOVANNI BIANCO, BG","prices":[{"type":"petrol","price":1.818,"self":true,"updatedAt":"25/06/2026 17:56:34"},{"type":"diesel","price":1.899,"self":true,"updatedAt":"25/06/2026 17:56:34"}]},{"id":"16712","lat":45.8646720196169,"lon":9.658157229423523,"name":"i REDONDI SRL","brand":"Tamoil","address":"Via Piazzalunga 80 24015, SAN GIOVANNI BIANCO, BG","prices":[{"type":"petrol","price":1.749,"self":true,"updatedAt":"26/06/2026 00:23:53"},{"type":"diesel","price":1.839,"self":true,"updatedAt":"26/06/2026 00:23:53"}]},{"id":"58663","lat":45.866923,"lon":9.657264,"name":"TAMOIL SAN GIOVANNI BIANCO VIA PIAZZALUNGA 36","brand":"Tamoil","address":"PIAZZALUNGA 36 24015, SAN GIOVANNI BIANCO, BG","prices":[{"type":"petrol","price":1.769,"self":true,"updatedAt":"26/06/2026 07:33:55"},{"type":"diesel","price":1.859,"self":true,"updatedAt":"26/06/2026 07:33:55"}]},{"id":"54983","lat":45.8276066,"lon":9.6685467,"name":"ENI 59052","brand":"Agip Eni","address":"Via de Medici  24016, SAN PELLEGRINO TERME, BG","prices":[{"type":"petrol","price":1.789,"self":true,"updatedAt":"25/06/2026 00:01:35"},{"type":"diesel","price":1.854,"self":true,"updatedAt":"25/06/2026 09:38:04"}]},{"id":"17493","lat":45.83102992712372,"lon":9.666652815006614,"name":"Q8","brand":"Q8","address":"VIA DE MEDICI 33 24016, SAN PELLEGRINO TERME, BG","prices":[{"type":"petrol","price":1.999,"self":true,"updatedAt":"24/06/2026 17:28:51"},{"type":"diesel","price":2.089,"self":true,"updatedAt":"24/06/2026 17:28:51"}]},{"id":"6426","lat":45.82157388102827,"lon":9.673510597690893,"name":"SAN PELLEGRINO TERME S.S. 470 KM 21+760","brand":"Q8","address":"S.S. 470 KM 21+760 SNC 24016, SAN PELLEGRINO TERME, BG","prices":[{"type":"petrol","price":1.749,"self":true,"updatedAt":"25/06/2026 01:40:39"},{"type":"diesel","price":1.835,"self":true,"updatedAt":"25/06/2026 01:40:39"}]},{"id":"56691","lat":45.81020881075024,"lon":9.536319226026535,"name":"stazione eni di mazzoleni alessio","brand":"Agip Eni","address":"vittorio veneto 59 24038, SANT'OMOBONO TERME, BG","prices":[{"type":"petrol","price":1.829,"self":true,"updatedAt":"25/06/2026 00:17:02"},{"type":"diesel","price":1.919,"self":true,"updatedAt":"25/06/2026 00:17:02"}]},{"id":"10798","lat":45.78033800602605,"lon":9.620279599405649,"name":"IP - Zanetti Omar","brand":"Api-Ip","address":"VIA ROMA 119 24010, SEDRINA, BG","prices":[{"type":"petrol","price":1.799,"self":true,"updatedAt":"25/06/2026 11:37:12"},{"type":"diesel","price":1.899,"self":true,"updatedAt":"25/06/2026 11:37:12"}]},{"id":"46440","lat":45.782360903420646,"lon":9.745972156524658,"name":"SELVINO","brand":"Api-Ip","address":"VIA ENEA TALPINO 20 24020, SELVINO, BG","prices":[{"type":"petrol","price":1.879,"self":true,"updatedAt":"23/06/2026 15:45:37"},{"type":"diesel","price":1.939,"self":true,"updatedAt":"23/06/2026 15:45:37"}]},{"id":"43032","lat":45.87398966271179,"lon":9.73076363558198,"name":"Retitalia - Serina","brand":"Retitalia","address":"DANTE ALIGHIERI 20 24017, SERINA, BG","prices":[{"type":"petrol","price":1.839,"self":true,"updatedAt":"20/06/2026 08:19:11"},{"type":"diesel","price":1.999,"self":true,"updatedAt":"20/06/2026 08:19:11"}]},{"id":"29642","lat":45.89285216150404,"lon":9.56339955329895,"name":"TALEGGIO","brand":"Api-Ip","address":"SP 25  24010, TALEGGIO, BG","prices":[{"type":"petrol","price":1.859,"self":true,"updatedAt":"24/06/2026 08:17:04"},{"type":"diesel","price":1.959,"self":true,"updatedAt":"24/06/2026 08:17:04"}]},{"id":"47327","lat":45.817653000123,"lon":9.600281000123,"name":"ZUCCALI REMIGIO STAZIONE COSTANTIN","brand":"Costantin","address":"VIA ROMA  24012, VAL BREMBILLA, BG","prices":[{"type":"petrol","price":1.942,"self":true,"updatedAt":"23/06/2026 21:30:15"},{"type":"diesel","price":1.999,"self":true,"updatedAt":"23/06/2026 21:30:15"}]},{"id":"35771","lat":45.94840416693927,"lon":9.684955179691315,"name":"ERNESTO RONDINI SRL VALNEGRA","brand":"Ernesto Rondini","address":"STRADA PROVINCIALE 2 2 24010, VALNEGRA, BG","prices":[{"type":"petrol","price":1.759,"self":true,"updatedAt":"25/06/2026 12:26:34"},{"type":"diesel","price":1.859,"self":true,"updatedAt":"25/06/2026 12:26:34"}]},{"id":"38583","lat":45.792086559872686,"lon":9.650493545449308,"name":"COMMERCIALE PAGANONI","brand":"Pompe Bianche","address":"ANTONIO LOCATELLI 9 24019, ZOGNO, BG","prices":[{"type":"petrol","price":1.765,"self":true,"updatedAt":"25/06/2026 00:41:14"},{"type":"diesel","price":1.855,"self":true,"updatedAt":"25/06/2026 00:41:14"}]},{"id":"7195","lat":45.79738287549931,"lon":9.669459560241648,"name":"Sonzogni Pietro Francesco","brand":"Esso","address":"Statale 470 della Val Brembana, Km. 19, dir. bergamo 19 24019, ZOGNO, BG","prices":[{"type":"petrol","price":1.769,"self":true,"updatedAt":"24/06/2026 08:21:24"},{"type":"diesel","price":1.859,"self":true,"updatedAt":"24/06/2026 08:21:24"}]}]