[{"id":"47538","lat":45.996627886771606,"lon":11.259255169168814,"name":"FIRMIN CALDONAZZO","brand":"Firmin","address":"viale trento 5 38052, CALDONAZZO, TN","prices":[{"type":"petrol","price":1.899,"self":true,"updatedAt":"18/06/2026 21:30:45"},{"type":"diesel","price":1.969,"self":true,"updatedAt":"18/06/2026 21:30:45"}]},{"id":"14887","lat":45.94103662411109,"lon":11.267635868354773,"name":"LORO F.LLI SPA","brand":"Loro","address":"fraz. Gionghi 116 38046, LAVARONE, TN","prices":[{"type":"petrol","price":1.92,"self":true,"updatedAt":"20/06/2026 00:24:54"},{"type":"diesel","price":1.999,"self":true,"updatedAt":"20/06/2026 00:24:54"}]},{"id":"24029","lat":45.93935863521618,"lon":11.254303539985486,"name":"STENGHELE F.LLI","brand":"Esso","address":"VIA TRIESTE 18 38046, LAVARONE, TN","prices":[{"type":"petrol","price":1.869,"self":true,"updatedAt":"18/06/2026 11:35:18"},{"type":"diesel","price":1.959,"self":true,"updatedAt":"18/06/2026 11:35:18"}]},{"id":"42339","lat":45.805697889160406,"lon":11.358903033065758,"name":"Costantin/Facci Emilio srl Arsiero","brand":"Costantin","address":"VIA DEI LONGHI 5 36011, ARSIERO, VI","prices":[{"type":"petrol","price":1.839,"self":true,"updatedAt":"21/06/2026 00:35:00"},{"type":"diesel","price":1.939,"self":true,"updatedAt":"21/06/2026 00:35:00"}]},{"id":"48133","lat":45.86699809519862,"lon":11.476533767145684,"name":"Bianco Canove di Roana","brand":"Bianco Carburanti","address":"VIA ROMA 93 36010, ASIAGO, VI","prices":[{"type":"petrol","price":1.825,"self":true,"updatedAt":"20/06/2026 09:16:17"},{"type":"diesel","price":1.915,"self":true,"updatedAt":"20/06/2026 09:16:17"}]},{"id":"44990","lat":45.870089082091276,"lon":11.49846305180387,"name":"Q8","brand":"Q8","address":"VIA VERDI 91 36012, ASIAGO, VI","prices":[{"type":"petrol","price":1.869,"self":true,"updatedAt":"16/06/2026 06:04:34"},{"type":"diesel","price":1.969,"self":true,"updatedAt":"16/06/2026 06:04:34"},{"type":"lpg","price":0.839,"self":true,"updatedAt":"16/06/2026 06:04:35"}]},{"id":"53075","lat":45.773741,"lon":11.450613,"name":"6988","brand":"Tamoil","address":"SETTE COMUNI 9 36030, CALTRANO, VI","prices":[{"type":"petrol","price":1.829,"self":true,"updatedAt":"20/06/2026 13:30:17"},{"type":"diesel","price":1.949,"self":true,"updatedAt":"20/06/2026 13:30:17"}]},{"id":"46938","lat":45.766699701913254,"lon":11.455403566360474,"name":"BENZA CHIUPPANO","brand":"Benza","address":"VIA PONTE DEI GRANATIERI 2 36010, CHIUPPANO, VI","prices":[{"type":"petrol","price":1.818,"self":true,"updatedAt":"21/06/2026 00:18:45"},{"type":"diesel","price":1.918,"self":true,"updatedAt":"21/06/2026 00:18:45"},{"type":"methane","price":1.599,"self":false,"updatedAt":"21/06/2026 00:18:45"},{"type":"lpg","price":0.799,"self":false,"updatedAt":"21/06/2026 00:18:45"}]},{"id":"56942","lat":45.7890502,"lon":11.4119704,"name":"ENI","brand":"Agip Eni","address":"GRANATIERI DI SARDEGNA 20 36010, COGOLLO DEL CENGIO, VI","prices":[{"type":"petrol","price":1.844,"self":true,"updatedAt":"20/06/2026 23:54:45"},{"type":"diesel","price":1.944,"self":true,"updatedAt":"20/06/2026 23:54:45"},{"type":"lpg","price":0.822,"self":false,"updatedAt":"20/06/2026 23:54:45"}]},{"id":"6329","lat":45.75420644043596,"lon":11.43224300429597,"name":"BONIFACI S.N.C.","brand":"Loro","address":"Statale 350 di Folgaria e di Val d'Astico, Km. 56, dir. SCHIO 72 36013, PIOVENE ROCCHETTE, VI","prices":[{"type":"petrol","price":1.839,"self":true,"updatedAt":"20/06/2026 08:50:02"},{"type":"diesel","price":1.949,"self":true,"updatedAt":"20/06/2026 08:50:02"}]},{"id":"6516","lat":45.75672162957184,"lon":11.437268351078728,"name":"PIOVENE ROCCHETTE GORIZIA 7","brand":"Q8","address":"VIA GORIZIA 7 36013, PIOVENE ROCCHETTE, VI","prices":[{"type":"petrol","price":1.789,"self":true,"updatedAt":"20/06/2026 01:39:54"},{"type":"diesel","price":1.869,"self":true,"updatedAt":"20/06/2026 01:39:54"}]},{"id":"61222","lat":45.8372,"lon":11.43222,"name":"roana","brand":"Agip Eni","address":"CAMPIELLO 52 36010, ROANA, VI","prices":[{"type":"petrol","price":1.818,"self":true,"updatedAt":"21/06/2026 00:28:26"},{"type":"diesel","price":1.918,"self":true,"updatedAt":"21/06/2026 00:28:26"}]},{"id":"12500","lat":45.85681605479475,"lon":11.348846853510508,"name":"DUE ESSE CARBURANTI","brand":"Pompe Bianche","address":"VIA BARCHI  36040, TONEZZA DEL CIMONE, VI","prices":[{"type":"petrol","price":1.885,"self":true,"updatedAt":"20/06/2026 12:22:02"},{"type":"diesel","price":1.959,"self":true,"updatedAt":"20/06/2026 12:22:01"}]},{"id":"61592","lat":45.86747,"lon":11.36099,"name":"COSTANTIN VALDASTICO","brand":"Costantin","address":"Via Soglio 1  36040, VALDASTICO, VI","prices":[{"type":"petrol","price":1.869,"self":true,"updatedAt":"18/06/2026 18:05:42"},{"type":"diesel","price":1.979,"self":true,"updatedAt":"18/06/2026 18:05:42"}]},{"id":"9810","lat":45.88750289609418,"lon":11.353190516873383,"name":"LORO","brand":"Loro","address":"350 di Folgaria e di Val d'Astico, Km. 36, Vicenza  36040, VALDASTICO, VI","prices":[{"type":"petrol","price":1.999,"self":true,"updatedAt":"27/05/2026 15:42:59"},{"type":"diesel","price":1.99,"self":true,"updatedAt":"27/05/2026 15:42:59"}]},{"id":"63209","lat":45.89206338900546,"lon":11.348424226299755,"name":"LORO F.LLI SPA - VALDASTICO","brand":"Loro","address":"Via Ponte Maso Valdastico  36040, VALDASTICO, VI","prices":[{"type":"petrol","price":1.859,"self":true,"updatedAt":"19/06/2026 19:28:54"},{"type":"diesel","price":1.959,"self":true,"updatedAt":"19/06/2026 19:28:54"}]}]