[{"id":"47538","lat":45.996627886771606,"lon":11.259255169168814,"name":"FIRMIN CALDONAZZO","brand":"Firmin","address":"viale trento 5 38052, CALDONAZZO, TN","prices":[{"type":"petrol","price":1.799,"self":true,"updatedAt":"27/06/2026 15:41:02"},{"type":"diesel","price":1.879,"self":true,"updatedAt":"27/06/2026 15:41:02"}]},{"id":"14887","lat":45.94103662411109,"lon":11.267635868354773,"name":"LORO F.LLI SPA","brand":"Loro","address":"fraz. Gionghi 116 38046, LAVARONE, TN","prices":[{"type":"petrol","price":1.849,"self":true,"updatedAt":"29/06/2026 22:47:37"},{"type":"diesel","price":1.949,"self":true,"updatedAt":"29/06/2026 22:47:37"}]},{"id":"24029","lat":45.93935863521618,"lon":11.254303539985486,"name":"STENGHELE F.LLI","brand":"Esso","address":"VIA TRIESTE 18 38046, LAVARONE, TN","prices":[{"type":"petrol","price":1.819,"self":true,"updatedAt":"29/06/2026 07:45:23"},{"type":"diesel","price":1.899,"self":true,"updatedAt":"29/06/2026 07:45:23"}]},{"id":"42339","lat":45.805697889160406,"lon":11.358903033065758,"name":"Costantin/Facci Emilio srl Arsiero","brand":"Costantin","address":"VIA DEI LONGHI 5 36011, ARSIERO, VI","prices":[{"type":"petrol","price":1.799,"self":true,"updatedAt":"29/06/2026 23:43:11"},{"type":"diesel","price":1.899,"self":true,"updatedAt":"29/06/2026 23:43:11"}]},{"id":"48133","lat":45.86699809519862,"lon":11.476533767145684,"name":"Bianco Canove di Roana","brand":"Bianco Carburanti","address":"VIA ROMA 93 36010, ASIAGO, VI","prices":[{"type":"petrol","price":1.795,"self":true,"updatedAt":"29/06/2026 09:56:45"},{"type":"diesel","price":1.875,"self":true,"updatedAt":"29/06/2026 09:56:45"}]},{"id":"44990","lat":45.870089082091276,"lon":11.49846305180387,"name":"Q8","brand":"Q8","address":"VIA VERDI 91 36012, ASIAGO, VI","prices":[{"type":"petrol","price":1.799,"self":true,"updatedAt":"30/06/2026 06:32:15"},{"type":"diesel","price":1.879,"self":true,"updatedAt":"30/06/2026 06:32:15"},{"type":"lpg","price":0.809,"self":true,"updatedAt":"30/06/2026 06:32:15"}]},{"id":"53075","lat":45.773741,"lon":11.450613,"name":"6988","brand":"Tamoil","address":"SETTE COMUNI 9 36030, CALTRANO, VI","prices":[{"type":"petrol","price":1.779,"self":true,"updatedAt":"29/06/2026 23:38:10"},{"type":"diesel","price":1.879,"self":true,"updatedAt":"29/06/2026 23:38:10"}]},{"id":"46938","lat":45.766699701913254,"lon":11.455403566360474,"name":"BENZA CHIUPPANO","brand":"Benza","address":"VIA PONTE DEI GRANATIERI 2 36010, CHIUPPANO, VI","prices":[{"type":"petrol","price":1.795,"self":true,"updatedAt":"29/06/2026 00:32:17"},{"type":"diesel","price":1.887,"self":true,"updatedAt":"29/06/2026 00:32:17"},{"type":"methane","price":1.599,"self":false,"updatedAt":"29/06/2026 00:32:17"},{"type":"lpg","price":0.799,"self":false,"updatedAt":"29/06/2026 00:32:17"}]},{"id":"56942","lat":45.7890502,"lon":11.4119704,"name":"ENI","brand":"Agip Eni","address":"GRANATIERI DI SARDEGNA 20 36010, COGOLLO DEL CENGIO, VI","prices":[{"type":"petrol","price":1.824,"self":true,"updatedAt":"29/06/2026 00:11:17"},{"type":"diesel","price":1.884,"self":true,"updatedAt":"29/06/2026 20:46:07"},{"type":"lpg","price":0.774,"self":false,"updatedAt":"30/06/2026 07:38:13"}]},{"id":"6329","lat":45.75420644043596,"lon":11.43224300429597,"name":"BONIFACI S.N.C.","brand":"Loro","address":"Statale 350 di Folgaria e di Val d'Astico, Km. 56, dir. SCHIO 72 36013, PIOVENE ROCCHETTE, VI","prices":[{"type":"petrol","price":1.789,"self":true,"updatedAt":"26/06/2026 06:59:42"},{"type":"diesel","price":1.879,"self":true,"updatedAt":"26/06/2026 06:59:42"}]},{"id":"6516","lat":45.75672162957184,"lon":11.437268351078728,"name":"PIOVENE ROCCHETTE GORIZIA 7","brand":"Q8","address":"VIA GORIZIA 7 36013, PIOVENE ROCCHETTE, VI","prices":[{"type":"petrol","price":1.749,"self":true,"updatedAt":"29/06/2026 15:33:11"},{"type":"diesel","price":1.829,"self":true,"updatedAt":"29/06/2026 15:33:11"}]},{"id":"61222","lat":45.8372,"lon":11.43222,"name":"roana","brand":"Agip Eni","address":"CAMPIELLO 52 36010, ROANA, VI","prices":[{"type":"petrol","price":1.799,"self":true,"updatedAt":"30/06/2026 00:05:47"},{"type":"diesel","price":1.878,"self":true,"updatedAt":"29/06/2026 15:04:22"}]},{"id":"12500","lat":45.85681605479475,"lon":11.348846853510508,"name":"DUE ESSE CARBURANTI","brand":"Pompe Bianche","address":"VIA BARCHI  36040, TONEZZA DEL CIMONE, VI","prices":[{"type":"petrol","price":1.845,"self":true,"updatedAt":"25/06/2026 13:52:34"},{"type":"diesel","price":1.919,"self":true,"updatedAt":"25/06/2026 13:52:34"}]},{"id":"61592","lat":45.86747,"lon":11.36099,"name":"COSTANTIN VALDASTICO","brand":"Costantin","address":"Via Soglio 1  36040, VALDASTICO, VI","prices":[{"type":"petrol","price":1.869,"self":true,"updatedAt":"28/06/2026 21:30:31"},{"type":"diesel","price":1.979,"self":true,"updatedAt":"28/06/2026 21:30:31"}]},{"id":"63209","lat":45.89206338900546,"lon":11.348424226299755,"name":"LORO F.LLI SPA - VALDASTICO","brand":"Loro","address":"Via Ponte Maso Valdastico  36040, VALDASTICO, VI","prices":[{"type":"petrol","price":1.799,"self":true,"updatedAt":"30/06/2026 07:49:00"},{"type":"diesel","price":1.899,"self":true,"updatedAt":"30/06/2026 07:49:00"}]}]