[{"id":"37758","lat":45.771158072132465,"lon":9.811464920639992,"name":"ALBINO","brand":"Pompe Bianche","address":"VIA PROVINCIALE KM 14,680  24021, ALBINO, BG","prices":[{"type":"petrol","price":1.809,"self":true,"updatedAt":"30/06/2026 23:23:55"},{"type":"diesel","price":1.857,"self":true,"updatedAt":"30/06/2026 23:23:55"}]},{"id":"57361","lat":45.756435,"lon":9.79027,"name":"1501 ALBINO","brand":"Agip Eni","address":"Via G. Marconi SNC, ALBINO, BG","prices":[{"type":"petrol","price":1.809,"self":true,"updatedAt":"30/06/2026 00:17:43"},{"type":"diesel","price":1.889,"self":true,"updatedAt":"30/06/2026 00:17:43"}]},{"id":"46000","lat":45.75897949033496,"lon":9.798786109544835,"name":"CHOUDRY DI RAZA REHMAN","brand":"Esso","address":"via provinciale  10 24021, ALBINO, BG","prices":[{"type":"petrol","price":1.799,"self":true,"updatedAt":"01/07/2026 07:52:13"},{"type":"diesel","price":1.889,"self":true,"updatedAt":"01/07/2026 07:52:13"}]},{"id":"55054","lat":45.7660693,"lon":9.8087945,"name":"COIL ALBINO","brand":"COIL","address":"Via Provinciale 58  24021, ALBINO, BG","prices":[{"type":"petrol","price":1.757,"self":true,"updatedAt":"01/07/2026 00:08:15"},{"type":"diesel","price":1.857,"self":true,"updatedAt":"01/07/2026 00:08:15"}]},{"id":"36660","lat":45.75201640564106,"lon":9.830019101500511,"name":"ERNESTO RONDINI SRL ALBINO","brand":"Ernesto Rondini","address":"VIA LUNGA 14 24021, ALBINO, BG","prices":[{"type":"petrol","price":1.749,"self":true,"updatedAt":"30/06/2026 09:49:16"},{"type":"diesel","price":1.839,"self":true,"updatedAt":"30/06/2026 09:49:16"}]},{"id":"57936","lat":45.77865627274488,"lon":9.819413694753163,"name":"la roggia","brand":"Shell","address":"ex  strada statale 671 km 26+825 13 24121, ALBINO, BG","prices":[{"type":"petrol","price":1.799,"self":true,"updatedAt":"29/06/2026 19:04:26"},{"type":"diesel","price":1.889,"self":true,"updatedAt":"29/06/2026 19:04:26"},{"type":"methane","price":1.599,"self":false,"updatedAt":"29/06/2026 19:04:26"},{"type":"lpg","price":0.729,"self":false,"updatedAt":"29/06/2026 19:04:26"}]},{"id":"30080","lat":45.83697654166874,"lon":9.870435297489166,"name":"area di servizio carburanti di ramic semir","brand":"Agip Eni","address":"VIA Serio 70 24020, CASNIGO (BG) 70 24020, CASNIGO, BG","prices":[{"type":"petrol","price":1.819,"self":true,"updatedAt":"01/07/2026 00:05:05"},{"type":"diesel","price":1.889,"self":true,"updatedAt":"01/07/2026 00:05:05"},{"type":"methane","price":1.599,"self":false,"updatedAt":"01/07/2026 00:05:05"},{"type":"lpg","price":0.719,"self":false,"updatedAt":"01/07/2026 00:05:05"}]},{"id":"55880","lat":45.804508689636734,"lon":9.865437613492132,"name":"IP - 45780","brand":"Api-Ip","address":"Via Lungo Romna 18 24020, CASNIGO, BG","prices":[{"type":"petrol","price":1.899,"self":true,"updatedAt":"15/06/2026 18:11:32"},{"type":"diesel","price":1.999,"self":true,"updatedAt":"15/06/2026 18:11:31"}]},{"id":"18642","lat":45.777867844663234,"lon":9.821380260852717,"name":"bazzana","brand":"Pompe Bianche","address":"VIA VENETO 57 24020, CENE, BG","prices":[{"type":"petrol","price":1.899,"self":false,"updatedAt":"01/07/2026 07:14:44"}]},{"id":"60495","lat":45.889669,"lon":9.953457,"name":"CB AUTORIPARAZIONI SNC DI CACCIA VENIERO","brand":"Esso","address":"VITTORIO EMANUELE 55 24023, CLUSONE, BG","prices":[{"type":"petrol","price":1.799,"self":true,"updatedAt":"29/06/2026 12:22:40"},{"type":"diesel","price":1.879,"self":true,"updatedAt":"29/06/2026 12:22:40"}]},{"id":"34292","lat":45.87452699916841,"lon":9.905160516500473,"name":"CLUSONE","brand":"Pompe Bianche","address":"VIA MANZONI SNC  24023, CLUSONE, BG","prices":[{"type":"petrol","price":1.799,"self":true,"updatedAt":"30/06/2026 23:23:48"},{"type":"diesel","price":1.859,"self":true,"updatedAt":"30/06/2026 13:38:07"}]},{"id":"56043","lat":45.88736603139,"lon":9.9364149570465,"name":"SHELL CLUSONE V.LE EUROPA, 10","brand":"Shell","address":"EUROPA 10 24023, CLUSONE, BG","prices":[{"type":"petrol","price":1.799,"self":true,"updatedAt":"01/07/2026 07:30:39"},{"type":"diesel","price":1.879,"self":true,"updatedAt":"01/07/2026 07:30:39"}]},{"id":"10404","lat":45.88436940233807,"lon":9.934443533420563,"name":"union","brand":"Pompe Bianche","address":"VIA EUROPA 23 24023, CLUSONE, BG","prices":[{"type":"petrol","price":1.779,"self":true,"updatedAt":"29/06/2026 07:23:14"},{"type":"diesel","price":1.879,"self":true,"updatedAt":"29/06/2026 07:23:14"}]},{"id":"35106","lat":45.88296121090746,"lon":9.960627257823944,"name":"UNION","brand":"Pompe Bianche","address":"ex ss671 km 35+900  24023, CLUSONE, BG","prices":[{"type":"petrol","price":1.799,"self":true,"updatedAt":"29/06/2026 07:27:09"},{"type":"diesel","price":1.899,"self":true,"updatedAt":"29/06/2026 07:27:09"},{"type":"methane","price":1.599,"self":false,"updatedAt":"29/06/2026 07:27:09"},{"type":"lpg","price":0.759,"self":false,"updatedAt":"29/06/2026 07:27:09"}]},{"id":"4504","lat":45.813185433108394,"lon":9.858056970078678,"name":"STAZIONE DI SERVIZIO","brand":"Pompe Bianche","address":"VIA ROMA 21/B 24020, COLZATE, BG","prices":[{"type":"petrol","price":1.765,"self":true,"updatedAt":"30/06/2026 08:32:26"},{"type":"diesel","price":1.845,"self":true,"updatedAt":"30/06/2026 08:32:26"}]},{"id":"24262","lat":45.78718718515067,"lon":9.999953364418047,"name":"Oil Invest 2000 srl - Endine","brand":"Pompe Bianche","address":"Via Gaiano 6 24060, ENDINE GAIANO, BG","prices":[{"type":"petrol","price":1.799,"self":true,"updatedAt":"30/06/2026 23:38:18"},{"type":"diesel","price":1.869,"self":true,"updatedAt":"30/06/2026 23:38:18"}]},{"id":"51252","lat":45.788153029660734,"lon":9.995158890308002,"name":"RIVIERA STATION 86 DI KOLA AFRIM","brand":"Pompe Bianche","address":"42 del Tonale e della Mendola, Km. 53.679, EST 66  24060, ENDINE GAIANO, BG","prices":[{"type":"petrol","price":1.799,"self":true,"updatedAt":"30/06/2026 14:25:52"},{"type":"diesel","price":1.859,"self":true,"updatedAt":"30/06/2026 14:25:52"}]},{"id":"60223","lat":45.79756630349198,"lon":9.839347200338748,"name":"Q8 - PV1410","brand":"Q8","address":"Via Roma 1/A 24020, FIORANO AL SERIO, BG","prices":[{"type":"petrol","price":1.799,"self":true,"updatedAt":"01/07/2026 01:11:58"},{"type":"diesel","price":1.889,"self":true,"updatedAt":"01/07/2026 07:39:46"}]},{"id":"54095","lat":45.98913773452001,"lon":9.943919067459092,"name":"FLLI.SCOLARI SNC","brand":"Pompe Bianche","address":"VIA PEDIGNELA 7 24020, GANDELLINO (BG) 7 24020, GANDELLINO, BG","prices":[{"type":"petrol","price":1.828,"self":true,"updatedAt":"30/06/2026 17:02:27"},{"type":"diesel","price":1.898,"self":true,"updatedAt":"30/06/2026 17:02:27"}]},{"id":"7321","lat":45.80837990074596,"lon":9.895094880116972,"name":"DISTRIBUTORE IP DI CAMPANA TOMMASO","brand":"Agip Eni","address":"VIA S.G. BOSCO 31 24024, GANDINO, BG","prices":[{"type":"petrol","price":1.809,"self":true,"updatedAt":"30/06/2026 23:49:41"},{"type":"diesel","price":1.899,"self":true,"updatedAt":"30/06/2026 23:49:41"}]},{"id":"62360","lat":45.79426868855852,"lon":9.831040982336306,"name":"105508 GAZZANIGA","brand":"Esso","address":"BATTISTI 60 24025, GAZZANIGA, BG","prices":[{"type":"petrol","price":1.799,"self":true,"updatedAt":"30/06/2026 11:54:01"},{"type":"diesel","price":1.899,"self":true,"updatedAt":"30/06/2026 11:54:01"}]},{"id":"11480","lat":45.79344364278868,"lon":9.829414263367653,"name":"GAZZANIGA-VIA C.BATTISTI 78","brand":"Q8","address":"VIA C.BATTISTI 78 24025, GAZZANIGA, BG","prices":[{"type":"petrol","price":1.799,"self":true,"updatedAt":"01/07/2026 07:43:00"},{"type":"diesel","price":1.889,"self":true,"updatedAt":"01/07/2026 07:43:00"}]},{"id":"39533","lat":45.790476550924076,"lon":9.825877100229263,"name":"SKARBURATI SNC","brand":"Agip Eni","address":"VIA CESARE BATTISTI 118 24025, GAZZANIGA, BG","prices":[{"type":"petrol","price":1.809,"self":true,"updatedAt":"30/06/2026 00:28:28"},{"type":"diesel","price":1.889,"self":true,"updatedAt":"30/06/2026 00:28:28"}]},{"id":"13727","lat":45.96077807180485,"lon":9.926552474498749,"name":"Gromo Cars Services","brand":"Shell","address":"VIA PAPA GIOVANNI XXIII  24020, GROMO, BG","prices":[{"type":"petrol","price":1.839,"self":true,"updatedAt":"29/06/2026 11:46:27"},{"type":"diesel","price":1.929,"self":true,"updatedAt":"29/06/2026 11:46:27"}]},{"id":"22235","lat":45.800616145095006,"lon":9.882158279924624,"name":"MERLA MANUEL","brand":"Esso","address":"VIA VIANI 28 24026, LEFFE, BG","prices":[{"type":"petrol","price":1.878,"self":true,"updatedAt":"26/06/2026 12:26:49"},{"type":"diesel","price":1.945,"self":true,"updatedAt":"26/06/2026 12:26:49"}]},{"id":"54544","lat":45.75499896885285,"lon":9.91200362698366,"name":"IP MONASTEROLO","brand":"Api-Ip","address":"KENNEDY 2 24060, MONASTEROLO DEL CASTELLO, BG","prices":[{"type":"petrol","price":1.829,"self":true,"updatedAt":"26/06/2026 16:53:14"},{"type":"diesel","price":1.919,"self":true,"updatedAt":"26/06/2026 16:53:14"}]},{"id":"50940","lat":45.891294847596114,"lon":9.767852418587752,"name":"OLTRE IL COLLE","brand":"Api-Ip","address":"Piazzale degli Alpini 15 24013, OLTRE IL COLLE, BG","prices":[{"type":"petrol","price":1.879,"self":true,"updatedAt":"24/06/2026 11:41:53"},{"type":"diesel","price":1.999,"self":true,"updatedAt":"24/06/2026 11:41:53"}]},{"id":"60652","lat":45.86922172316312,"lon":9.888001084327698,"name":"LK PONTE NOSSA","brand":"Api-Ip","address":"Via Europa 43 24028, PONTE NOSSA, BG","prices":[{"type":"petrol","price":1.789,"self":true,"updatedAt":"30/06/2026 23:22:30"},{"type":"diesel","price":1.859,"self":true,"updatedAt":"30/06/2026 10:52:11"}]},{"id":"44798","lat":45.8904611674297,"lon":9.982181973522074,"name":"ROVETTA","brand":"Pompe Bianche","address":"VIA FANTONI 59 24020, ROVETTA, BG","prices":[{"type":"petrol","price":1.839,"self":true,"updatedAt":"01/07/2026 00:22:13"},{"type":"diesel","price":1.922,"self":true,"updatedAt":"01/07/2026 00:22:13"}]},{"id":"50269","lat":45.89060186689952,"lon":9.984277201223355,"name":"ROVETTA","brand":"Api-Ip","address":"Via A. Fantoni  53 24020, ROVETTA, BG","prices":[{"type":"petrol","price":1.829,"self":true,"updatedAt":"25/06/2026 11:07:09"},{"type":"diesel","price":1.939,"self":true,"updatedAt":"25/06/2026 11:07:09"}]},{"id":"11290","lat":45.902620380813126,"lon":9.92340087890625,"name":"STAZIONE SERVIZIO Q8 DI CASTELLETTI LAURA","brand":"Q8","address":"VIA PROVINCIALE 489 24020, VILLA D'OGNA, BG","prices":[{"type":"petrol","price":1.799,"self":true,"updatedAt":"30/06/2026 09:16:22"},{"type":"diesel","price":1.889,"self":true,"updatedAt":"30/06/2026 09:16:22"}]}]