[{"id":"60975","lat":46.08581,"lon":10.72137,"name":"Q8 PELUGO","brand":"Q8","address":"S.S. 239 KM.40 +675  38088, PELUGO, TN","prices":[{"type":"petrol","price":1.879,"self":true,"updatedAt":"19/06/2026 13:43:51"},{"type":"diesel","price":1.949,"self":true,"updatedAt":"19/06/2026 13:43:51"}]},{"id":"31671","lat":46.099919633941894,"lon":10.735918509400335,"name":"F.LLI BONAPACE SNC - FIRMIN","brand":"Firmin","address":"BORZAGO 10 38088, SPIAZZO, TN","prices":[{"type":"petrol","price":1.869,"self":true,"updatedAt":"20/06/2026 06:03:10"},{"type":"diesel","price":1.959,"self":true,"updatedAt":"20/06/2026 06:03:10"}]},{"id":"56397","lat":46.030728,"lon":10.724266,"name":"FIRMIN - TIONE","brand":"Firmin","address":"TRENTO 12 38079, TIONE DI TRENTO, TN","prices":[{"type":"petrol","price":1.929,"self":true,"updatedAt":"18/06/2026 09:11:35"},{"type":"diesel","price":2.049,"self":true,"updatedAt":"18/06/2026 09:11:34"}]},{"id":"62126","lat":46.0411,"lon":10.72712,"name":"Q8 TIONE DI TRENTO","brand":"Q8","address":"Via Circonvallazione 2  38086, TIONE DI TRENTO, TN","prices":[{"type":"petrol","price":1.879,"self":true,"updatedAt":"19/06/2026 13:40:50"},{"type":"diesel","price":1.949,"self":true,"updatedAt":"19/06/2026 13:40:50"}]},{"id":"23006","lat":46.038119959371706,"lon":10.726717630094186,"name":"SCANDOLARI","brand":"Esso","address":"VIA PINZOLO 24 38079, TIONE DI TRENTO, TN","prices":[{"type":"petrol","price":1.899,"self":true,"updatedAt":"21/06/2026 00:59:40"},{"type":"diesel","price":1.949,"self":true,"updatedAt":"21/06/2026 00:59:40"}]},{"id":"37197","lat":46.03984609679012,"lon":10.74717029929161,"name":"PERRI","brand":"Agip Eni","address":"Statale 237 del Caffaro, Km. 88, dir. NORD - 38079, ZUCLO, TN","prices":[{"type":"petrol","price":1.89,"self":true,"updatedAt":"20/06/2026 23:40:12"},{"type":"diesel","price":1.999,"self":true,"updatedAt":"20/06/2026 23:40:12"}]}]