[{"id":"24355","lat":46.150079669636185,"lon":11.270748227834702,"name":"Auto Service S.n.c di Tessadri Patrick","brand":"Firmin","address":"DEI DUE LAGHI 11 38042, BASELGA DI PINÈ, TN","prices":[{"type":"petrol","price":1.809,"self":true,"updatedAt":"27/06/2026 07:40:56"},{"type":"diesel","price":1.899,"self":true,"updatedAt":"27/06/2026 07:40:56"}]},{"id":"59654","lat":46.046192,"lon":11.452369,"name":"3516  BORGO VALSUGANA","brand":"Agip Eni","address":"V.LE VICENZA  62, BORGO VALSUGANA, TN","prices":[{"type":"petrol","price":1.829,"self":true,"updatedAt":"30/06/2026 00:21:36"},{"type":"diesel","price":1.889,"self":true,"updatedAt":"30/06/2026 00:21:36"}]},{"id":"61165","lat":46.05127678257824,"lon":11.445403455240163,"name":"esso","brand":"Esso","address":"Via Roma 25 38051, BORGO VALSUGANA, TN","prices":[{"type":"petrol","price":1.799,"self":true,"updatedAt":"29/06/2026 10:56:04"},{"type":"diesel","price":1.869,"self":true,"updatedAt":"29/06/2026 11:32:04"}]},{"id":"60668","lat":46.05122686106046,"lon":11.484535924729858,"name":"DELTA ENERGY - Castelnuovo Valsugana (TN)","brand":"Delta energy","address":"Variante ss 47. KM 93+869 SN 38050, CASTELNUOVO, TN","prices":[{"type":"petrol","price":1.789,"self":true,"updatedAt":"29/06/2026 20:17:04"},{"type":"diesel","price":1.869,"self":true,"updatedAt":"29/06/2026 20:17:06"},{"type":"lpg","price":0.699,"self":false,"updatedAt":"29/06/2026 21:46:54"}]},{"id":"28150","lat":46.049026620200074,"lon":11.475348472595215,"name":"GNP CASTELNUOVO","brand":"GNP","address":"VIA LOC.SPAGOLLE SS.N.47 LATO DX DIREZ.TRENTO S.N. 38050, CASTELNUOVO (TN)  38050, CASTELNUOVO, TN","prices":[{"type":"petrol","price":1.787,"self":true,"updatedAt":"25/06/2026 10:41:31"},{"type":"diesel","price":1.867,"self":true,"updatedAt":"25/06/2026 10:41:31"},{"type":"lpg","price":0.697,"self":true,"updatedAt":"25/06/2026 10:41:31"}]},{"id":"45612","lat":46.050749894319175,"lon":11.484500449068832,"name":"Ip","brand":"Api-Ip","address":"47 della Valsugana, Km. 93+800, Padova  38050, CASTELNUOVO, TN","prices":[{"type":"petrol","price":1.789,"self":true,"updatedAt":"29/06/2026 11:18:52"},{"type":"diesel","price":1.869,"self":true,"updatedAt":"29/06/2026 11:18:52"}]},{"id":"34936","lat":46.04873919355712,"lon":11.475836634635925,"name":"LORO F.LLI SPA - CASTELNUOVO","brand":"Loro","address":"Statale 47 della Valsugana, Km. 96 + 700, dir. Bassano del Grappa  38050, CASTELNUOVO, TN","prices":[{"type":"petrol","price":1.787,"self":true,"updatedAt":"30/06/2026 07:48:42"},{"type":"diesel","price":1.867,"self":true,"updatedAt":"30/06/2026 07:48:42"},{"type":"lpg","price":0.697,"self":false,"updatedAt":"30/06/2026 07:48:42"}]},{"id":"58184","lat":46.002926,"lon":11.295438,"name":"13545  LEVICO TERME","brand":"Agip Eni","address":"SS.47 KM.110+377 DIREZIONE BASSANO LOC. MAINES  7, LEVICO TERME, TN","prices":[{"type":"petrol","price":1.829,"self":true,"updatedAt":"29/06/2026 23:34:27"},{"type":"diesel","price":1.889,"self":true,"updatedAt":"29/06/2026 23:34:27"}]},{"id":"25673","lat":46.004236368068185,"lon":11.28950851506579,"name":"LORO F.LLI SPA - LEVICO","brand":"Loro","address":"VIA CLAUDIA AUGUSTA 29, 38056, LEVICO TERME, TN","prices":[{"type":"petrol","price":1.829,"self":true,"updatedAt":"30/06/2026 07:48:50"},{"type":"diesel","price":1.899,"self":true,"updatedAt":"30/06/2026 07:48:50"}]},{"id":"50544","lat":46.044704274751616,"lon":11.422647833824152,"name":"ENI METANO E GPL RONCEGNO","brand":"Agip Eni","address":"47 della Valsugana, Km. 98+900, TRENTO - 38060, RONCEGNO TERME, TN","prices":[{"type":"petrol","price":1.849,"self":true,"updatedAt":"30/06/2026 00:20:03"},{"type":"diesel","price":1.899,"self":true,"updatedAt":"30/06/2026 00:20:03"},{"type":"methane","price":1.599,"self":false,"updatedAt":"29/06/2026 23:36:02"},{"type":"lpg","price":0.759,"self":false,"updatedAt":"29/06/2026 23:36:02"}]},{"id":"4408","lat":46.03427284759556,"lon":11.395140460633684,"name":"GNP MARTER","brand":"GNP","address":"VIA FRAZIONE MARTER KM.101+435 SS. 47 38050, RONCEGNO (TN)  38050, RONCEGNO TERME, TN","prices":[{"type":"petrol","price":1.787,"self":true,"updatedAt":"29/06/2026 00:38:44"},{"type":"diesel","price":1.867,"self":true,"updatedAt":"29/06/2026 00:38:44"}]},{"id":"11080","lat":46.187932202330416,"lon":11.25898540019989,"name":"Distributore IP","brand":"Api-Ip","address":"VIA SCANCIO 30, 38047, SEGONZANO, TN","prices":[{"type":"petrol","price":1.799,"self":true,"updatedAt":"26/06/2026 17:43:39"},{"type":"diesel","price":1.899,"self":true,"updatedAt":"26/06/2026 17:43:39"}]},{"id":"61727","lat":46.06928422055982,"lon":11.48268575012014,"name":"SMP TELVE VALSUGANA","brand":"San Marco Petroli","address":"Via Nale 3  38050, TELVE, TN","prices":[{"type":"petrol","price":1.789,"self":true,"updatedAt":"29/06/2026 23:45:47"},{"type":"diesel","price":1.869,"self":true,"updatedAt":"29/06/2026 23:45:47"}]}]