[{"id":"61690","lat":46.41616987536346,"lon":11.249281167984009,"name":"SMP CALDARO","brand":"San Marco Petroli","address":"VIA VIA CIRCONVALLAZIONE 1 39052, CALDARO SULLA STRADA DEL VINO (BZ) 2 39052, CALDARO SULLA STRADA DEL VINO, BZ","prices":[{"type":"petrol","price":1.829,"self":true,"updatedAt":"29/06/2026 00:01:02"},{"type":"diesel","price":1.909,"self":true,"updatedAt":"28/06/2026 19:52:09"}]},{"id":"11142","lat":46.28352952101621,"lon":11.240644454956055,"name":"ESSO SAN FLORIANO","brand":"Esso","address":"Statale 12 dell'Abetone e del Brennero, Km. 411, dir. BRENNERO - 39044, EGNA, BZ","prices":[{"type":"petrol","price":1.829,"self":true,"updatedAt":"27/06/2026 08:32:23"},{"type":"diesel","price":1.899,"self":true,"updatedAt":"27/06/2026 08:32:23"}]},{"id":"60270","lat":46.43665999999998,"lon":11.139861341104513,"name":"ESSO - RETITALIA","brand":"Esso","address":"PALADE 49 38013, BORGO D'ANAUNIA, TN","prices":[{"type":"petrol","price":1.829,"self":true,"updatedAt":"22/06/2026 16:47:17"},{"type":"diesel","price":1.919,"self":true,"updatedAt":"22/06/2026 16:47:17"}]},{"id":"23679","lat":46.431569297246405,"lon":11.107855426270817,"name":"Flaim Carlo","brand":"Tamoil","address":"LIBERTA' 4/B 38028, BREZ, TN","prices":[{"type":"petrol","price":1.829,"self":true,"updatedAt":"28/06/2026 23:41:59"},{"type":"diesel","price":1.889,"self":true,"updatedAt":"28/06/2026 14:12:02"}]},{"id":"21942","lat":46.268171661359894,"lon":11.036190480720961,"name":"TAMOIL","brand":"Tamoil","address":"VIA PRINCIPALE 6/A 38010, CAMPODENNO, TN","prices":[{"type":"petrol","price":1.969,"self":false,"updatedAt":"26/06/2026 18:27:48"},{"type":"diesel","price":2.069,"self":false,"updatedAt":"26/06/2026 18:27:48"}]},{"id":"62188","lat":46.35302,"lon":11.044403,"name":"3517 CLES","brand":"Agip Eni","address":"SS. 43 KM. 6+707 - VIA TRENTO  168, CLES, TN","prices":[{"type":"petrol","price":1.829,"self":true,"updatedAt":"29/06/2026 00:26:21"},{"type":"diesel","price":1.889,"self":true,"updatedAt":"29/06/2026 00:26:21"}]},{"id":"7579","lat":46.369755339387815,"lon":11.033705018246451,"name":"ADS PUNTO FUEL","brand":"Pompe Bianche","address":"Statale 43 della Val di Non, Km. 4+450, dir. Nord - 38023, CLES, TN","prices":[{"type":"petrol","price":1.825,"self":true,"updatedAt":"25/06/2026 03:37:27"},{"type":"diesel","price":1.905,"self":true,"updatedAt":"25/06/2026 03:37:27"}]},{"id":"28132","lat":46.28569211318524,"lon":11.038302585786596,"name":"ENERGY di IOB FRANCA","brand":"San Marco Petroli","address":"VIA PROVINCIALE 19 38093, CONTÀ, TN","prices":[{"type":"petrol","price":1.969,"self":true,"updatedAt":"29/06/2026 07:39:11"},{"type":"diesel","price":2.069,"self":true,"updatedAt":"29/06/2026 07:39:11"}]},{"id":"53067","lat":46.347322,"lon":11.07985,"name":"6959","brand":"Tamoil","address":"CARES SP N. 7 S.N. 38010, COREDO, TN","prices":[{"type":"petrol","price":1.829,"self":true,"updatedAt":"28/06/2026 13:42:07"},{"type":"diesel","price":1.889,"self":true,"updatedAt":"28/06/2026 13:42:07"}]},{"id":"4130","lat":46.265686362648175,"lon":11.060780882835388,"name":"Area di servizio Q8 3 Cime di Covi Nicola","brand":"Q8","address":"43 della Val di Non, Km. 19, Mendola 9/A 38010, DENNO, TN","prices":[{"type":"petrol","price":1.849,"self":true,"updatedAt":"29/06/2026 07:03:23"},{"type":"diesel","price":2.089,"self":true,"updatedAt":"29/06/2026 07:03:23"},{"type":"lpg","price":0.869,"self":false,"updatedAt":"29/06/2026 07:03:23"}]},{"id":"27596","lat":46.40420119752083,"lon":11.018524020910263,"name":"Tamoil","brand":"Tamoil","address":"S.P. 6 KM 1+765  38020, LIVO, TN","prices":[{"type":"petrol","price":1.829,"self":true,"updatedAt":"28/06/2026 14:04:12"},{"type":"diesel","price":1.889,"self":true,"updatedAt":"28/06/2026 23:34:41"}]},{"id":"50275","lat":46.3931345,"lon":11.0629725,"name":"DISTRIBUTORE IP REVO'","brand":"Api-Ip","address":"Via Annibale Martini 58  38028, NOVELLA, TN","prices":[{"type":"petrol","price":1.929,"self":true,"updatedAt":"26/06/2026 10:20:33"},{"type":"diesel","price":1.989,"self":true,"updatedAt":"26/06/2026 10:20:33"}]},{"id":"53934","lat":46.33594,"lon":11.062518,"name":"3540 Taio","brand":"Agip Eni","address":"Via Santa Giustina, 11  11 38012, PREDAIA, TN","prices":[{"type":"petrol","price":1.829,"self":true,"updatedAt":"29/06/2026 00:14:27"},{"type":"diesel","price":1.889,"self":true,"updatedAt":"29/06/2026 00:14:27"}]},{"id":"4836","lat":46.32939226281641,"lon":11.064199218516933,"name":"MENDINI D. SRL","brand":"Esso","address":"THOMAS A. EDISON 46 38012, PREDAIA, TN","prices":[{"type":"petrol","price":1.894,"self":true,"updatedAt":"28/06/2026 10:54:19"},{"type":"diesel","price":1.994,"self":true,"updatedAt":"28/06/2026 10:54:19"},{"type":"lpg","price":0.874,"self":false,"updatedAt":"28/06/2026 10:54:19"}]},{"id":"23637","lat":46.25038358701537,"lon":11.182149172213713,"name":"STAZIONE SERVIZIO Q8 S.P.90","brand":"Q8","address":"4 NOVEMBRE 61 38030, ROVERÈ DELLA LUNA, TN","prices":[{"type":"petrol","price":1.829,"self":true,"updatedAt":"27/06/2026 08:55:25"},{"type":"diesel","price":1.939,"self":true,"updatedAt":"27/06/2026 08:55:25"}]},{"id":"52983","lat":46.367711,"lon":11.076794,"name":"6961","brand":"Tamoil","address":"REZIA 69 38010, SANZENO, TN","prices":[{"type":"petrol","price":1.829,"self":true,"updatedAt":"28/06/2026 23:42:32"},{"type":"diesel","price":1.899,"self":true,"updatedAt":"28/06/2026 23:42:32"}]},{"id":"12750","lat":46.42707659520427,"lon":11.141900193871834,"name":"bonani giuliano","brand":"Agip Eni","address":"C. BATTISTI 1 38011, SARNONICO, TN","prices":[{"type":"petrol","price":1.829,"self":true,"updatedAt":"29/06/2026 00:03:10"},{"type":"diesel","price":1.899,"self":true,"updatedAt":"29/06/2026 00:03:10"},{"type":"lpg","price":0.852,"self":false,"updatedAt":"29/06/2026 00:03:10"}]},{"id":"61234","lat":46.33351,"lon":11.02576,"name":"Stazione di servizio Khan Imran","brand":"Api-Ip","address":"Via Vincenzo Maistrelli 98 38019, VILLE D'ANAUNIA, TN","prices":[{"type":"petrol","price":1.839,"self":true,"updatedAt":"26/06/2026 09:32:24"},{"type":"diesel","price":1.939,"self":true,"updatedAt":"26/06/2026 09:32:24"}]}]