[{"id":"25041","lat":46.580020867612895,"lon":11.522723448279976,"name":"Esso PV2406","brand":"Esso","address":"Strada Statale Km. 459 dir. Nord  39040, BARBIANO, BZ","prices":[{"type":"petrol","price":1.899,"self":true,"updatedAt":"19/06/2026 08:01:35"},{"type":"diesel","price":1.979,"self":true,"updatedAt":"19/06/2026 08:01:35"}]},{"id":"52234","lat":46.720299139720424,"lon":11.655217409133911,"name":"ENI 3144 Pit Stop","brand":"Agip Eni","address":"via Peter Mayr 16 39042, BRESSANONE, BZ","prices":[{"type":"petrol","price":1.879,"self":true,"updatedAt":"21/06/2026 01:02:14"},{"type":"diesel","price":1.994,"self":true,"updatedAt":"21/06/2026 01:02:14"}]},{"id":"53567","lat":46.687079,"lon":11.631142,"name":"ENI Station La Mara","brand":"Agip Eni","address":"Via Lahner  39 39042, BRESSANONE, BZ","prices":[{"type":"petrol","price":1.879,"self":true,"updatedAt":"21/06/2026 00:03:51"},{"type":"diesel","price":1.994,"self":true,"updatedAt":"21/06/2026 00:03:51"},{"type":"lpg","price":0.987,"self":false,"updatedAt":"21/06/2026 00:03:51"}]},{"id":"33041","lat":46.70453577576298,"lon":11.649184841391957,"name":"Esso","brand":"Esso","address":"VIA VITTORIO VENETO 57/A 39042, BRESSANONE, BZ","prices":[{"type":"petrol","price":1.899,"self":true,"updatedAt":"20/06/2026 07:41:41"},{"type":"diesel","price":1.949,"self":true,"updatedAt":"20/06/2026 07:41:41"}]},{"id":"50023","lat":46.70864322745706,"lon":11.65183554330825,"name":"Q8 Bressanone","brand":"Q8","address":"Via Vittorio Veneto  37 39042, BRESSANONE, BZ","prices":[{"type":"petrol","price":1.899,"self":true,"updatedAt":"20/06/2026 08:36:00"},{"type":"diesel","price":1.999,"self":true,"updatedAt":"20/06/2026 08:36:00"}]},{"id":"16252","lat":46.709992517136044,"lon":11.661811475393733,"name":"SELFAREA ANGERER","brand":"Agip Eni","address":"VIA PLOSE 13/D 39042, BRESSANONE, BZ","prices":[{"type":"petrol","price":1.879,"self":true,"updatedAt":"21/06/2026 00:56:10"},{"type":"diesel","price":1.994,"self":true,"updatedAt":"21/06/2026 00:56:10"}]},{"id":"57472","lat":46.5734892118721,"lon":11.654889169342043,"name":"Castelrotto Azzalini Energie","brand":"AZZALINI ENERGIE","address":"VIA ARNARIA- FRAZ. RONCADIZZA 25/A 39040, CASTELROTTO, BZ","prices":[{"type":"petrol","price":1.867,"self":true,"updatedAt":"20/06/2026 16:06:30"},{"type":"diesel","price":1.967,"self":true,"updatedAt":"20/06/2026 16:06:30"}]},{"id":"11543","lat":46.5801188821698,"lon":11.639565889549203,"name":"CASTELROTTO-PONTIVES SS 242","brand":"Q8","address":"PONTIVES SS 242 S/N 39040, CASTELROTTO, BZ","prices":[{"type":"petrol","price":1.879,"self":true,"updatedAt":"20/06/2026 08:13:50"},{"type":"diesel","price":1.979,"self":true,"updatedAt":"20/06/2026 08:13:50"}]},{"id":"7806","lat":46.54477951368642,"lon":11.562425488845747,"name":"ESSO","brand":"Esso","address":"VIA SCHLERN 3 39040, CASTELROTTO, BZ","prices":[{"type":"petrol","price":1.889,"self":true,"updatedAt":"19/06/2026 18:07:34"},{"type":"diesel","price":1.999,"self":true,"updatedAt":"19/06/2026 18:07:34"}]},{"id":"35174","lat":46.56339306167539,"lon":11.556902378797531,"name":"GNP CASTELROTTO","brand":"GNP","address":"VIA OSWALD VON WOLKENSTEIN 51 39040, CASTELROTTO (BZ) 51 39040, CASTELROTTO, BZ","prices":[{"type":"petrol","price":1.867,"self":true,"updatedAt":"20/06/2026 23:30:25"},{"type":"diesel","price":1.967,"self":true,"updatedAt":"20/06/2026 23:30:25"}]},{"id":"62759","lat":46.570284457571574,"lon":11.523084983243393,"name":"ISARCO EST","brand":"Agip Eni","address":"A22 BRENNERO-MODENA, Km. 63.55, nord - 39040, CASTELROTTO, BZ","prices":[{"type":"petrol","price":1.979,"self":true,"updatedAt":"17/06/2026 15:40:04"},{"type":"diesel","price":2.059,"self":true,"updatedAt":"17/06/2026 15:40:04"}]},{"id":"62758","lat":46.570284457571574,"lon":11.523084983243393,"name":"ISARCO EST","brand":"Agip Eni","address":"A22 BRENNERO-MODENA, Km. 63.55, nord - 39040, CASTELROTTO, BZ","prices":[{"type":"diesel","price":1.979,"self":true,"updatedAt":"17/06/2026 15:39:50"}]},{"id":"45903","lat":46.570284457571574,"lon":11.523084983243393,"name":"ISARCO EST","brand":"Agip Eni","address":"A22 BRENNERO-MODENA, Km. 63.55, nord - 39040, CASTELROTTO, BZ","prices":[{"type":"petrol","price":1.999,"self":true,"updatedAt":"17/06/2026 15:39:37"},{"type":"diesel","price":2.079,"self":true,"updatedAt":"17/06/2026 15:39:36"}]},{"id":"38788","lat":46.637713253933285,"lon":11.561108082532883,"name":"52575 CHIUSA","brand":"Agip Eni","address":"PIAZZA FRAGES 5  39043, CHIUSA, BZ","prices":[{"type":"petrol","price":1.879,"self":true,"updatedAt":"21/06/2026 00:47:30"},{"type":"diesel","price":1.994,"self":true,"updatedAt":"21/06/2026 00:47:30"}]},{"id":"8134","lat":46.645249780557016,"lon":11.573125720024109,"name":"Q8 Finktankstelle","brand":"Q8","address":"LOC. S.GIUSEPPE 24 39043, CHIUSA, BZ","prices":[{"type":"petrol","price":1.919,"self":true,"updatedAt":"17/06/2026 08:31:03"},{"type":"diesel","price":2.039,"self":true,"updatedAt":"17/06/2026 08:31:03"}]},{"id":"32811","lat":46.51777969679279,"lon":11.504451338623085,"name":"Q8","brand":"Q8","address":"VIA BOLZANO  7 39050, FIÈ ALLO SCILIAR, BZ","prices":[{"type":"petrol","price":1.899,"self":true,"updatedAt":"20/06/2026 07:57:00"},{"type":"diesel","price":2.019,"self":true,"updatedAt":"20/06/2026 07:57:00"}]},{"id":"13692","lat":46.64035997862306,"lon":11.675036251544952,"name":"Firmin - OSCARS","brand":"Firmin","address":"Pizack 5 39040, FUNES, BZ","prices":[{"type":"petrol","price":1.899,"self":true,"updatedAt":"20/06/2026 23:19:38"},{"type":"diesel","price":1.999,"self":true,"updatedAt":"20/06/2026 23:19:38"}]},{"id":"35960","lat":46.60201743626545,"lon":11.559184938669205,"name":"GNP LAION","brand":"GNP","address":"VIA NOVALE 118 39040, LAION (BZ) 118 39040, LAION, BZ","prices":[{"type":"petrol","price":1.867,"self":true,"updatedAt":"20/06/2026 23:31:35"},{"type":"diesel","price":1.967,"self":true,"updatedAt":"20/06/2026 23:31:35"}]},{"id":"9668","lat":46.749013808099285,"lon":11.742802262306213,"name":"DISTRIBUTORE KASER","brand":"Pompe Bianche","address":"VIA LUESEN 7 39040, LUSON, BZ","prices":[{"type":"petrol","price":1.939,"self":true,"updatedAt":"16/06/2026 09:19:05"},{"type":"diesel","price":2.049,"self":true,"updatedAt":"16/06/2026 09:19:05"}]},{"id":"27752","lat":46.567915115175445,"lon":11.685368120670319,"name":"ENI INSAM","brand":"Agip Eni","address":"Statale 242 di Val Gardena e Passo Sella, Km. 14, dir. CHIUSA - 39046, ORTISEI, BZ","prices":[{"type":"petrol","price":1.879,"self":true,"updatedAt":"21/06/2026 00:52:14"},{"type":"diesel","price":1.994,"self":true,"updatedAt":"21/06/2026 00:52:14"},{"type":"methane","price":1.603,"self":false,"updatedAt":"20/06/2026 23:53:47"}]},{"id":"35013","lat":46.56511692678294,"lon":11.693509116170048,"name":"FIRMIN - S. CRISTINA","brand":"Firmin","address":"242 di Val Gardena e Passo Sella, Km. 14+500,   - 39047, SANTA CRISTINA VALGARDENA, BZ","prices":[{"type":"petrol","price":1.897,"self":true,"updatedAt":"18/06/2026 09:11:34"},{"type":"diesel","price":1.999,"self":true,"updatedAt":"18/06/2026 09:11:34"},{"type":"lpg","price":0.887,"self":false,"updatedAt":"18/06/2026 09:11:34"}]},{"id":"46748","lat":46.73229771185635,"lon":11.641673093747613,"name":"PLOSE EST","brand":"Pompe Bianche","address":"A22 BRENNERO-MODENA, Km. 271,00, NORD - 39040, VARNA, BZ","prices":[{"type":"petrol","price":1.968,"self":true,"updatedAt":"21/06/2026 06:02:09"},{"type":"diesel","price":2.038,"self":true,"updatedAt":"21/06/2026 06:02:09"}]},{"id":"46791","lat":46.729677760983805,"lon":11.642483584390106,"name":"PLOSE OVEST","brand":"Tamoil","address":"A22 BRENNERO-MODENA, Km. 42, Sud - 39040, VARNA, BZ","prices":[{"type":"petrol","price":1.998,"self":true,"updatedAt":"20/06/2026 10:28:09"},{"type":"diesel","price":2.048,"self":true,"updatedAt":"20/06/2026 10:24:08"}]},{"id":"50885","lat":46.73310546073396,"lon":11.64954226714898,"name":"Q8 STATION SAS","brand":"Q8","address":"VIA BRENNERO 28 39040, VARNA, BZ","prices":[{"type":"petrol","price":1.899,"self":true,"updatedAt":"18/06/2026 06:41:12"},{"type":"diesel","price":1.999,"self":true,"updatedAt":"18/06/2026 06:41:12"}]},{"id":"4401","lat":46.670913723147144,"lon":11.601199717041368,"name":"GNP VELTURNO","brand":"GNP","address":"VIA PAESE 2 39040, VELTURNO (BZ) 2 39040, VELTURNO, BZ","prices":[{"type":"petrol","price":1.867,"self":true,"updatedAt":"20/06/2026 23:34:30"},{"type":"diesel","price":1.967,"self":true,"updatedAt":"20/06/2026 23:34:30"}]}]