[{"id":"51972","lat":46.8804343676398,"lon":11.435335263489796,"name":"SADOBRE","brand":"Agip Eni","address":"A22 BRENNERO-MODENA, Km. 15,75, Sud - 39040, CAMPO DI TRENS, BZ","prices":[{"type":"petrol","price":1.998,"self":true,"updatedAt":"23/06/2026 14:30:47"},{"type":"diesel","price":2.048,"self":true,"updatedAt":"23/06/2026 14:30:47"}]},{"id":"51973","lat":46.8688019917313,"lon":11.483927013521702,"name":"TRENS EST","brand":"Esso","address":"A22 BRENNERO-MODENA, Km. 20,06, Nord - 39040, CAMPO DI TRENS, BZ","prices":[{"type":"petrol","price":1.947,"self":true,"updatedAt":"23/06/2026 17:20:04"},{"type":"diesel","price":1.998,"self":true,"updatedAt":"23/06/2026 17:20:04"}]},{"id":"51974","lat":46.867925619238655,"lon":11.484362302828256,"name":"TRENS OVEST","brand":"Esso","address":"A22 BRENNERO-MODENA, Km. 20,06, Sud - 39040, CAMPO DI TRENS, BZ","prices":[{"type":"petrol","price":1.947,"self":true,"updatedAt":"26/06/2026 16:29:46"},{"type":"diesel","price":1.998,"self":true,"updatedAt":"26/06/2026 16:29:46"}]},{"id":"61912","lat":46.870669357995205,"lon":11.490202059661856,"name":"ESSO","brand":"Esso","address":"VIA VALLE AURINA 7 39032, CAMPO TURES, BZ","prices":[{"type":"petrol","price":1.849,"self":true,"updatedAt":"22/06/2026 07:53:46"},{"type":"diesel","price":1.919,"self":true,"updatedAt":"22/06/2026 07:53:46"}]},{"id":"40144","lat":46.77066910771632,"lon":11.36789783835411,"name":"GNP - SARENTINO RIO BIANCO","brand":"GNP","address":"LOCALITA' RIO BIANCO 24 39058, SARENTINO (BZ) 24 39058, SARENTINO, BZ","prices":[{"type":"petrol","price":1.839,"self":true,"updatedAt":"26/06/2026 11:02:07"},{"type":"diesel","price":1.929,"self":true,"updatedAt":"26/06/2026 11:02:07"}]},{"id":"61658","lat":46.898945348609544,"lon":11.43486534303895,"name":"IP TANKSTELLE KOFLER","brand":"Api-Ip","address":"VIA BRENNERO 22 39049, VAL DI VIZZE, BZ","prices":[{"type":"petrol","price":1.879,"self":true,"updatedAt":"25/06/2026 10:56:09"},{"type":"diesel","price":1.959,"self":true,"updatedAt":"25/06/2026 10:56:10"}]},{"id":"57851","lat":46.88873,"lon":11.441102,"name":"03176 VIPITENO","brand":"Agip Eni","address":"Via Brennero 4  39100, VIPITENO, BZ","prices":[{"type":"petrol","price":1.829,"self":true,"updatedAt":"26/06/2026 23:26:05"},{"type":"diesel","price":1.889,"self":true,"updatedAt":"27/06/2026 07:34:08"}]},{"id":"56880","lat":46.889618,"lon":11.430629,"name":"6898","brand":"Tamoil","address":"Via Brennero 4  39049, VIPITENO, BZ","prices":[{"type":"petrol","price":1.829,"self":true,"updatedAt":"27/06/2026 00:34:54"},{"type":"diesel","price":1.899,"self":true,"updatedAt":"27/06/2026 00:34:54"},{"type":"lpg","price":0.769,"self":false,"updatedAt":"26/06/2026 23:27:56"}]},{"id":"32819","lat":46.89392080584685,"lon":11.435986284655769,"name":"Kostner - Sterzing","brand":"Kostner","address":"Brennerstraße  8 39049, VIPITENO, BZ","prices":[{"type":"petrol","price":1.869,"self":true,"updatedAt":"26/06/2026 23:54:43"},{"type":"diesel","price":1.949,"self":true,"updatedAt":"26/06/2026 23:54:43"}]}]