[{"id":"51972","lat":46.8804343676398,"lon":11.435335263489796,"name":"SADOBRE","brand":"Agip Eni","address":"A22 BRENNERO-MODENA, Km. 15,75, Sud - 39040, CAMPO DI TRENS, BZ","prices":[{"type":"petrol","price":1.998,"self":true,"updatedAt":"18/06/2026 16:07:00"},{"type":"diesel","price":2.048,"self":true,"updatedAt":"18/06/2026 16:07:00"}]},{"id":"51973","lat":46.8688019917313,"lon":11.483927013521702,"name":"TRENS EST","brand":"Esso","address":"A22 BRENNERO-MODENA, Km. 20,06, Nord - 39040, CAMPO DI TRENS, BZ","prices":[{"type":"petrol","price":1.978,"self":true,"updatedAt":"15/06/2026 12:44:12"},{"type":"diesel","price":2.048,"self":true,"updatedAt":"15/06/2026 12:44:12"}]},{"id":"51974","lat":46.867925619238655,"lon":11.484362302828256,"name":"TRENS OVEST","brand":"Esso","address":"A22 BRENNERO-MODENA, Km. 20,06, Sud - 39040, CAMPO DI TRENS, BZ","prices":[{"type":"petrol","price":1.998,"self":true,"updatedAt":"19/06/2026 08:58:17"},{"type":"diesel","price":2.048,"self":true,"updatedAt":"19/06/2026 08:58:17"}]},{"id":"61912","lat":46.870669357995205,"lon":11.490202059661856,"name":"ESSO","brand":"Esso","address":"VIA VALLE AURINA 7 39032, CAMPO TURES, BZ","prices":[{"type":"petrol","price":1.879,"self":true,"updatedAt":"17/06/2026 07:48:22"},{"type":"diesel","price":1.999,"self":true,"updatedAt":"17/06/2026 07:48:22"}]},{"id":"40144","lat":46.77066910771632,"lon":11.36789783835411,"name":"GNP - SARENTINO RIO BIANCO","brand":"GNP","address":"LOCALITA' RIO BIANCO 24 39058, SARENTINO (BZ) 24 39058, SARENTINO, BZ","prices":[{"type":"petrol","price":1.857,"self":true,"updatedAt":"20/06/2026 23:43:15"},{"type":"diesel","price":1.957,"self":true,"updatedAt":"20/06/2026 23:43:15"}]},{"id":"61658","lat":46.898945348609544,"lon":11.43486534303895,"name":"IP TANKSTELLE KOFLER","brand":"Api-Ip","address":"VIA BRENNERO 22 39049, VAL DI VIZZE, BZ","prices":[{"type":"petrol","price":1.899,"self":true,"updatedAt":"18/06/2026 07:43:48"},{"type":"diesel","price":1.999,"self":true,"updatedAt":"18/06/2026 07:43:48"}]},{"id":"57851","lat":46.88873,"lon":11.441102,"name":"03176 VIPITENO","brand":"Agip Eni","address":"Via Brennero 4  39100, VIPITENO, BZ","prices":[{"type":"petrol","price":1.829,"self":true,"updatedAt":"21/06/2026 00:43:44"},{"type":"diesel","price":1.919,"self":true,"updatedAt":"21/06/2026 00:43:44"}]},{"id":"56880","lat":46.889618,"lon":11.430629,"name":"6898","brand":"Tamoil","address":"Via Brennero 4  39049, VIPITENO, BZ","prices":[{"type":"petrol","price":1.849,"self":true,"updatedAt":"21/06/2026 01:05:48"},{"type":"diesel","price":1.929,"self":true,"updatedAt":"21/06/2026 01:05:47"},{"type":"lpg","price":0.799,"self":false,"updatedAt":"20/06/2026 23:26:55"}]},{"id":"32819","lat":46.89392080584685,"lon":11.435986284655769,"name":"Kostner - Sterzing","brand":"Kostner","address":"Brennerstraße  8 39049, VIPITENO, BZ","prices":[{"type":"petrol","price":1.889,"self":true,"updatedAt":"21/06/2026 00:40:44"},{"type":"diesel","price":1.979,"self":true,"updatedAt":"21/06/2026 00:40:44"}]}]